index,time,center_freq,dist,h_dist,v_dist,wav_type,detected,power,avgPower,snr,avgSnr,freq_offset,path_loss,avg_pl,est_dist,peaks,orig_peaks,start_point,aod_theta,aod_phi,aoa_theta,aoa_phi,stage,corr,save_corr,rsrp,shadowing,multipath,delay,doppler,type,lat,lon,alt,pitch,yaw,roll,vel_x,vel_y,vel_z,heading,speed,vehicle,avg_pl_rolling,avg_pl_ewma
0,11.0,3620,33.80534,31.597353,12.017,ZC,True,[ 0.976087    1.02396123  1.01266979 -1.45093447],0.3904459,[-6.01453245 -5.85503111 -5.91326208 -5.11163945],-5.723616273144355,-341.06552,[69.6522256  69.60435138 69.61564281 72.07924707],70.2378667162064,21.413746999999997,[ 246  647 1048 1449],[ 546  947 1348 1749],546,1.163383083383829,0.4706854556234236,-1.9782128382116833,-0.4706854556234236,Landing,"[ 5.1900645e-07+1.5916197e-06j  6.5740818e-07+4.4980558e-07j
  3.1140385e-07-8.3041027e-07j ...  1.4458588e-01-4.7706649e-02j
 -6.2476195e-02-4.8412506e-02j -5.3708516e-03+3.1799421e-02j]",True,0,0,0,0,0,UAV,35.727367,-78.696236,-0.017,-0.0303447637706995,0.061105914413928986,-0.07736774533987045,0.11,0.04,-0.15,0,0.19026297590440447,"                                  0
time     2023-12-15 16:14:29.983815
type                            UAV
lat                       35.727366
lon                      -78.696238
alt                          -0.017
pitch                     -0.030345
yaw                        0.061106
roll                      -0.077368
vel_x                          0.11
vel_y                          0.04
vel_z                         -0.15
heading                           0
speed                      0.190263",,70.2378667162064
0,11.400001,3620,33.80534,31.597353,12.017,ZC,True,[ 1.11326115  1.01935728  1.03860084 -1.52993658],0.41032067,[-5.86125499 -5.80580078 -5.80807733 -4.93665561],-5.602947176774707,159.22824,[69.51505145 69.60895532 69.58971176 72.15824918],70.21799192963978,21.413746999999997,[ 246  647 1048 1449],[ 546  947 1348 1749],546,1.163383083383829,0.4706854556234236,-1.9782128382116833,-0.4706854556234236,Landing,"[ 2.7680343e-07-8.4771051e-07j -1.1418142e-06+1.3840172e-07j
  4.1520514e-07+7.6120944e-07j ... -2.4828074e-02-2.0138487e-02j
 -2.8987102e-02+3.2217741e-02j  6.7760358e-03-3.5736214e-02j]",True,0,0,0,0,0,UAV,35.727367,-78.696236,-0.017,-0.0303447637706995,0.061105914413928986,-0.07736774533987045,0.11,0.04,-0.15,0,0.19026297590440447,"                                  0
time     2023-12-15 16:14:29.983815
type                            UAV
lat                       35.727366
lon                      -78.696238
alt                          -0.017
pitch                     -0.030345
yaw                        0.061106
roll                      -0.077368
vel_x                          0.11
vel_y                          0.04
vel_z                         -0.15
heading                           0
speed                      0.190263",,70.22682516811383
0,11.8,3620,33.80534,31.597353,12.017,ZC,True,[ 1.21670223  1.08300299  1.0631179  -1.52853954],0.4585709,[-5.78307382 -5.7223514  -5.71399465 -4.84381244],-5.515808079618116,-236.42303,[69.41161038 69.54530961 69.5651947  72.15685214],70.16974170768313,21.413746999999997,[ 246  647 1048 1449],[ 546  947 1348 1749],546,1.163383083383829,0.4706854556234236,-1.9782128382116833,-0.4706854556234236,Landing,"[-8.3041027e-07-9.8611224e-07j -8.5636060e-07-7.2660902e-07j
  3.0275376e-07+1.1245139e-06j ... -8.6775802e-02+1.9567208e-02j
 -6.3351445e-02+8.8470019e-02j  8.5422166e-02-3.1525418e-02j]",True,0,0,0,0,0,UAV,35.727367,-78.696236,-0.017,-0.0303447637706995,0.061105914413928986,-0.07736774533987045,0.11,0.04,-0.15,0,0.19026297590440447,"                                  0
time     2023-12-15 16:14:29.983815
type                            UAV
lat                       35.727366
lon                      -78.696238
alt                          -0.017
pitch                     -0.030345
yaw                        0.061106
roll                      -0.077368
vel_x                          0.11
vel_y                          0.04
vel_z                         -0.15
heading                           0
speed                      0.190263",,70.20343030728158
0,12.2,3620,33.80534,31.597353,12.017,ZC,True,[ 1.16213437  1.07041757  1.11712354 -1.44935373],0.47508043,[-5.75915443 -5.78298507 -5.8218098  -4.99197438],-5.588980921757713,-295.47034,[69.46617823 69.55789504 69.51118906 72.07766634],70.15323216657984,21.413746999999997,[ 246  647 1048 1449],[ 546  947 1348 1749],546,1.163383083383829,0.4706854556234236,-1.9782128382116833,-0.4706854556234236,Landing,"[-1.03801290e-06+2.7680343e-07j -8.65010747e-08+1.1418142e-06j
  1.03801284e-07+6.2280770e-07j ...  7.64705613e-02-3.3161052e-02j
  1.08570438e-02-1.4295064e-02j  2.28881836e-03+2.4353754e-02j]",True,0,0,0,0,0,UAV,35.727367,-78.696236,-0.017,-0.0303447637706995,0.061105914413928986,-0.07736774533987045,0.11,0.04,-0.15,0,0.19026297590440447,"                                  0
time     2023-12-15 16:14:29.983815
type                            UAV
lat                       35.727366
lon                      -78.696238
alt                          -0.017
pitch                     -0.030345
yaw                        0.061106
roll                      -0.077368
vel_x                          0.11
vel_y                          0.04
vel_z                         -0.15
heading                           0
speed                      0.190263",,70.18642551707097
0,12.6,3620,33.80534,31.597353,12.017,ZC,True,[ 1.3159794   1.22479094  1.28155905 -1.33190943],0.62260497,[-5.75024725 -5.73941895 -5.80086759 -4.88877555],-5.5448273345940855,-191.09615,[69.3123332  69.40352166 69.34675355 71.96022204],70.00570761336729,21.413746999999997,[ 246  647 1048 1449],[ 546  947 1348 1749],546,1.163383083383829,0.4706854556234236,-1.9782128382116833,-0.4706854556234236,Landing,"[ 3.9790493e-07+5.0170621e-07j  7.0930878e-07+5.5360687e-07j
  4.4980558e-07+6.9200858e-08j ...  1.2390390e-01-9.9196918e-02j
  5.9116520e-02-4.0123556e-02j -8.4780633e-02+4.2267952e-02j]",True,0,0,0,0,0,UAV,35.727367,-78.696236,-0.017,-0.0303447637706995,0.061105914413928986,-0.07736774533987045,0.11,0.04,-0.15,0,0.19026297590440447,"                                  0
time     2023-12-15 16:14:29.983815
type                            UAV
lat                       35.727366
lon                      -78.696238
alt                          -0.017
pitch                     -0.030345
yaw                        0.061106
roll                      -0.077368
vel_x                          0.11
vel_y                          0.04
vel_z                         -0.15
heading                           0
speed                      0.190263",,70.13266602644042
0,13.0,3620,33.80534,31.597353,12.017,ZC,True,[ 1.23715334  1.14951617  1.12438275 -1.42179464],0.5223144,[-5.66258795 -5.69740321 -5.72248584 -4.8713968 ],-5.488468450542497,-155.61626,[69.39115926 69.47879644 69.50392986 72.05010725],70.10599820027115,21.413746999999997,[ 246  647 1048 1449],[ 546  947 1348 1749],546,1.163383083383829,0.4706854556234236,-1.9782128382116833,-0.4706854556234236,Landing,"[ 3.4600430e-07-1.2110150e-06j -1.6435204e-06-4.3250537e-07j
  1.7300215e-08+2.5950322e-07j ... -5.4479137e-02-1.1300413e-01j
 -4.8577618e-03+1.0435147e-01j  4.4038579e-02+8.6054038e-03j]",True,0,0,0,0,0,UAV,35.727367,-78.696236,-0.017,-0.0303447637706995,0.061105914413928986,-0.07736774533987045,0.11,0.04,-0.15,0,0.19026297590440447,"                                  0
time     2023-12-15 16:14:29.983815
type                            UAV
lat                       35.727366
lon                      -78.696238
alt                          -0.017
pitch                     -0.030345
yaw                        0.061106
roll                      -0.077368
vel_x                          0.11
vel_y                          0.04
vel_z                         -0.15
heading                           0
speed                      0.190263",,70.12543756284609
0,13.400001,3620,33.80534,31.597353,12.017,ZC,True,[ 1.21265546  1.31576217  1.30307868 -1.3523166 ],0.6197949,[-5.63916544 -5.60969464 -5.63080381 -4.73514195],-5.403701461153459,33.35465,[69.41565714 69.31255043 69.32523393 71.9806292 ],70.00851767524655,21.413746999999997,[ 246  647 1048 1449],[ 546  947 1348 1749],546,1.163383083383829,0.4706854556234236,-1.9782128382116833,-0.4706854556234236,Landing,"[ 1.2456154e-06-3.4600429e-08j  4.8440603e-07-1.7300215e-07j
  5.5360687e-07-6.2280770e-07j ... -3.4724593e-02+1.3407987e-01j
  8.4902495e-02+1.4654666e-02j -2.6338072e-02-3.1343076e-02j]",True,0,0,0,0,0,UAV,35.727367,-78.696236,-0.017,-0.0303447637706995,0.061105914413928986,-0.07736774533987045,0.11,0.04,-0.15,0,0.19026297590440447,"                                  0
time     2023-12-15 16:14:29.983815
type                            UAV
lat                       35.727366
lon                      -78.696238
alt                          -0.017
pitch                     -0.030345
yaw                        0.061106
roll                      -0.077368
vel_x                          0.11
vel_y                          0.04
vel_z                         -0.15
heading                           0
speed                      0.190263",,70.09584825843342
0,13.8,3620,33.80534,31.597353,12.017,ZC,True,[ 1.08137021  0.94075411  1.00669838 -1.60685338],0.35549232,[-5.55504779 -5.69012885 -5.71914221 -4.84901217],-5.453332752574578,-170.41034,[69.5469424  69.6875585  69.62161422 72.23516598],70.27282027450977,21.413746999999997,[ 246  647 1048 1449],[ 546  947 1348 1749],546,1.163383083383829,0.4706854556234236,-1.9782128382116833,-0.4706854556234236,Landing,"[ 4.1520514e-07+3.4600429e-08j  1.7300215e-07-7.4390925e-07j
  1.9030236e-07-4.4980558e-07j ... -6.9234073e-03+4.1597486e-02j
 -8.1743196e-02+9.7511642e-02j  2.0538634e-02-9.5461406e-02j]",True,0,0,0,0,0,UAV,35.727367,-78.696236,-0.017,-0.0303447637706995,0.061105914413928986,-0.07736774533987045,0.11,0.04,-0.15,0,0.19026297590440447,"                                  0
time     2023-12-15 16:14:29.983815
type                            UAV
lat                       35.727366
lon                      -78.696238
alt                          -0.017
pitch                     -0.030345
yaw                        0.061106
roll                      -0.077368
vel_x                          0.11
vel_y                          0.04
vel_z                         -0.15
heading                           0
speed                      0.190263",,70.13837796185607
0,14.2,3620,33.80534,31.597353,12.017,ZC,True,[ 0.94764986  0.99746149  1.00947353 -1.49804017],0.3641362,[-5.8109305  -5.81364318 -5.87873569 -4.98619702],-5.622376600480694,50.21641,[69.68066275 69.63085111 69.61883907 72.12635277],70.2641764256078,21.413746999999997,[ 246  647 1048 1449],[ 546  947 1348 1749],546,1.163383083383829,0.4706854556234236,-1.9782128382116833,-0.4706854556234236,Landing,"[-1.1547893e-06-7.6120944e-07j  4.8440603e-07+0.0000000e+00j
 -7.6120944e-07+4.1520514e-07j ...  5.1166214e-02+5.4590739e-02j
  7.6335639e-02-3.3704139e-02j -4.4313177e-02-2.4720367e-02j]",True,0,0,0,0,0,UAV,35.727367,-78.696236,-0.017,-0.0303447637706995,0.061105914413928986,-0.07736774533987045,0.11,0.04,-0.15,0,0.19026297590440447,"                                  0
time     2023-12-15 16:14:29.983815
type                            UAV
lat                       35.727366
lon                      -78.696238
alt                          -0.017
pitch                     -0.030345
yaw                        0.061106
roll                      -0.077368
vel_x                          0.11
vel_y                          0.04
vel_z                         -0.15
heading                           0
speed                      0.190263",,70.16743803107211
0,14.6,3620,33.80534,31.597353,12.017,ZC,True,[ 0.78959931  0.74165052  0.82417472 -1.72521786],0.15755168,[-5.78805929 -5.99037743 -5.97050861 -5.08240683],-5.70783804188958,-122.67379,[69.8387133  69.88666208 69.80413788 72.35353046],70.47076092986785,21.413746999999997,[ 246  647 1048 1449],[ 546  947 1348 1749],546,1.163383083383829,0.4706854556234236,-1.9782128382116833,-0.4706854556234236,Landing,"[ 1.2153400e-06-2.5950322e-07j  9.6881206e-07-6.5740818e-07j
 -2.4220301e-07-2.6815331e-07j ...  5.8121663e-02+5.9960466e-03j
  8.1627257e-03+6.0440029e-04j -3.1953193e-02+1.7547401e-02j]",True,0,0,0,0,0,UAV,35.727367,-78.696236,-0.017,-0.0303447637706995,0.061105914413928986,-0.07736774533987045,0.11,0.04,-0.15,0,0.19026297590440447,"                                  0
time     2023-12-15 16:14:29.983815
type                            UAV
lat                       35.727366
lon                      -78.696238
alt                          -0.017
pitch                     -0.030345
yaw                        0.061106
roll                      -0.077368
vel_x                          0.11
vel_y                          0.04
vel_z                         -0.15
heading                           0
speed                      0.190263",70.19068136389795,70.23539996827247
0,15.0,3620,33.80534,31.597353,12.017,ZC,True,[ 0.59374423  0.46662662  0.55365506 -1.9242928 ],-0.07756672,[-5.97846934 -6.22468506 -6.24899385 -5.35885306],-5.952750326415872,-43.425682,[70.03456837 70.16168598 70.07465754 72.55260541],70.70587932619124,21.413746999999997,[ 246  647 1048 1449],[ 546  947 1348 1749],546,1.163383083383829,0.4706854556234236,-1.9782128382116833,-0.4706854556234236,Landing,"[-1.1072137e-06-4.1520514e-07j -4.4980558e-07-4.1520514e-07j
  8.4771051e-07+2.0760257e-07j ...  1.1552011e-02-4.8268465e-03j
  2.5845516e-02-1.2885071e-01j -1.6083352e-02+6.6590466e-02j]",True,0,0,0,0,0,UAV,35.727367,-78.696236,-0.017,-0.0303447637706995,0.061105914413928986,-0.07736774533987045,0.11,0.04,-0.15,0,0.19026297590440447,"                                  0
time     2023-12-15 16:14:29.983815
type                            UAV
lat                       35.727366
lon                      -78.696238
alt                          -0.017
pitch                     -0.030345
yaw                        0.061106
roll                      -0.077368
vel_x                          0.11
vel_y                          0.04
vel_z                         -0.15
heading                           0
speed                      0.190263",70.23748262489644,70.33833816349612
0,15.400001,3620,33.80534,31.597353,12.017,ZC,True,[-1.01473214  1.05940066  1.11724992 -1.49403757],-0.083029784,[-8.42235023 -7.21547523 -7.21722191 -6.07404702],-7.232273594536963,204.6774,[71.64304474 69.56891195 69.51106269 72.12235017],70.71134238781718,26.767183749999997,[ 247  648 1049 1450],[ 547  948 1349 1750],547,1.163383083383829,0.4706854556234236,-1.9782128382116833,-0.4706854556234236,Landing,"[ 3.1140385e-07-3.8060472e-07j  2.7680343e-07-6.0550752e-07j
 -6.9200858e-08-2.4220301e-07j ... -9.9530473e-02-1.7721198e-01j
 -6.8151861e-02+4.3933168e-02j  6.0426883e-02+5.9114557e-02j]",True,0,0,0,0,0,UAV,35.727367,-78.696236,-0.017,-0.0303447637706995,0.061105914413928986,-0.07736774533987045,0.11,0.04,-0.15,0,0.19026297590440447,"                                  0
time     2023-12-15 16:14:29.983815
type                            UAV
lat                       35.727366
lon                      -78.696238
alt                          -0.017
pitch                     -0.030345
yaw                        0.061106
roll                      -0.077368
vel_x                          0.11
vel_y                          0.04
vel_z                         -0.15
heading                           0
speed                      0.190263",70.28681767071417,70.41844382768711
0,15.8,3620,33.80534,31.597353,12.017,ZC,True,[ 0.71327225  0.89915475  0.97512916 -1.55711827],0.2576095,[-7.20842375 -7.51454547 -7.50510457 -6.47476822],-7.17571050214324,-227.19286,[69.91504035 69.72915786 69.65318344 72.18543088],70.37070313224216,26.767183749999997,[ 247  648 1049 1450],[ 547  948 1349 1750],547,1.163383083383829,0.4706854556234236,-1.9782128382116833,-0.4706854556234236,Landing,"[-8.2176018e-07+2.2836284e-06j  9.1691135e-07+0.0000000e+00j
 -2.0760257e-07+4.4980558e-07j ...  7.4216396e-02-1.5357408e-01j
 -8.1660477e-03-2.8934851e-02j -3.5767917e-02+5.6642182e-02j]",True,0,0,0,0,0,UAV,35.727367,-78.696236,-0.017,-0.0303447637706995,0.061105914413928986,-0.07736774533987045,0.11,0.04,-0.15,0,0.19026297590440447,"                                  0
time     2023-12-15 16:14:29.983815
type                            UAV
lat                       35.727366
lon                      -78.696238
alt                          -0.017
pitch                     -0.030345
yaw                        0.061106
roll                      -0.077368
vel_x                          0.11
vel_y                          0.04
vel_z                         -0.15
heading                           0
speed                      0.190263",70.30691381317008,70.40834023787404
0,16.2,3620,33.80534,31.597353,12.017,ZC,True,[ 1.35982593  1.47734499  1.51693738 -1.03874301],0.8288413,[-6.82821585 -6.90308826 -6.88683759 -5.97119564],-6.647334334279153,-243.91843,[69.26848667 69.15096761 69.11137522 71.66705561],69.79947127786947,21.413746999999997,[ 246  647 1048 1449],[ 546  947 1348 1749],546,1.163383083383829,0.4706854556234236,-1.9782128382116833,-0.4706854556234236,Landing,"[ 1.2975161e-07+1.1937148e-06j  1.0380129e-06+3.4600430e-07j
  3.4600429e-08-8.3041027e-07j ... -1.2418710e-01-9.0023942e-02j
  6.7894898e-02+1.1497747e-01j  4.0954832e-02-3.3814967e-02j]",True,0,0,0,0,0,UAV,35.727367,-78.696236,-0.017,-0.0303447637706995,0.061105914413928986,-0.07736774533987045,0.11,0.04,-0.15,0,0.19026297590440447,"                                  0
time     2023-12-15 16:14:29.983815
type                            UAV
lat                       35.727366
lon                      -78.696238
alt                          -0.017
pitch                     -0.030345
yaw                        0.061106
roll                      -0.077368
vel_x                          0.11
vel_y                          0.04
vel_z                         -0.15
heading                           0
speed                      0.190263",70.27153772429904,70.28096439715438
0,16.6,3620,33.80534,31.597353,12.017,ZC,True,[-4.09696766  0.91196649  0.98091422 -1.6141447 ],-0.9545579,[-9.9550474  -7.6687236  -7.5859318  -6.55586952],-7.941393079328821,-361.9279,[74.72528026 69.71634611 69.64739838 72.24245731],71.58287051571045,21.413746999999997,[ 246  648 1049 1450],[ 546  948 1349 1750],546,1.163383083383829,0.4706854556234236,-1.9782128382116833,-0.4706854556234236,Landing,"[ 1.0034124e-06+4.1520514e-07j  4.8440603e-07-2.5950322e-07j
 -6.9200858e-08-1.7300215e-07j ... -1.1447029e-01+3.3546638e-02j
 -7.1478136e-02+1.8723123e-02j  6.8421520e-02-5.7649989e-02j]",True,0,0,0,0,0,UAV,35.727367,-78.696236,-0.017,-0.0303447637706995,0.061105914413928986,-0.07736774533987045,0.11,0.04,-0.15,0,0.19026297590440447,"                                  0
time     2023-12-15 16:14:29.983815
type                            UAV
lat                       35.727366
lon                      -78.696238
alt                          -0.017
pitch                     -0.030345
yaw                        0.061106
roll                      -0.077368
vel_x                          0.11
vel_y                          0.04
vel_z                         -0.15
heading                           0
speed                      0.190263",70.42925401453337,70.5508410618545
0,17.0,3620,33.80534,31.597353,12.017,ZC,True,[ 0.40777347  0.33361737  0.40807013 -1.89342472],-0.18599094,[-7.91173756 -8.86455856 -8.65776065 -7.59080623],-8.256215749116766,-274.49353,[70.22053914 70.29469523 70.22024247 72.52173732],70.81430354161394,26.767183749999997,[ 247  648 1049 1450],[ 547  948 1349 1750],547,1.163383083383829,0.4706854556234236,-1.9782128382116833,-0.4706854556234236,Landing,"[ 1.3840172e-07-1.2110150e-06j -6.4010794e-07+8.3041027e-07j
 -6.9200858e-08+7.6120944e-07j ... -1.4324605e-01-6.2750299e-03j
  2.8513868e-03+4.2344075e-02j  5.6550916e-02-3.6469493e-02j]",True,0,0,0,0,0,UAV,35.727367,-78.696236,-0.017,-0.0303447637706995,0.061105914413928986,-0.07736774533987045,0.11,0.04,-0.15,0,0.19026297590440447,"                                  0
time     2023-12-15 16:14:29.983815
type                            UAV
lat                       35.727366
lon                      -78.696238
alt                          -0.017
pitch                     -0.030345
yaw                        0.061106
roll                      -0.077368
vel_x                          0.11
vel_y                          0.04
vel_z                         -0.15
heading                           0
speed                      0.190263",70.50008454866764,70.6050596761253
0,17.4,3620,33.80534,31.597353,12.017,ZC,True,[ 0.31444114  1.45960551  1.51711458 -1.12981472],0.5403366,[-7.28789265 -6.97281687 -6.93391276 -5.99076161],-6.796345973923336,-426.77258,[70.31387146 69.16870709 69.11119802 71.75812732],70.0879759742914,21.413746999999997,[ 246  647 1048 1449],[ 546  947 1348 1749],546,1.163383083383829,0.4706854556234236,-1.9782128382116833,-0.4706854556234236,Landing,"[-1.2802159e-06+1.6954210e-06j  3.2870409e-07+5.5360687e-07j
  1.3840172e-07-1.5570193e-07j ... -7.1283109e-02+3.4354073e-03j
  3.1138552e-02-3.9627352e-03j -1.1168915e-02+2.5939250e-03j]",True,0,0,0,0,0,UAV,35.727367,-78.696236,-0.017,-0.0303447637706995,0.061105914413928986,-0.07736774533987045,0.11,0.04,-0.15,0,0.19026297590440447,"                                  0
time     2023-12-15 16:14:29.983815
type                            UAV
lat                       35.727366
lon                      -78.696238
alt                          -0.017
pitch                     -0.030345
yaw                        0.061106
roll                      -0.077368
vel_x                          0.11
vel_y                          0.04
vel_z                         -0.15
heading                           0
speed                      0.190263",70.50803037857213,70.49926055126195
0,17.8,3620,33.80534,31.597353,12.017,ZC,True,[-11.62404978   0.8946667    1.03507645  -1.43670515],-2.782753,[-9.88211858 -7.69100851 -7.47464506 -6.55083639],-7.899652136109491,867.65027,[82.25236238 69.73364591 69.59323615 72.06501775],73.41106554889816,16.06031025,[ 245  647 1048 1449],[ 545  947 1348 1749],545,1.163383083383829,0.4706854556234236,-1.9782128382116833,-0.4706854556234236,Landing,"[ 2.7680343e-07-5.1900642e-08j -2.7680343e-07-6.9200858e-08j
 -1.9030236e-07+3.4600429e-08j ... -4.6156351e-02+1.0797922e-01j
 -6.6767305e-02-1.8420437e-02j  1.3489358e-02-4.3641567e-02j]",True,0,0,0,0,0,UAV,35.727367,-78.696236,-0.017,-0.0303447637706995,0.061105914413928986,-0.07736774533987045,0.11,0.04,-0.15,0,0.19026297590440447,"                                  0
time     2023-12-15 16:14:29.983815
type                            UAV
lat                       35.727366
lon                      -78.696238
alt                          -0.017
pitch                     -0.030345
yaw                        0.061106
roll                      -0.077368
vel_x                          0.11
vel_y                          0.04
vel_z                         -0.15
heading                           0
speed                      0.190263",70.82185490601096,71.0923048878014
0,18.2,3620,33.80534,31.597353,12.017,ZC,True,[ 0.17703806  1.29595906  1.33118268 -1.1607544 ],0.41085634,[-7.30187246 -6.96915101 -6.98359071 -5.99411059],-6.812181191305263,-134.08565,[70.45127455 69.33235354 69.29712993 71.789067  ],70.21745625484043,21.413746999999997,[ 246  647 1048 1449],[ 546  947 1348 1749],546,1.163383083383829,0.4706854556234236,-1.9782128382116833,-0.4706854556234236,Landing,"[-3.1140385e-07+2.2490279e-07j -1.7300215e-07-2.9410364e-07j
  2.4220301e-07+5.7090710e-07j ...  7.2143517e-02+6.2131591e-02j
  7.1653344e-02-4.1428633e-02j -4.1107733e-02+5.8686271e-02j]",True,0,0,0,0,0,UAV,35.727367,-78.696236,-0.017,-0.0303447637706995,0.061105914413928986,-0.07736774533987045,0.11,0.04,-0.15,0,0.19026297590440447,"                                  0
time     2023-12-15 16:14:29.983815
type                            UAV
lat                       35.727366
lon                      -78.696238
alt                          -0.017
pitch                     -0.030345
yaw                        0.061106
roll                      -0.077368
vel_x                          0.11
vel_y                          0.04
vel_z                         -0.15
heading                           0
speed                      0.190263",70.81718288893424,70.91477671054379
0,18.6,3620,33.80534,31.597353,12.017,ZC,True,[-10.77351337   1.25043484   1.5896995   -0.99434275],-2.2319305,[-10.18213231  -7.63768527  -7.24125659  -6.24099135],-7.825516379831895,667.8971,[81.40182598 69.37787776 69.0386131  71.62265536],72.86024304872745,21.413746999999997,[ 246  647 1048 1449],[ 546  947 1348 1749],546,1.163383083383829,0.4706854556234236,-1.9782128382116833,-0.4706854556234236,Landing,"[ 5.1900645e-07+7.6120944e-07j -1.3840172e-07-1.0034124e-06j
  2.4220301e-07-6.9200858e-08j ...  2.3967216e-02+9.5979720e-02j
  3.0598076e-02+5.0037343e-02j -3.2898914e-02-1.4161004e-02j]",True,0,0,0,0,0,UAV,35.727367,-78.696236,-0.017,-0.0303447637706995,0.061105914413928986,-0.07736774533987045,0.11,0.04,-0.15,0,0.19026297590440447,"                                  0
time     2023-12-15 16:14:29.983815
type                            UAV
lat                       35.727366
lon                      -78.696238
alt                          -0.017
pitch                     -0.030345
yaw                        0.061106
roll                      -0.077368
vel_x                          0.11
vel_y                          0.04
vel_z                         -0.15
heading                           0
speed                      0.190263",71.05613110082018,71.30840824074107
0,19.0,3620,33.80534,31.597353,12.017,ZC,True,[-0.88257559  1.32120434  1.34830559 -1.21857003],0.14209108,[-7.47832652 -7.38165052 -7.35047521 -6.35470506],-7.1412893266063895,-179.0167,[71.5108882  69.30710827 69.28000702 71.84688263],70.48622152918527,21.413746999999997,[ 246  647 1048 1449],[ 546  947 1348 1749],546,1.163383083383829,0.4706854556234236,-1.9782128382116833,-0.4706854556234236,Landing,"[-6.2280770e-07-4.49805583e-07j -3.4600430e-07+6.22807704e-07j
  3.6330451e-07-7.26609017e-07j ... -2.9523842e-02+1.20770685e-01j
  7.0512905e-03+7.31448606e-02j  7.1416325e-03-7.81879723e-02j]",True,0,0,0,0,0,UAV,35.727367,-78.696236,-0.017,-0.0303447637706995,0.061105914413928986,-0.07736774533987045,0.11,0.04,-0.15,0,0.19026297590440447,"                                  0
time     2023-12-15 16:14:29.983815
type                            UAV
lat                       35.727366
lon                      -78.696238
alt                          -0.017
pitch                     -0.030345
yaw                        0.061106
roll                      -0.077368
vel_x                          0.11
vel_y                          0.04
vel_z                         -0.15
heading                           0
speed                      0.190263",71.03416532111959,71.14244011263817
0,19.4,3620,33.80534,31.597353,12.017,ZC,True,[ 0.93775411  1.002132   -1.53106163],0.13627483,[-8.44451962 -8.55516866 -7.42753442],-8.142407563293283,-256.3156,[69.6905585  69.6261806  72.15937423],70.49203777730834,26.767183749999997,[ 247 1049 1450],[ 547 1349 1750],547,1.163383083383829,0.4706854556234236,-1.9782128382116833,-0.4706854556234236,Landing,"[ 6.4875803e-07-1.4878185e-06j -9.1691135e-07-3.1140385e-07j
  0.0000000e+00+2.7680343e-07j ...  1.0968128e-02+2.9058306e-02j
 -1.5908597e-02+6.2509654e-03j  1.8861456e-02-1.0529387e-02j]",True,0,0,0,0,0,UAV,35.727367,-78.696236,-0.017,-0.0303447637706995,0.061105914413928986,-0.07736774533987045,0.11,0.04,-0.15,0,0.19026297590440447,"                                  0
time     2023-12-15 16:14:29.983815
type                            UAV
lat                       35.727366
lon                      -78.696238
alt                          -0.017
pitch                     -0.030345
yaw                        0.061106
roll                      -0.077368
vel_x                          0.11
vel_y                          0.04
vel_z                         -0.15
heading                           0
speed                      0.190263",71.01223486006872,71.01139268623767
0,19.8,3620,33.80534,31.597353,12.017,ZC,True,[-0.12237016  1.18779109  1.21783621 -1.2570448 ],0.25655308,[-7.50412473 -7.63950466 -7.62191011 -6.58405576],-7.337398814627209,-7.5192432,[70.75068277 69.44052151 69.4104764  71.88535741],70.37175952129684,21.413746999999997,[ 246  647 1048 1449],[ 546  947 1348 1749],546,1.163383083383829,0.4706854556234236,-1.9782128382116833,-0.4706854556234236,Landing,"[-1.4878185e-06+5.5360687e-07j  6.9200858e-08+4.5845567e-07j
 -2.7680343e-07-5.0170621e-07j ...  1.9894244e-02+3.5148118e-02j
 -8.0812745e-02-2.1953903e-02j  2.9693672e-02-3.8771338e-03j]",True,0,0,0,0,0,UAV,35.727367,-78.696236,-0.017,-0.0303447637706995,0.061105914413928986,-0.07736774533987045,0.11,0.04,-0.15,0,0.19026297590440447,"                                  0
time     2023-12-15 16:14:29.983815
type                            UAV
lat                       35.727366
lon                      -78.696238
alt                          -0.017
pitch                     -0.030345
yaw                        0.061106
roll                      -0.077368
vel_x                          0.11
vel_y                          0.04
vel_z                         -0.15
heading                           0
speed                      0.190263",71.01234049897417,70.88270642363284
0,20.2,3620,33.80534,31.597353,12.017,ZC,True,[-2.68872268  1.47166004  1.51479242 -1.03266953],-0.18373494,[-9.24833745 -7.30977991 -7.28649895 -6.31640654],-7.540255712875365,-22.367165,[73.31703529 69.15665256 69.11352019 71.66098214],70.81204754298435,16.06031025,[ 245  647 1048 1449],[ 545  947 1348 1749],545,1.163383083383829,0.4706854556234236,-1.9782128382116833,-0.4706854556234236,Landing,"[-6.5740818e-07+3.4600429e-08j -1.7300215e-07+1.2456154e-06j
  7.7850967e-07+6.9200858e-08j ... -1.2976967e-01+4.5014396e-02j
 -6.6269718e-02+4.6052046e-02j  8.1637703e-02+9.9785905e-03j]",True,0,0,0,0,0,UAV,35.727367,-78.696236,-0.017,-0.0303447637706995,0.061105914413928986,-0.07736774533987045,0.11,0.04,-0.15,0,0.19026297590440447,"                                  0
time     2023-12-15 16:14:29.983815
type                            UAV
lat                       35.727366
lon                      -78.696238
alt                          -0.017
pitch                     -0.030345
yaw                        0.061106
roll                      -0.077368
vel_x                          0.11
vel_y                          0.04
vel_z                         -0.15
heading                           0
speed                      0.190263",71.11359812548567,70.86850759543276
0,20.6,3620,33.80534,31.597353,12.017,ZC,True,[ 1.05113107  1.21517234  1.25467754 -1.29718365],0.55594933,[-7.63836681 -7.61058335 -7.56077521 -6.57430271],-7.346007018634495,-336.1211,[69.57718154 69.41314027 69.37363506 71.92549625],70.07236328027348,21.413746999999997,[ 246  647 1048 1449],[ 546  947 1348 1749],546,1.163383083383829,0.4706854556234236,-1.9782128382116833,-0.4706854556234236,Landing,"[ 3.4600430e-07+0.0000000e+00j -6.5740818e-07+3.1140385e-07j
  8.6501075e-07+1.2456154e-06j ...  3.4450158e-02+1.0189951e-01j
 -2.8922776e-02-9.6282825e-02j -1.1444161e-02+1.8219687e-02j]",True,0,0,0,0,0,UAV,35.727367,-78.696236,-0.017,-0.0303447637706995,0.061105914413928986,-0.07736774533987045,0.11,0.04,-0.15,0,0.19026297590440447,"                                  0
time     2023-12-15 16:14:29.983815
type                            UAV
lat                       35.727366
lon                      -78.696238
alt                          -0.017
pitch                     -0.030345
yaw                        0.061106
roll                      -0.077368
vel_x                          0.11
vel_y                          0.04
vel_z                         -0.15
heading                           0
speed                      0.190263",70.96254740194198,70.70867490155575
0,21.0,3620,33.80534,31.597353,12.017,ZC,True,[ 0.51043207  0.63928943  0.66517661 -1.90368575],-0.022196911,[-9.6134855  -8.92209995 -8.91021889 -7.8933745 ],-8.834794708855243,-72.6741,[70.11788053 69.98902317 69.963136   72.53199836],70.65050951551852,16.06031025,[ 245  646 1047 1448],[ 545  946 1347 1748],545,1.163383083383829,0.4706854556234236,-1.9782128382116833,-0.4706854556234236,Landing,"[-1.7300215e-07-7.7850967e-07j -5.9685738e-07-3.2870409e-07j
  9.1691135e-07+3.1572893e-07j ...  1.0775013e-01-6.6679870e-03j
 -5.3271864e-02+5.4896541e-02j -8.4844753e-03-1.3550117e-02j]",True,0,0,0,0,0,UAV,35.727367,-78.696236,-0.017,-0.0303447637706995,0.061105914413928986,-0.07736774533987045,0.11,0.04,-0.15,0,0.19026297590440447,"                                  0
time     2023-12-15 16:14:29.983815
type                            UAV
lat                       35.727366
lon                      -78.696238
alt                          -0.017
pitch                     -0.030345
yaw                        0.061106
roll                      -0.077368
vel_x                          0.11
vel_y                          0.04
vel_z                         -0.15
heading                           0
speed                      0.190263",70.94616799933242,70.69700655894668
0,21.4,3620,33.80534,31.597353,12.017,ZC,True,[ 0.46778267  0.43496052  0.5187903  -2.03124743],-0.15242848,[-9.24492732 -8.88415794 -8.99164982 -7.89431656],-8.753762911355977,-2.1483555,[70.16052993 70.19335209 70.10952231 72.65956003],70.78074108875123,16.06031025,[ 245  646 1047 1448],[ 545  946 1347 1748],545,1.163383083383829,0.4706854556234236,-1.9782128382116833,-0.4706854556234236,Landing,"[ 8.6501075e-08+2.7680343e-07j -4.8440603e-07+3.1140385e-07j
  4.8440603e-07-1.7300215e-07j ...  1.3964179e-01+6.2037323e-02j
  2.8529335e-02-3.2447937e-03j -4.7852911e-02-3.4423519e-02j]",True,0,0,0,0,0,UAV,35.727367,-78.696236,-0.017,-0.0303447637706995,0.061105914413928986,-0.07736774533987045,0.11,0.04,-0.15,0,0.19026297590440447,"                                  0
time     2023-12-15 16:14:29.983815
type                            UAV
lat                       35.727366
lon                      -78.696238
alt                          -0.017
pitch                     -0.030345
yaw                        0.061106
roll                      -0.077368
vel_x                          0.11
vel_y                          0.04
vel_z                         -0.15
heading                           0
speed                      0.190263",71.01544451077841,70.71379405458141
0,21.8,3620,33.80534,31.597353,12.017,ZC,True,[ 0.83705329  0.89177223  0.91004349 -1.67040999],0.24211475,[-8.93055145 -8.88469688 -8.72190203 -7.86432796],-8.600369579040215,-190.58594,[69.79125931 69.73654037 69.71826911 72.2987226 ],70.38619784877912,16.06031025,[ 245  646 1047 1448],[ 545  946 1347 1748],545,1.163383083383829,0.4706854556234236,-1.9782128382116833,-0.4706854556234236,Landing,"[ 9.6881206e-07-3.80604718e-07j  3.1140385e-07-5.19006448e-07j
 -4.8440603e-07-4.49805583e-07j ...  4.4149213e-02-1.35928998e-02j
 -4.9310803e-02+5.99479787e-02j  2.0813387e-02-1.25119435e-02j]",True,0,0,0,0,0,UAV,35.727367,-78.696236,-0.017,-0.0303447637706995,0.061105914413928986,-0.07736774533987045,0.11,0.04,-0.15,0,0.19026297590440447,"                                  0
time     2023-12-15 16:14:29.983815
type                            UAV
lat                       35.727366
lon                      -78.696238
alt                          -0.017
pitch                     -0.030345
yaw                        0.061106
roll                      -0.077368
vel_x                          0.11
vel_y                          0.04
vel_z                         -0.15
heading                           0
speed                      0.190263",70.7129577407665,70.64814783516557
0,22.2,3620,33.748928,31.554861,11.97,ZC,True,[ 0.8890454   0.76062989 -1.91083643],-0.087053716,[-8.86038067 -8.89290022 -7.7051851 ],-8.486155332193169,-404.74606,[69.73926721 69.86768272 72.53914903],70.71536631819758,26.767183749999997,[ 247 1048 1449],[ 547 1348 1749],547,1.164333623973814,0.46986563596644654,-1.9772622945642648,-0.46986563596644654,Landing,"[ 9.3421158e-07+4.49805583e-07j -3.1140385e-07-3.80604718e-07j
 -5.5360687e-07+8.65010747e-07j ...  7.8773484e-02-1.12377696e-01j
  2.4536479e-02-1.14230275e-01j -1.9837534e-02+7.78838545e-02j]",True,0,0,0,0,0,UAV,35.727367,-78.696236,0.03,-0.03184792771935463,0.06178394332528114,-0.08026714622974396,0.12,0.11,-0.16,0,0.22825424421026655,"                                  0
time     2023-12-15 16:14:30.185196
type                            UAV
lat                       35.727366
lon                      -78.696238
alt                            0.03
pitch                     -0.031848
yaw                        0.061784
roll                      -0.080267
vel_x                          0.12
vel_y                          0.11
vel_z                         -0.16
heading                           0
speed                      0.228254",70.76274874710222,70.66161236712601
0,22.6,3620,33.68162,31.495771,11.936,ZC,True,[ -9.70723284  -9.39548257  -9.27195401 -12.1755057 ],-10.137544,[-5.53254662 -5.41149832 -5.42261516 -4.43191741],-5.19964437838437,-772.5938,[80.33554545 80.02379518 79.90026661 82.8038183 ],80.76585638557316,16.06031025,[ 245  646 1047 1448],[ 545  946 1347 1748],545,1.1650600890797216,0.4693519451702312,-1.9765358243626243,-0.4693519451702312,Landing,"[ 4.8440603e-07-2.7680343e-07j -2.4220301e-07-2.2490279e-07j
 -6.9200858e-08-2.7680343e-07j ...  1.2896791e-02+6.1021317e-02j
 -4.7000911e-02+5.8832027e-02j  3.0825869e-03-5.4231189e-02j]",True,0,0,0,0,0,UAV,35.727367,-78.696236,0.064,-0.01721731387078762,0.056044578552246094,-0.07794152200222015,0.13,0.22,-0.06,0,0.26248809496813374,"                                  0
time     2023-12-15 16:14:30.587209
type                            UAV
lat                       35.727367
lon                      -78.696237
alt                           0.064
pitch                     -0.017217
yaw                        0.056045
roll                      -0.077942
vel_x                          0.13
vel_y                          0.22
vel_z                         -0.06
heading                           0
speed                      0.262488",71.55331008078679,72.68496596124324
0,23.0,3620,33.541412,31.35795,11.904,ZC,True,[-0.92491882 -0.93406391 -0.74482826 -2.8757921 ],-1.3699008,[-5.72766256 -5.30612717 -5.38348407 -4.68493509],-5.2755522203473655,-586.1128,[71.55323142 71.56237651 71.37314087 73.5041047 ],71.99821337715318,16.06031025,[ 245  646 1047 1448],[ 545  946 1347 1748],545,1.1643272411971235,0.46995239627332486,-1.9772686569579871,-0.46995239627332486,Landing,"[ 1.1072137e-06+5.5360687e-07j  1.3840172e-07-1.1072137e-06j
 -1.1072137e-06-1.3840172e-07j ...  1.6901445e-01-2.2695184e+00j
 -1.2407700e+00-6.0525906e-01j  2.3938501e-01+9.9533153e-01j]",True,0,0,0,0,0,UAV,35.727367,-78.696236,0.096,-0.06422989070415497,0.04718317463994026,-0.020263710990548134,0.06,0.27,-0.05,0,0.28106938645110396,"                                  0
time     2023-12-15 16:14:30.990483
type                            UAV
lat                       35.727367
lon                      -78.696236
alt                           0.096
pitch                      -0.06423
yaw                        0.047183
roll                      -0.020264
vel_x                          0.06
vel_y                          0.27
vel_z                         -0.05
heading                           0
speed                      0.281069",71.70450926558358,72.54747928421533
0,23.4,3620,33.47553,31.287088,11.905,ZC,True,[ 0.06973124  0.00506267  0.02491114 -2.07527128],-0.49389157,[-5.99897237 -5.91721778 -5.92176185 -5.14026848],-5.7445551195427,243.58116,[70.55858137 70.62324994 70.60340146 72.70358388],71.12220416195913,16.06031025,[ 245  646 1047 1448],[ 545  946 1347 1748],545,1.1637383399034589,0.4705460489663489,-1.9778575500984572,-0.4705460489663489,Landing,"[-3.9790493e-07-5.5360687e-07j -6.9200860e-07-1.9030236e-07j
  8.6501075e-08+9.6881206e-07j ...  5.9575193e-02-2.7871268e-02j
  3.5542183e-02+7.4859671e-02j -2.7344905e-02-3.3723377e-02j]",True,0,0,0,0,0,UAV,35.727367,-78.696236,0.095,-0.060113757848739624,0.05174378305673599,-0.032432328909635544,0.06,0.22,0.02,0,0.22891046284519193,"                                  0
time     2023-12-15 16:14:31.393978
type                            UAV
lat                       35.727367
lon                      -78.696235
alt                           0.095
pitch                     -0.060114
yaw                        0.051744
roll                      -0.032432
vel_x                          0.06
vel_y                          0.22
vel_z                          0.02
heading                           0
speed                       0.22891",71.76752590404865,72.26219823683225
0,23.8,3620,33.38462,31.173738,11.947,ZC,True,[-6.90929352 -6.53827135 -6.39280025 -9.1059066 ],-7.236568,[-6.20343492 -5.70886864 -5.77271978 -4.83133557],-5.6290897267982976,-264.0207,[77.53760612 77.16658395 77.02111285 79.73421921],77.86488053364621,16.06031025,[ 245  646 1047 1448],[ 545  946 1347 1748],545,1.1641086047474778,0.471156340242591,-1.97748727404381,-0.471156340242591,Takeoff,"[ 1.3840172e-07+3.9790493e-07j  6.9200858e-08-5.5360687e-07j
  7.2660902e-07+3.8060472e-07j ...  3.7687965e-02+1.3903318e-03j
  1.4301655e-03-7.6144300e-02j -2.7490041e-04+4.7334563e-02j]",True,0,0,0,0,0,UAV,35.727367,-78.696236,0.053,-0.03899740055203438,0.07792264223098755,-0.025153860449790955,0.22,0.18,0.03,0,0.28583211855912904,"                                  0
time     2023-12-15 16:14:31.798213
type                            UAV
lat                       35.727368
lon                      -78.696234
alt                           0.053
pitch                     -0.038997
yaw                        0.077923
roll                      -0.025154
vel_x                          0.22
vel_y                          0.18
vel_z                          0.03
heading                           0
speed                      0.285832",72.5168380052836,73.38344537099636
0,24.2,3620,33.320435,31.088827,11.989,ZC,True,[-14.17245618 -14.08733828 -14.01929116 -15.70821641],-14.496825,[-5.32546023 -5.27245697 -5.26704449 -4.67804084],-5.135750630242105,-269.65094,[84.80076878 84.71565088 84.64760377 86.33652901],85.1251381101381,16.06031025,[ 245  646 1047 1448],[ 545  946 1347 1748],545,1.166040168263721,0.4708006606819939,-1.9755557044126992,-0.4708006606819939,Takeoff,"[ 7.9580985e-07-5.19006448e-07j  2.5950322e-07-2.07602568e-07j
 -4.1520514e-07-1.03801284e-07j ... -9.6313722e-02-2.43730724e-01j
 -1.4627802e-01+5.76444454e-02j  4.5808133e-02+9.39967707e-02j]",True,0,0,0,0,0,UAV,35.727367,-78.696236,0.011,-0.06290610134601593,0.09591744840145111,-0.01946607418358326,0.05,0.0,0.1,0,0.1118033988749895,"                                  0
time     2023-12-15 16:14:32.203461
type                            UAV
lat                       35.727368
lon                      -78.696233
alt                           0.011
pitch                     -0.062906
yaw                        0.095917
roll                      -0.019466
vel_x                          0.05
vel_y                           0.0
vel_z                           0.1
heading                           0
speed                      0.111803",73.94814706199898,75.73297527202041
0,24.6,3620,33.339615,31.092777,12.032,ZC,True,[ 0.18957927  0.400481    0.46152223 -2.13054679],-0.26974106,[-6.44997064 -6.36770001 -6.38420064 -5.49391709],-6.173947094268109,-422.13043,[70.43873333 70.2278316  70.16679038 72.75885939],70.89805367604838,16.06031025,[ 245  646 1047 1448],[ 545  946 1347 1748],545,1.1664827682163301,0.47095158061550596,-1.9751131054792437,-0.47095158061550596,Takeoff,"[-3.7195463e-07-6.4010794e-07j  0.0000000e+00+8.3041027e-07j
  6.9200858e-08-4.1520514e-07j ... -2.6527110e-03-6.1909024e-02j
  4.8769012e-02+4.9775902e-02j -2.7161302e-02-1.9592494e-02j]",True,0,0,0,0,0,UAV,35.727367,-78.696236,-0.032,-0.03373492509126663,0.08450039476156235,-0.04291592165827751,-0.02,-0.07,0.08,0,0.10816653826391968,"                                  0
time     2023-12-15 16:14:32.608496
type                            UAV
lat                       35.727369
lon                      -78.696234
alt                          -0.032
pitch                     -0.033735
yaw                          0.0845
roll                      -0.042916
vel_x                         -0.02
vel_y                         -0.07
vel_z                          0.08
heading                           0
speed                      0.108167",74.03071610157646,74.76559853820288
0,25.0,3620,33.36931,31.11378,12.06,ZC,True,[ 0.28206504  0.29807935  0.39276915 -2.25146401],-0.31963763,[-6.50680586 -6.39768214 -6.48273768 -5.54931026],-6.234133984996587,24.738285,[70.34624756 70.33023326 70.23554346 72.87977662],70.94795022304615,16.06031025,[ 245  646 1047 1448],[ 545  946 1347 1748],545,1.1663836950137447,0.47119556693978787,-1.9752121807201246,-0.47119556693978787,Flight,"[-6.2280770e-07-2.24902792e-07j  2.4220301e-07+1.03801284e-07j
  9.1691135e-07-6.92008598e-07j ...  7.9570711e-02+9.83766280e-03j
  5.4550052e-02+2.30358578e-02j -6.6896677e-02-1.92301080e-03j]",True,0,0,0,0,0,UAV,35.727367,-78.696236,-0.06,-0.00024594092974439263,0.08308348059654236,-0.06440603733062744,0.0,-0.01,0.0,0,0.01,"                                  0
time     2023-12-15 16:14:32.811051
type                            UAV
lat                       35.727368
lon                      -78.696234
alt                           -0.06
pitch                     -0.000246
yaw                        0.083083
roll                      -0.064406
vel_x                           0.0
vel_y                         -0.01
vel_z                           0.0
heading                           0
speed                          0.01",74.06046017232923,74.00182101519444
0,25.4,3620,33.36336,31.105461,12.065,ZC,True,[ 0.35770943  0.39898418  0.41963908 -2.26482412],-0.27212286,[-6.70433344 -6.60895896 -6.62031249 -5.66186588],-6.398867694651266,-100.57561,[70.27060318 70.22932842 70.20867353 72.89313672],70.90043546086446,16.06031025,[ 245  646 1047 1448],[ 545  946 1347 1748],545,1.166269247336673,0.47133706897917166,-1.975326627378047,-0.47133706897917166,Flight,"[-4.15205136e-07-1.1418142e-06j  3.11403852e-07-7.0930878e-07j
  3.46004292e-08+8.4771051e-07j ...  1.05361834e-01-4.3784630e-02j
 -1.11131042e-01-7.9690320e-03j  1.89826265e-02+2.8993499e-02j]",True,0,0,0,0,0,UAV,35.727367,-78.696236,-0.065,-0.005412256345152855,0.08041415363550186,-0.07100974023342133,0.0,-0.01,0.0,0,0.01,"                                  0
time     2023-12-15 16:14:33.216284
type                            UAV
lat                       35.727368
lon                      -78.696234
alt                          -0.065
pitch                     -0.005412
yaw                        0.080414
roll                       -0.07101
vel_x                           0.0
vel_y                         -0.01
vel_z                           0.0
heading                           0
speed                          0.01",74.07242960954054,73.38138282936629
0,25.8,3620,33.363724,31.105461,12.066,ZC,True,[ 0.3707731   0.4700515   0.52972703 -2.13526634],-0.19117868,[-7.07485931 -6.81536158 -6.88232987 -5.87046244],-6.660753299235186,-366.5025,[70.2575395  70.1582611  70.09858558 72.76357895],70.81949128321283,16.06031025,[ 245  646 1047 1448],[ 545  946 1347 1748],545,1.166269247336673,0.4713465780266289,-1.975326627378047,-0.4713465780266289,Flight,"[-1.7300215e-07-3.4600430e-07j -2.4220301e-07+3.4600429e-08j
  1.2110151e-07+7.7850967e-07j ... -1.8405214e-02+3.0657027e-02j
 -9.4282039e-02-5.8125746e-02j  5.9907876e-02+2.4964487e-02j]",True,0,0,0,0,0,UAV,35.727367,-78.696236,-0.066,-0.0060562980361282825,0.08208300173282623,-0.07001645117998123,0.0,0.0,0.0,0,0.0,"                                  0
time     2023-12-15 16:14:33.621393
type                            UAV
lat                       35.727368
lon                      -78.696234
alt                          -0.066
pitch                     -0.006056
yaw                        0.082083
roll                      -0.070016
vel_x                           0.0
vel_y                           0.0
vel_z                           0.0
heading                           0
speed                           0.0",74.11575895298391,72.86889808121768
0,26.2,3620,33.36336,31.105461,12.065,ZC,True,[ 0.19419167  0.25858555  0.29797971 -2.43258385],-0.42045674,[-6.98045248 -6.74070473 -6.80353687 -5.79317492],-6.579467248497135,-173.10982,[70.43412093 70.36972705 70.3303329  73.06089645],71.04876933276223,16.06031025,[ 245  646 1047 1448],[ 545  946 1347 1748],545,1.166269247336673,0.47133706897917166,-1.975326627378047,-0.47133706897917166,Flight,"[ 6.92008584e-08-7.0930878e-07j -1.03801284e-07-2.2490279e-07j
 -7.78509630e-08-2.9410364e-07j ...  5.89655675e-02+1.8448170e-02j
 -1.15537234e-02-2.1939319e-02j -1.90122183e-02+2.2288212e-03j]",True,0,0,0,0,0,UAV,35.727367,-78.696236,-0.065,-0.006438055075705051,0.08434721827507019,-0.06892885267734528,0.0,0.0,0.0,0,0.0,"                                  0
time     2023-12-15 16:14:34.026347
type                            UAV
lat                       35.727368
lon                      -78.696234
alt                          -0.065
pitch                     -0.006438
yaw                        0.084347
roll                      -0.068929
vel_x                           0.0
vel_y                           0.0
vel_z                           0.0
heading                           0
speed                           0.0",74.14909925444037,72.50481183732306
0,26.6,3620,33.360107,31.105461,12.056,ZC,True,[-0.26397163 -0.19957562 -0.17209189 -2.7942899 ],-0.85748225,[-6.4357247  -6.23153679 -6.28006962 -5.35308527],-6.075104094225422,-86.481026,[70.89228423 70.82788822 70.80040449 73.4226025 ],71.48579486205035,16.06031025,[ 245  646 1047 1448],[ 545  946 1347 1748],545,1.166269247336673,0.4712514598240702,-1.975326627378047,-0.4712514598240702,Flight,"[ 2.0760257e-07+2.68153315e-07j  2.4220301e-07+1.73002146e-08j
 -3.8060472e-07-8.65010747e-07j ... -6.4421363e-02-1.25553742e-01j
 -5.2026019e-02-9.65170637e-02j  4.0100411e-02+1.04312114e-01j]",True,0,0,0,0,0,UAV,35.727367,-78.696236,-0.056,-0.0063326978124678135,0.08578932285308838,-0.06891340762376785,0.0,-0.01,0.0,0,0.01,"                                  0
time     2023-12-15 16:14:34.431327
type                            UAV
lat                       35.727368
lon                      -78.696234
alt                          -0.056
pitch                     -0.006333
yaw                        0.085789
roll                      -0.068913
vel_x                           0.0
vel_y                         -0.01
vel_z                           0.0
heading                           0
speed                          0.01",73.2210931020881,72.3009813485493
0,27.0,3620,33.35975,31.105461,12.055,ZC,True,[-0.41278381 -0.33985065 -0.28888619 -2.95911999],-1.0001602,[-6.51995906 -6.31006222 -6.37674148 -5.4670237 ],-6.1684466153582385,-635.3285,[71.04109642 70.96816326 70.91719879 73.58743259],71.62847276565138,16.06031025,[ 245  646 1047 1448],[ 545  946 1347 1748],545,1.166269247336673,0.4712419446162433,-1.975326627378047,-0.4712419446162433,Flight,"[-6.2280770e-07-5.8820729e-07j -5.1900645e-07-4.1520514e-07j
 -2.5950321e-08-4.1520514e-07j ... -1.5679285e-01+1.0150365e-01j
  1.9929225e-02-7.8887939e-03j  2.9176258e-02-7.7519491e-03j]",True,0,0,0,0,0,UAV,35.727367,-78.696236,-0.055,-0.00616365484893322,0.08601325005292892,-0.06933782994747162,0.0,-0.02,0.0,0,0.02,"                                  0
time     2023-12-15 16:14:34.836302
type                            UAV
lat                       35.727368
lon                      -78.696234
alt                          -0.055
pitch                     -0.006164
yaw                        0.086013
roll                      -0.069338
vel_x                           0.0
vel_y                         -0.02
vel_z                           0.0
heading                           0
speed                          0.02",73.18411904093793,72.16646532777287
0,27.4,3620,33.36047,31.105461,12.057,ZC,True,[-0.27092326 -0.32343562 -0.27708983 -2.96988019],-0.9603322,[-6.31002972 -6.37423974 -6.39492473 -5.44318628],-6.130595116854906,-47.604496,[70.89923586 70.95174822 70.90540243 73.59819279],71.58864482758926,16.06031025,[ 245  646 1047 1448],[ 545  946 1347 1748],545,1.166269247336673,0.47126097440908493,-1.975326627378047,-0.47126097440908493,Flight,"[-1.2110151e-07-3.8060472e-07j  4.8440603e-07+3.6330451e-07j
 -4.2385525e-07+9.6881206e-07j ... -6.1157193e-02+6.4306833e-02j
 -1.8432755e-02-2.7008878e-02j  3.8458032e-03-3.9674365e-03j]",True,0,0,0,0,0,UAV,35.727367,-78.696236,-0.057,-0.0067773242481052876,0.08905227482318878,-0.06892998516559601,0.0,-0.01,0.0,0,0.01,"                                  0
time     2023-12-15 16:14:35.241326
type                            UAV
lat                       35.727368
lon                      -78.696234
alt                          -0.057
pitch                     -0.006777
yaw                        0.089052
roll                       -0.06893
vel_x                           0.0
vel_y                         -0.01
vel_z                           0.0
heading                           0
speed                          0.01",73.23076310750093,72.05089139579337
0,27.8,3620,33.364086,31.105461,12.067,ZC,True,[-0.05819197 -0.1613344  -0.12890135 -2.80075024],-0.7872945,[-6.6974777  -6.62643827 -6.66591259 -5.73201652],-6.43046127108418,-218.14572,[70.68650458 70.78964701 70.75721396 73.42906284],71.41560709538152,16.06031025,[ 245  646 1047 1448],[ 545  946 1347 1748],545,1.166269247336673,0.47135608647487603,-1.975326627378047,-0.47135608647487603,Flight,"[-3.4600430e-07-7.26609017e-07j  1.2456154e-06+3.97904927e-07j
  7.7850967e-07+4.67105792e-07j ...  3.7216585e-02-1.16220854e-01j
  1.2323289e-03-4.30859774e-02j -1.4983491e-02+7.63572678e-02j]",True,0,0,0,0,0,UAV,35.727367,-78.696236,-0.067,-0.006448421627283096,0.08983297646045685,-0.06899051368236542,0.0,0.0,0.0,0,0.0,"                                  0
time     2023-12-15 16:14:35.646359
type                            UAV
lat                       35.727368
lon                      -78.696234
alt                          -0.067
pitch                     -0.006448
yaw                        0.089833
roll                      -0.068991
vel_x                           0.0
vel_y                           0.0
vel_z                           0.0
heading                           0
speed                           0.0",72.58583576367445,71.92382588808066
0,28.2,3620,33.368065,31.105461,12.078,ZC,True,[ 0.22467308  0.24884428  0.23374827 -2.43225656],-0.43124774,[-7.12858097 -6.97447808 -6.98961305 -5.99225502],-6.771231780974755,-459.6236,[70.40363953 70.37946833 70.39456434 73.06056917],71.05956034001522,16.06031025,[ 245  646 1047 1448],[ 545  946 1347 1748],545,1.166269247336673,0.4714606387847112,-1.975326627378047,-0.4714606387847112,Flight,"[-1.03801284e-07+1.9030236e-07j  4.32505374e-07+1.1677645e-06j
 -1.55701926e-07+0.0000000e+00j ... -9.16157067e-02+1.4192647e-01j
  6.43281862e-02+3.7235230e-02j  1.59915574e-02-3.8300946e-02j]",True,0,0,0,0,0,UAV,35.727367,-78.696236,-0.078,-0.006629902869462967,0.09163980185985565,-0.06885042786598206,0.0,0.0,0.0,0,0.0,"                                  0
time     2023-12-15 16:14:36.051353
type                            UAV
lat                       35.727368
lon                      -78.696234
alt                          -0.078
pitch                      -0.00663
yaw                         0.09164
roll                       -0.06885
vel_x                           0.0
vel_y                           0.0
vel_z                           0.0
heading                           0
speed                           0.0",71.17927798666217,71.7509633669367
0,28.6,3620,33.367558,31.097143,12.098,ZC,True,[ 0.475072    0.35563951  0.43251262 -2.2633616 ],-0.25003436,[-7.51413574 -7.24441714 -7.36875023 -6.31330189],-7.110151247010017,-352.76978,[70.15324061 70.2726731  70.19579999 72.8916742 ],70.8783469741297,16.06031025,[ 245  646 1047 1448],[ 545  946 1347 1748],545,1.1661547384408024,0.4717444895347086,-1.9754411352547674,-0.4717444895347086,Flight,"[ 1.7300215e-07-8.3041027e-07j -3.4600430e-07-1.3321165e-06j
 -2.4220301e-07+5.0170621e-07j ... -6.6615686e-02+6.5799050e-02j
  2.6484068e-02-9.6392922e-02j  2.1210201e-02+4.7516923e-02j]",True,0,0,0,0,0,UAV,35.727367,-78.696236,-0.098,-0.0067569417878985405,0.09172797203063965,-0.06894297897815704,0.0,0.01,0.01,0,0.01414213562373095,"                                  0
time     2023-12-15 16:14:36.456353
type                            UAV
lat                       35.727368
lon                      -78.696234
alt                          -0.098
pitch                     -0.006757
yaw                        0.091728
roll                      -0.068943
vel_x                           0.0
vel_y                          0.01
vel_z                          0.01
heading                           0
speed                      0.014142",71.1773073164703,71.57643248648334
0,29.0,3620,33.36502,31.097143,12.091,ZC,True,[ 0.8913512   0.88663167  0.88680562 -1.72687655],0.23447798,[-7.33711872 -7.37330407 -7.31796525 -6.34290449],-7.092823133340001,-255.217,[69.7369614  69.74168093 69.74150698 72.35518916],70.39383461933019,5.353436749999999,[ 243  646 1047 1449],[ 543  946 1347 1749],543,1.1661547384408024,0.4716780560484956,-1.9754411352547674,-0.4716780560484956,Flight,"[ 3.8060472e-07+9.5151182e-07j  4.3250537e-07+6.4010794e-07j
 -6.9200858e-08-1.0726133e-06j ... -8.1844948e-02+4.2942885e-02j
 -1.4176747e-03+4.7065511e-02j  2.4261320e-02-4.0863436e-02j]",True,0,0,0,0,0,UAV,35.727367,-78.696236,-0.091,-0.006593216676265001,0.0929996445775032,-0.0695086345076561,0.0,0.01,0.01,0,0.01414213562373095,"                                  0
time     2023-12-15 16:14:36.861291
type                            UAV
lat                       35.727368
lon                      -78.696234
alt                          -0.091
pitch                     -0.006593
yaw                           0.093
roll                      -0.069509
vel_x                           0.0
vel_y                          0.01
vel_z                          0.01
heading                           0
speed                      0.014142",71.12189575609871,71.33990467126125
0,29.4,3620,33.369877,31.105461,12.083,ZC,True,[-8.83387363 -4.72432349 -0.32566907 -2.24329351],-4.03179,[-5.01521893 -5.65858909 -6.73810375 -5.8758    ],-5.821927939909937,7504.463,[79.46218624 75.3526361  70.95398168 72.87160612],74.66010253371688,16.06031025,[ 245  646 1047 1448],[ 545  946 1347 1748],545,1.166269247336673,0.4715081379894736,-1.975326627378047,-0.4715081379894736,Flight,"[-7.2660902e-07-1.9030236e-07j  3.1140385e-07-3.1140385e-07j
  6.2280770e-07+1.5570193e-07j ...  1.6423380e-02+2.2079952e-02j
 -5.6737438e-02+1.3719070e-02j  2.5574509e-02-1.8921245e-02j]",True,0,0,0,0,0,UAV,35.727367,-78.696236,-0.083,-0.006306422408670187,0.09621743112802505,-0.06923329830169678,0.0,0.0,0.0,0,0.0,"                                  0
time     2023-12-15 16:14:37.266221
type                            UAV
lat                       35.727368
lon                      -78.696234
alt                          -0.083
pitch                     -0.006306
