index,time,center_freq,dist,h_dist,v_dist,wav_type,detected,power,avgPower,snr,avgSnr,freq_offset,path_loss,avg_pl,est_dist,peaks,orig_peaks,start_point,aod_theta,aod_phi,aoa_theta,aoa_phi,stage,corr,save_corr,rsrp,shadowing,multipath,delay,doppler,type,lat,lon,alt,pitch,yaw,roll,vel_x,vel_y,vel_z,heading,speed,vehicle,avg_pl_rolling,avg_pl_ewma
0,3.0000002,3686,33.660503,31.533401,11.776,ZC,True,[-1.32204917 -1.38095688 -1.29300185 -3.46857303],-1.8661453,[-6.47748596 -6.60158611 -6.71982606 -5.81550221],-6.4036000864563105,-404.25504,[71.95036178 72.00926949 71.92131446 74.09688564],72.49445783876429,-91.00842474999999,[ 225  626 1027 1428],[ 525  926 1327 1728],525,1.1651897689753545,0.4676088779221441,-1.9764061485435864,-0.4676088779221441,Flight,"[-4.1520514e-07-1.3840172e-07j  0.0000000e+00+6.2280770e-07j
 -2.9410364e-07-1.1072137e-06j ...  1.0694059e-02+6.9875948e-02j
  5.3335592e-02+6.9475964e-02j -3.3112612e-02-1.4191608e-02j]",True,0,0,0,0,0,UAV,35.727367,-78.696236,0.224,-0.0006699668010696769,0.09364775568246841,-0.07561206817626953,0.0,0.0,0.0,0,0.0,"                                  0
time     2023-12-15 16:54:00.896801
type                            UAV
lat                       35.727367
lon                      -78.696238
alt                           0.224
pitch                      -0.00067
yaw                        0.093648
roll                      -0.075612
vel_x                           0.0
vel_y                           0.0
vel_z                           0.0
heading                           0
speed                           0.0",,72.49445783876429
0,3.4,3686,33.660156,31.533401,11.775,ZC,True,[-1.0226401  -0.8790332  -0.80876354 -2.97614097],-1.4216444,[-5.95130676 -6.03882218 -6.00944892 -5.2221339 ],-5.805427941483602,-218.91638,[71.6509527  71.5073458  71.43707614 73.60445358],72.04995705558336,-85.65498799999999,[ 226  627 1028 1429],[ 526  927 1328 1729],526,1.1651897689753545,0.4675992354977879,-1.9764061485435864,-0.4675992354977879,Flight,"[ 5.5360687e-07+4.1520514e-07j  0.0000000e+00+3.1140385e-07j
  3.2870409e-07+8.9961117e-07j ...  1.9918305e-01-6.6880666e-02j
  6.4040482e-02+6.3823983e-02j -9.9917322e-02-2.9389951e-02j]",True,0,0,0,0,0,UAV,35.727367,-78.696236,0.225,-0.0006588825490325689,0.09365339577198029,-0.07562650740146637,0.0,0.0,0.0,0,0.0,"                                  0
time     2023-12-15 16:54:01.300356
type                            UAV
lat                       35.727367
lon                      -78.696238
alt                           0.225
pitch                     -0.000659
yaw                        0.093653
roll                      -0.075627
vel_x                           0.0
vel_y                           0.0
vel_z                           0.0
heading                           0
speed                           0.0",,72.24751295921934
0,3.8000002,3686,33.657356,31.533401,11.767,ZC,True,[-2.63618687e-01 -1.14863870e-01 -7.09607879e-04 -2.07298751e+00],-0.6130449,[-5.03087752 -5.12530105 -5.14011984 -4.44850964],-4.936202010176366,-125.07255,[70.89193129 70.74317647 70.62902221 72.70130011],71.24135752285977,-85.65498799999999,[ 226  627 1028 1429],[ 526  927 1328 1729],526,1.1651897689753545,0.4675220742053356,-1.9764061485435864,-0.4675220742053356,Flight,"[ 3.1140385e-07+3.4600429e-08j  8.6501075e-08-6.5740818e-07j
 -2.4220301e-07+6.9200858e-08j ...  3.6558606e-02+1.6062388e-01j
  9.6936770e-02-1.9984066e-02j -8.4841460e-02-4.8373166e-02j]",True,0,0,0,0,0,UAV,35.727367,-78.696236,0.233,-0.0006593390717171133,0.09356186538934708,-0.07544025778770447,0.0,0.0,0.0,0,0.0,"                                  0
time     2023-12-15 16:54:01.703584
type                            UAV
lat                       35.727367
lon                      -78.696238
alt                           0.233
pitch                     -0.000659
yaw                        0.093562
roll                       -0.07544
vel_x                           0.0
vel_y                           0.0
vel_z                           0.0
heading                           0
speed                           0.0",,71.83515417382607
0,4.2000003,3686,33.65666,31.533401,11.765,ZC,True,[ 0.05759247  0.08446255  0.15771583 -1.91217465],-0.40310094,[-4.94128513 -5.04142987 -5.06245469 -4.40887721],-4.863511725790653,-236.986,[70.57072014 70.54385005 70.47059678 72.54048725],71.03141355524482,-85.65498799999999,[ 226  627 1028 1429],[ 526  927 1328 1729],526,1.1651897689753545,0.4675027778225898,-1.9764061485435864,-0.4675027778225898,Flight,"[-1.2110151e-07+6.5740818e-07j -8.3041027e-07-2.4220301e-07j
  5.8820729e-07+1.2802159e-06j ... -6.2132094e-02-1.0296077e-01j
  8.1621580e-02+6.1396178e-02j -2.8198278e-02+2.1301063e-02j]",True,0,0,0,0,0,UAV,35.727367,-78.696236,0.235,-0.0006778803654015064,0.09360267221927643,-0.07541285455226898,0.0,0.0,0.0,0,0.0,"                                  0
time     2023-12-15 16:54:02.106862
type                            UAV
lat                       35.727367
lon                      -78.696238
alt                           0.235
pitch                     -0.000678
yaw                        0.093603
roll                      -0.075413
vel_x                           0.0
vel_y                           0.0
vel_z                           0.0
heading                           0
speed                           0.0",,71.56288431658311
0,4.6,3686,33.658405,31.533401,11.77,ZC,True,[-0.85433814 -0.87871107 -0.76630497 -2.90306778],-1.3506055,[-5.1826363  -5.44888451 -5.4154837  -4.69378508],-5.18519739569556,-23.500027,[71.48265075 71.50702367 71.39461757 73.53138038],71.97891809340655,-85.65498799999999,[ 226  627 1028 1429],[ 526  927 1328 1729],526,1.1651897689753545,0.467551014235098,-1.9764061485435864,-0.467551014235098,Flight,"[-2.2490279e-07+4.8440603e-07j -5.5360687e-07-3.2870409e-07j
  1.4878185e-06+6.5740818e-07j ...  8.0266505e-02+3.2901790e-02j
  6.2369037e-02+4.3760166e-02j -4.6693798e-02-8.0690868e-02j]",True,0,0,0,0,0,UAV,35.727367,-78.696236,0.23,-0.0008141897851601243,0.09342481940984726,-0.07551217824220657,0.0,0.0,0.0,0,0.0,"                                  0
time     2023-12-15 16:54:02.510342
type                            UAV
lat                       35.727367
lon                      -78.696238
alt                            0.23
pitch                     -0.000814
yaw                        0.093425
roll                      -0.075512
vel_x                           0.0
vel_y                           0.0
vel_z                           0.0
heading                           0
speed                           0.0",,71.68664495937922
0,5.0,3686,33.656307,31.533401,11.764,ZC,True,[-1.54897662 -1.31646825 -1.20617929 -3.45379069],-1.8813537,[-6.58345819 -6.93253816 -6.94262858 -6.00030606],-6.614732746397719,-6.45531,[72.17728923 71.94478086 71.83449189 74.0821033 ],72.50966631915924,-85.65498799999999,[ 226  627 1028 1429],[ 526  927 1328 1729],526,1.1651897689753545,0.4674931287292541,-1.9764061485435864,-0.4674931287292541,Flight,"[-6.0550754e-08+1.1850647e-06j  2.7680343e-07-2.0760257e-07j
  2.7680343e-07+5.8820729e-07j ...  4.3692004e-02+4.0808786e-03j
 -2.5855379e-02-2.1168768e-02j  5.4317829e-03-1.4802185e-02j]",True,0,0,0,0,0,UAV,35.727367,-78.696236,0.236,-0.0007637758972123265,0.09345746040344238,-0.07548261433839798,0.0,0.0,0.0,0,0.0,"                                  0
time     2023-12-15 16:54:02.913817
type                            UAV
lat                       35.727367
lon                      -78.696238
alt                           0.236
pitch                     -0.000764
yaw                        0.093457
roll                      -0.075483
vel_x                           0.0
vel_y                           0.0
vel_z                           0.0
heading                           0
speed                           0.0",,71.90972950698202
0,5.4,3686,33.652466,31.533401,11.753,ZC,True,[-0.77723049 -0.44786162 -0.38570225 -2.68374958],-1.0736359,[-5.64307872 -5.56351827 -5.56553134 -4.77278574],-5.386228516795976,-503.5424,[71.40554309 71.07617422 71.01401485 73.31206218],71.70194858666355,-80.30155124999999,[ 227  628 1029 1430],[ 527  928 1329 1730],527,1.1651897689753545,0.46738694857256236,-1.9764061485435864,-0.46738694857256236,Flight,"[-1.3840172e-07+1.2456154e-06j -2.7680343e-07-6.9200860e-07j
  1.9030236e-07+2.3355290e-07j ... -7.0403889e-02-3.0549930e-03j
 -2.2558987e-02-4.7819454e-02j  4.7150489e-02+2.7955174e-02j]",True,0,0,0,0,0,UAV,35.727367,-78.696236,0.247,-0.0007331100641749799,0.09352435916662216,-0.07541084289550781,0.0,0.0,-0.01,0,0.01,"                                  0
time     2023-12-15 16:54:03.319044
type                            UAV
lat                       35.727367
lon                      -78.696238
alt                           0.247
pitch                     -0.000733
yaw                        0.093524
roll                      -0.075411
vel_x                           0.0
vel_y                           0.0
vel_z                         -0.01
heading                           0
speed                          0.01",,71.85714569913998
0,5.8,3686,33.648277,31.533401,11.741,ZC,True,[ 0.01890752  0.13740014  0.16728507 -1.86353483],-0.38498554,[-4.82511868 -4.94015779 -4.99336992 -4.33558898],-4.773558845860777,197.25078,[70.60940508 70.49091246 70.46102754 72.49184743],71.01329812772387,-80.30155124999999,[ 227  628 1029 1430],[ 527  928 1329 1730],527,1.1651897689753545,0.46727103199119335,-1.9764061485435864,-0.46727103199119335,Flight,"[ 2.04142543e-06+6.22807704e-07j -1.21101505e-06-1.03801284e-07j
  1.38401717e-07-7.09308779e-07j ... -4.96520139e-02-1.48686647e-01j
  1.00513555e-01-6.54645637e-02j -1.62972864e-02+7.95324594e-02j]",True,0,0,0,0,0,UAV,35.727367,-78.696236,0.259,-0.0005464008427225053,0.09334456920623779,-0.07541744410991669,0.0,0.0,-0.01,0,0.01,"                                  0
time     2023-12-15 16:54:03.724074
type                            UAV
lat                       35.727367
lon                      -78.696238
alt                           0.259
pitch                     -0.000546
yaw                        0.093345
roll                      -0.075417
vel_x                           0.0
vel_y                           0.0
vel_z                         -0.01
heading                           0
speed                          0.01",,71.6543532591716
0,6.2000003,3686,33.64688,31.533401,11.737,ZC,True,[-0.34709264 -0.41253005 -0.34605506 -2.50594155],-0.9029048,[-4.93236591 -5.13068243 -5.17981576 -4.41810423],-4.9152420830981995,63.091988,[70.97540524 71.04084265 70.97436766 73.13425415],71.53121742728092,-80.30155124999999,[ 227  628 1029 1430],[ 527  928 1329 1730],527,1.1651897689753545,0.4672323737052648,-1.9764061485435864,-0.4672323737052648,Flight,"[-2.4220301e-07-2.2490279e-07j  1.2110151e-07-3.8060472e-07j
 -2.7680343e-07+5.5360687e-07j ...  5.6168880e-02+2.4596961e-02j
 -7.2777689e-02+1.9051082e-02j  4.4037558e-02-4.7639817e-02j]",True,0,0,0,0,0,UAV,35.727367,-78.696236,0.263,-0.0005040989490225911,0.09347958862781525,-0.07545144110918045,0.0,0.0,-0.01,0,0.01,"                                  0
time     2023-12-15 16:54:04.129326
type                            UAV
lat                       35.727367
lon                      -78.696238
alt                           0.263
pitch                     -0.000504
yaw                         0.09348
roll                      -0.075451
vel_x                           0.0
vel_y                           0.0
vel_z                         -0.01
heading                           0
speed                          0.01",,71.62590827112484
0,6.6,3686,33.64758,31.533401,11.739,ZC,True,[-1.36491021 -1.21987984 -1.21230026 -3.340013  ],-1.7842758,[-6.05374744 -6.40224213 -6.36259471 -5.53906619],-6.089412618129043,-233.42607,[71.99322281 71.84819244 71.84061287 73.9683256 ],72.41258843169445,-80.30155124999999,[ 227  628 1029 1430],[ 527  928 1329 1730],527,1.1651897689753545,0.4672517040583353,-1.9764061485435864,-0.4672517040583353,Flight,"[-6.22807704e-07+8.3041027e-07j -7.26609017e-07+4.4980558e-07j
 -5.19006420e-08-6.4010794e-07j ... -1.75852388e-01-2.5179839e-02j
  1.03363104e-01-7.7424966e-02j  2.32858639e-02+4.7150627e-02j]",True,0,0,0,0,0,UAV,35.727367,-78.696236,0.261,-0.00046703711268492043,0.09347132593393326,-0.07540219277143478,0.0,0.0,0.0,0,0.0,"                                  0
time     2023-12-15 16:54:04.534782
type                            UAV
lat                       35.727367
lon                      -78.696238
alt                           0.261
pitch                     -0.000467
yaw                        0.093471
roll                      -0.075402
vel_x                           0.0
vel_y                           0.0
vel_z                           0.0
heading                           0
speed                           0.0",71.79648229583809,71.80217029381309
0,7.0,3686,33.649673,31.533401,11.745,ZC,True,[-1.18910803 -0.88996015 -0.72276269 -3.09243179],-1.4735657,[-6.15638044 -5.98259785 -5.95141942 -5.06651025],-5.78922699197913,23.674755,[71.81742063 71.51827276 71.35107529 73.7207444 ],72.1018782698894,-74.9481145,[ 228  629 1030 1431],[ 528  929 1330 1731],528,1.1651897689753545,0.46730968055322836,-1.9764061485435864,-0.46730968055322836,Flight,"[ 4.1520514e-07+5.0170621e-07j  9.5151182e-07+1.0726133e-06j
 -3.4600430e-07-5.5360687e-07j ...  3.0198995e-02-9.5607735e-02j
 -6.7264788e-02+6.0807485e-03j  3.1770010e-02+7.0345752e-02j]",True,0,0,0,0,0,UAV,35.727367,-78.696236,0.255,-0.0005019293748773634,0.09335257858037949,-0.07542503625154495,0.0,0.0,0.0,0,0.0,"                                  0
time     2023-12-15 16:54:04.939946
type                            UAV
lat                       35.727367
lon                      -78.696238
alt                           0.255
pitch                     -0.000502
yaw                        0.093353
roll                      -0.075425
vel_x                           0.0
vel_y                           0.0
vel_z                           0.0
heading                           0
speed                           0.0",71.75722433895058,71.86774468646635
0,7.4,3686,33.65002,31.533401,11.746,ZC,True,[ 0.05537633  0.23821045  0.27986717 -2.01970475],-0.3615627,[-5.15997059 -5.18397046 -5.16014194 -4.43752801],-4.9854027520266015,409.31885,[70.57293627 70.39010216 70.34844544 72.64801735],70.98987530556215,-74.9481145,[ 228  629 1030 1431],[ 528  929 1330 1731],528,1.1651897689753545,0.46731934118718194,-1.9764061485435864,-0.46731934118718194,Flight,"[ 0.00000000e+00-6.9200858e-08j -5.53606867e-07+1.0034124e-06j
  1.17641457e-06-3.4600430e-07j ... -1.56809419e-01+4.4594675e-02j
  1.02649955e-02-1.0814630e-01j  6.35688454e-02+3.7720419e-02j]",True,0,0,0,0,0,UAV,35.727367,-78.696236,0.254,-0.0005539267440326512,0.09345345944166183,-0.07530131936073303,0.0,0.0,0.0,0,0.0,"                                  0
time     2023-12-15 16:54:05.345287
type                            UAV
lat                       35.727367
lon                      -78.696238
alt                           0.254
pitch                     -0.000554
yaw                        0.093453
roll                      -0.075301
vel_x                           0.0
vel_y                           0.0
vel_z                           0.0
heading                           0
speed                           0.0",71.65121616394848,71.67921515986842
0,7.8,3686,33.649673,31.533401,11.745,ZC,True,[-0.48152684 -0.51737458 -0.4563591  -2.59357436],-1.0122087,[-5.10278085 -5.23578285 -5.27846402 -4.57814462],-5.048793085296751,-11.268998,[71.10983945 71.14568718 71.0846717  73.22188697],71.64052132527324,-74.9481145,[ 228  629 1030 1431],[ 528  929 1330 1731],528,1.1651897689753545,0.46730968055322836,-1.9764061485435864,-0.46730968055322836,Flight,"[ 7.6120944e-07-2.94103643e-07j  1.7300215e-08+1.14181421e-06j
  7.6120944e-07-3.46004292e-08j ... -2.5605736e-02-1.00141704e-01j
 -9.7221777e-02-4.42415960e-02j  4.4007212e-02+3.77825946e-02j]",True,0,0,0,0,0,UAV,35.727367,-78.696236,0.255,-0.0005891554756090045,0.09331373125314713,-0.07534132897853851,0.0,0.0,0.0,0,0.0,"                                  0
time     2023-12-15 16:54:05.750462
type                            UAV
lat                       35.727367
lon                      -78.696238
alt                           0.255
pitch                     -0.000589
yaw                        0.093314
roll                      -0.075341
vel_x                           0.0
vel_y                           0.0
vel_z                           0.0
heading                           0
speed                           0.0",71.69113254418981,71.6710262001266
0,8.2,3686,33.649323,31.533401,11.744,ZC,True,[-1.34335177 -1.29675989 -1.25285245 -3.50407498],-1.8492597,[-6.35675344 -6.60414631 -6.6336853  -5.73780206],-6.333096777731706,87.780594,[71.97166437 71.92507249 71.88116506 74.13238758],72.47757237577068,-74.9481145,[ 228  629 1030 1431],[ 528  929 1330 1731],528,1.1651897689753545,0.46730001932078186,-1.9764061485435864,-0.46730001932078186,Flight,"[-3.4600429e-08-1.03801284e-07j  3.2870409e-07-4.23855255e-07j
 -6.5740818e-07-4.84406030e-07j ... -2.1913489e-02-8.57162476e-02j
  1.0493888e-01+2.80351052e-03j -7.0893526e-02+1.32464627e-02j]",True,0,0,0,0,0,UAV,35.727367,-78.696236,0.256,-0.0006472262903116643,0.09338320046663284,-0.07531104981899261,0.0,0.0,0.0,0,0.0,"                                  0
time     2023-12-15 16:54:06.155549
type                            UAV
lat                       35.727367
lon                      -78.696238
alt                           0.256
pitch                     -0.000647
yaw                        0.093383
roll                      -0.075311
vel_x                           0.0
vel_y                           0.0
vel_z                           0.0
heading                           0
speed                           0.0",71.83574842624242,71.83975626184814
0,8.6,3686,33.647926,31.533401,11.74,ZC,True,[-0.83559277 -0.60776066 -0.49160931 -2.72444337],-1.1648515,[-5.58668988 -5.64464058 -5.6055554  -4.85450165],-5.422846874865386,-208.66684,[71.46390537 71.23607327 71.11992191 73.35275598],71.79316413228476,-69.59467775,[ 229  630 1031 1432],[ 529  930 1331 1732],529,1.1651897689753545,0.467261368323435,-1.9764061485435864,-0.467261368323435,Flight,"[-1.1764146e-06-6.5740818e-07j  4.1520514e-07+1.2802159e-06j
  1.3148164e-06-9.3421158e-07j ... -2.2580933e-02-5.9205972e-02j
 -4.6957057e-02-5.2120522e-02j  3.5248961e-02+7.2725885e-02j]",True,0,0,0,0,0,UAV,35.727367,-78.696236,0.26,-0.000578490027692169,0.09343168139457703,-0.07522114366292953,0.0,0.0,0.0,0,0.0,"                                  0
time     2023-12-15 16:54:06.560700
type                            UAV
lat                       35.727367
lon                      -78.696238
alt                            0.26
pitch                     -0.000578
yaw                        0.093432
roll                      -0.075221
vel_x                           0.0
vel_y                           0.0
vel_z                           0.0
heading                           0
speed                           0.0",71.81717303013022,71.83009801664242
0,9.0,3686,33.656418,31.541716,11.742,ZC,True,[-0.13199026  0.16509095  0.29572489 -1.86863421],-0.38495216,[-4.86618061 -4.99775641 -5.01824916 -4.26914544],-4.787832906113364,-23.511042,[70.76030286 70.46322165 70.33258772 72.49694682],71.0132647614684,-69.59467775,[ 229  630 1031 1432],[ 529  930 1331 1732],529,1.1653029484907398,0.46718766449596144,-1.9762929700473513,-0.46718766449596144,Flight,"[ 2.0760257e-07-1.3840172e-07j -5.5360687e-07+7.2660902e-07j
  4.4980558e-07+0.0000000e+00j ...  2.7784629e-02+8.7724887e-03j
  2.3640258e-02+1.2544645e-02j  3.9977338e-03+2.0875545e-02j]",True,0,0,0,0,0,UAV,35.727367,-78.696236,0.258,-0.0007008743705227971,0.09345792979001999,-0.07530177384614944,0.0,0.0,0.0,0,0.0,"                                  0
time     2023-12-15 16:54:06.966521
type                            UAV
lat                       35.727367
lon                      -78.696238
alt                           0.258
pitch                     -0.000701
yaw                        0.093458
roll                      -0.075302
vel_x                           0.0
vel_y                           0.0
vel_z                           0.0
heading                           0
speed                           0.0",71.66753287436114,71.66199982206732
0,9.400001,3686,33.654324,31.541716,11.736,ZC,True,[-0.7889431  -0.70657008 -0.73518968 -2.92058822],-1.2878227,[-5.37640633 -5.50489378 -5.44631452 -4.70171721],-5.257332957720993,-45.72668,[71.4172557  71.33488269 71.36350228 73.54890082],71.9161353738429,-69.59467775,[ 229  630 1031 1432],[ 529  930 1331 1732],529,1.1653029484907398,0.4671296734662081,-1.9762929700473513,-0.4671296734662081,Flight,"[-2.4220301e-07+4.49805583e-07j  5.1900645e-07+6.22807704e-07j
  8.6501073e-09-1.26291570e-06j ...  1.2108316e-01-1.05229005e-01j
 -3.4552023e-02+2.20774952e-03j -3.0059157e-02+5.89311905e-02j]",True,0,0,0,0,0,UAV,35.727367,-78.696236,0.264,-0.0006290446035563946,0.09334999322891235,-0.0752696692943573,0.0,0.0,-0.01,0,0.01,"                                  0
time     2023-12-15 16:54:07.373168
type                            UAV
lat                       35.727367
lon                      -78.696238
alt                           0.264
pitch                     -0.000629
yaw                         0.09335
roll                       -0.07527
vel_x                           0.0
vel_y                           0.0
vel_z                         -0.01
heading                           0
speed                          0.01",71.68895155307908,71.71399782331771
0,9.8,3686,33.65328,31.541716,11.733,ZC,True,[-1.41135485 -1.32105925 -1.20280422 -3.56800557],-1.875806,[-6.92438872 -6.80407331 -6.71380227 -5.91159802],-6.588465580111195,-124.18833,[72.03966746 71.94937185 71.83111683 74.19631818],72.50411857809591,-64.241241,[ 230  631 1032 1433],[ 530  931 1332 1733],530,1.1653029484907398,0.46710066977275794,-1.9762929700473513,-0.46710066977275794,Flight,"[ 3.2005397e-07-1.0034124e-06j -6.9200858e-08+1.8165225e-07j
 -2.0760257e-07-2.7680343e-07j ...  8.9161605e-02-8.8441417e-02j
 -4.1564699e-02-4.8035327e-02j  1.1504504e-02+7.7760935e-02j]",True,0,0,0,0,0,UAV,35.727367,-78.696236,0.267,-0.00041227260953746736,0.09347514808177948,-0.07528353482484818,0.0,0.0,-0.01,0,0.01,"                                  0
time     2023-12-15 16:54:07.779084
type                            UAV
lat                       35.727367
lon                      -78.696238
alt                           0.267
pitch                     -0.000412
yaw                        0.093475
roll                      -0.075284
vel_x                           0.0
vel_y                           0.0
vel_z                         -0.01
heading                           0
speed                          0.01",71.83803359811628,71.87492090682912
0,10.2,3686,33.653976,31.541716,11.735,ZC,True,[-0.24451115  0.01160977  0.09502935 -2.07455804],-0.5531075,[-5.06360623 -5.14677553 -5.17065599 -4.38614793],-4.941796419368739,89.091484,[70.87282375 70.61670283 70.53328325 72.70287064],71.18142011867364,-64.241241,[ 230  631 1032 1433],[ 530  931 1332 1733],530,1.1653029484907398,0.4671200061808851,-1.9762929700473513,-0.4671200061808851,Flight,"[ 1.8511230e-06+5.3630663e-07j  8.3041027e-07+4.4980558e-07j
  3.4600429e-08+5.8820729e-07j ...  1.6723996e-02+2.5994334e-02j
 -4.4931218e-02+4.9213298e-02j  7.6357886e-02-1.0468152e-02j]",True,0,0,0,0,0,UAV,35.727367,-78.696236,0.265,-0.00043204345274716616,0.09335842728614807,-0.07529821991920471,0.0,0.0,-0.01,0,0.01,"                                  0
time     2023-12-15 16:54:08.184450
type                            UAV
lat                       35.727367
lon                      -78.696238
alt                           0.265
pitch                     -0.000432
yaw                        0.093358
roll                      -0.075298
vel_x                           0.0
vel_y                           0.0
vel_z                         -0.01
heading                           0
speed                          0.01",71.80305386725556,71.73419264115043
0,10.6,3686,33.653976,31.541716,11.735,ZC,True,[-0.29071043 -0.22113224 -0.20162113 -2.47886962],-0.79808336,[-4.91243233 -4.98664449 -5.05784855 -4.28026554],-4.809297724309947,-487.154,[70.91902304 70.84944485 70.82993373 73.10718222],71.42639596130094,-64.241241,[ 230  631 1032 1433],[ 530  931 1332 1733],530,1.1653029484907398,0.4671200061808851,-1.9762929700473513,-0.4671200061808851,Flight,"[ 3.8060472e-07+1.7300215e-07j  9.6881206e-07-6.7470836e-07j
 -1.3840172e-07+0.0000000e+00j ...  2.4021175e-02+8.5028201e-02j
 -6.4322199e-03+6.4960226e-02j -2.0935889e-02-6.7263059e-02j]",True,0,0,0,0,0,UAV,35.727367,-78.696236,0.265,-0.0004222378775011748,0.09331447631120682,-0.07517694681882858,0.0,0.0,-0.01,0,0.01,"                                  0
time     2023-12-15 16:54:08.589687
type                            UAV
lat                       35.727367
lon                      -78.696238
alt                           0.265
pitch                     -0.000422
yaw                        0.093314
roll                      -0.075177
vel_x                           0.0
vel_y                           0.0
vel_z                         -0.01
heading                           0
speed                          0.01",71.70443462021619,71.67191529627901
0,11.0,3686,33.657463,31.541716,11.745,ZC,True,[-1.33646035 -1.31493601 -1.31732729 -3.43802527],-1.8516872,[-6.22094346 -6.30968247 -6.39772927 -5.64094126],-6.142324112823147,-152.39407,[71.96477296 71.94324862 71.9456399  74.06633787],72.47999983523952,-64.241241,[ 230  631 1032 1433],[ 530  931 1332 1733],530,1.1653029484907398,0.4672166518179589,-1.9762929700473513,-0.4672166518179589,Flight,"[-2.9410364e-07+1.5570193e-07j  1.3840172e-07+5.1900642e-08j
  3.4600429e-08+6.9200858e-08j ...  8.7177858e-02+5.3402890e-02j
  2.0486049e-02-6.0599190e-03j -1.3763428e-02-2.0600058e-02j]",True,0,0,0,0,0,UAV,35.727367,-78.696236,0.255,-0.00042359871440567076,0.09323323518037796,-0.0751313865184784,0.0,0.0,0.0,0,0.0,"                                  0
time     2023-12-15 16:54:08.994809
type                            UAV
lat                       35.727367
lon                      -78.696238
alt                           0.255
pitch                     -0.000424
yaw                        0.093233
roll                      -0.075131
vel_x                           0.0
vel_y                           0.0
vel_z                           0.0
heading                           0
speed                           0.0",71.74224677675122,71.83503673377633
0,11.400001,3686,33.660255,31.541716,11.753,ZC,True,[-0.75907416 -0.45687709 -0.37226446 -2.5889125 ],-1.0442821,[-5.48284109 -5.51577081 -5.50886203 -4.76749884],-5.318743193343597,-107.68448,[71.38738677 71.08518969 71.00057707 73.2172251 ],71.6725946564141,-58.887804249999995,[ 231  632 1033 1434],[ 531  932 1333 1734],531,1.1653029484907398,0.46729392466363634,-1.9762929700473513,-0.46729392466363634,Flight,"[ 0.0000000e+00-3.8060472e-07j -6.5740818e-07-3.7195463e-07j
 -2.4220301e-07-6.2280770e-07j ... -1.3769068e-02-1.9676855e-01j
  3.3426262e-02-1.7347410e-02j  2.5086002e-02+9.2501476e-02j]",True,0,0,0,0,0,UAV,35.727367,-78.696236,0.247,-0.0006387173780240119,0.09308871626853943,-0.07527590543031693,0.0,0.0,0.0,0,0.0,"                                  0
time     2023-12-15 16:54:09.400020
type                            UAV
lat                       35.727367
lon                      -78.696238
alt                           0.247
pitch                     -0.000639
yaw                        0.093089
roll                      -0.075276
vel_x                           0.0
vel_y                           0.0
vel_z                           0.0
heading                           0
speed                           0.0",71.81051871183641,71.80230681412334
0,11.8,3686,33.65886,31.541716,11.749,ZC,True,[ 0.00220405  0.00398893  0.08011592 -2.0598652 ],-0.49338907,[-5.00370721 -5.06177123 -5.03616788 -4.35146604],-4.8632780898115655,-220.73317,[70.62610855 70.62432367 70.54819669 72.6881778 ],71.12170167799093,-58.887804249999995,[ 231  632 1033 1434],[ 531  932 1333 1734],531,1.1653029484907398,0.4672552930919226,-1.9762929700473513,-0.4672552930919226,Flight,"[ 6.9200860e-07-8.6501075e-08j  5.1900642e-08-2.7680343e-07j
 -1.3840172e-07-8.3041027e-07j ...  9.1183290e-02+6.3770942e-02j
  4.1177277e-03-9.9138223e-02j -4.8738718e-02+5.4598093e-02j]",True,0,0,0,0,0,UAV,35.727367,-78.696236,0.251,-0.000647343578748405,0.09308071434497833,-0.07524172216653824,0.0,0.0,0.0,0,0.0,"                                  0
time     2023-12-15 16:54:09.804671
type                            UAV
lat                       35.727367
lon                      -78.696238
alt                           0.251
pitch                     -0.000647
yaw                        0.093081
roll                      -0.075242
vel_x                           0.0
vel_y                           0.0
vel_z                           0.0
heading                           0
speed                           0.0",71.75863674710817,71.66537749888586
0,12.2,3686,33.658512,31.541716,11.748,ZC,True,[-1.10376557 -1.11578757 -1.17040244 -3.33008382],-1.6800098,[-5.62152233 -5.67480886 -5.75176197 -4.94744382],-5.498884244210573,-185.6417,[71.73207817 71.74410018 71.79871504 73.95839643],72.30832245462491,-58.887804249999995,[ 231  632 1033 1434],[ 531  932 1333 1734],531,1.1653029484907398,0.4672456336842618,-1.9762929700473513,-0.4672456336842618,Flight,"[ 5.5360687e-07-5.1900642e-08j -4.1520514e-07-6.9200858e-08j
 -1.3840172e-07-4.6710579e-07j ... -1.1749192e-01+2.2166038e-02j
  1.7699469e-02+5.9602942e-02j  6.6500016e-02-4.6326116e-02j]",True,0,0,0,0,0,UAV,35.727367,-78.696236,0.252,-0.0006787580205127597,0.09287367016077042,-0.0753101035952568,0.0,0.0,0.0,0,0.0,"                                  0
time     2023-12-15 16:54:10.209736
type                            UAV
lat                       35.727367
lon                      -78.696238
alt                           0.252
pitch                     -0.000679
yaw                        0.092874
roll                       -0.07531
vel_x                           0.0
vel_y                           0.0
vel_z                           0.0
heading                           0
speed                           0.0",71.7417117549936,71.79457661561212
0,12.6,3686,33.65921,31.541716,11.75,ZC,True,[-1.10329442 -0.92515417 -0.91392895 -3.24009554],-1.5456183,[-6.19775291 -6.1730974  -6.15725792 -5.34563628],-5.968436128201766,-222.74011,[71.73160703 71.55346678 71.54224155 73.86840814],72.17393087530242,-53.534367499999995,[ 232  633 1034 1435],[ 532  933 1334 1735],532,1.1653029484907398,0.4672649519026103,-1.9762929700473513,-0.4672649519026103,Flight,"[-6.22807704e-07-9.3421158e-07j  8.65010747e-08-6.0550752e-07j
 -6.22807704e-07+8.8231093e-07j ... -6.25124574e-02+1.3940732e-01j
 -1.40997186e-01-2.3915038e-02j  1.10690236e-01-3.8300600e-02j]",True,0,0,0,0,0,UAV,35.727367,-78.696236,0.25,-0.0006722741527482867,0.09296877682209015,-0.0752851739525795,0.0,0.0,-0.01,0,0.01,"                                  0
time     2023-12-15 16:54:10.614774
type                            UAV
lat                       35.727367
lon                      -78.696238
alt                            0.25
pitch                     -0.000672
yaw                        0.092969
roll                      -0.075285
vel_x                           0.0
vel_y                           0.0
vel_z                         -0.01
heading                           0
speed                          0.01",71.77978842929538,71.8707351864962
0,13.0,3686,33.659557,31.541716,11.751,ZC,True,[ 0.13420695  0.26626872  0.35063644 -1.64934198],-0.22455746,[-4.8419864  -4.95239088 -4.97742685 -4.32517976],-4.774245969838213,-41.077587,[70.49410566 70.36204388 70.27767616 72.27765458],70.85287007059,-53.534367499999995,[ 232  633 1034 1435],[ 532  933 1334 1735],532,1.1653029484907398,0.46727461009985005,-1.9762929700473513,-0.46727461009985005,Flight,"[-2.0760257e-07+8.9961117e-07j  3.4600430e-07+1.1072137e-06j
 -1.2975161e-07-4.1520514e-07j ... -2.9168144e-02+8.3669201e-03j
  5.0350443e-02+1.2188624e-02j -6.2250756e-03-3.0579617e-02j]",True,0,0,0,0,0,UAV,35.727367,-78.696236,0.249,-0.0007381867617368698,0.09295667707920074,-0.07524868845939636,0.0,0.0,-0.01,0,0.01,"                                  0
time     2023-12-15 16:54:11.019760
type                            UAV
lat                       35.727367
lon                      -78.696238
alt                           0.249
pitch                     -0.000738
yaw                        0.092957
roll                      -0.075249
vel_x                           0.0
vel_y                           0.0
vel_z                         -0.01
heading                           0
speed                          0.01",71.76374896020752,71.66654503645373
0,13.400001,3686,33.660255,31.541716,11.753,ZC,True,[-0.76009249 -0.85570881 -0.81859253 -2.90738811],-1.3354455,[-5.33022748 -5.46664736 -5.4660049  -4.78486693],-5.26193666563582,-433.60956,[71.3884051  71.48402142 71.44690514 73.53570071],71.96375808987693,-53.534367499999995,[ 232  633 1034 1435],[ 532  933 1334 1735],532,1.1653029484907398,0.46729392466363634,-1.9762929700473513,-0.46729392466363634,Flight,"[-2.2490279e-07-1.03801284e-07j -3.8060472e-07-1.10721373e-06j
 -6.9200860e-07+5.53606867e-07j ...  6.6812737e-03+8.68516415e-02j
  4.3712452e-02+1.33437421e-02j -6.6535934e-03-4.42215279e-02j]",True,0,0,0,0,0,UAV,35.727367,-78.696236,0.247,-0.0007363961194641888,0.09307556599378586,-0.0751928985118866,0.0,0.0,-0.01,0,0.01,"                                  0
time     2023-12-15 16:54:11.424765
type                            UAV
lat                       35.727367
lon                      -78.696238
alt                           0.247
pitch                     -0.000736
yaw                        0.093076
roll                      -0.075193
vel_x                           0.0
vel_y                           0.0
vel_z                         -0.01
heading                           0
speed                          0.01",71.76851123181093,71.72613171889618
0,13.8,3686,33.659557,31.541716,11.751,ZC,True,[-1.41388463 -1.27888273 -1.17122716 -3.25868356],-1.7806696,[-6.28356066 -6.45404651 -6.38665354 -5.55316794],-6.16935716401645,-68.16345,[72.04219724 71.90719533 71.79953976 73.88699616],72.40898212170006,-48.180930749999995,[ 233  634 1035 1436],[ 533  934 1335 1736],533,1.1653029484907398,0.46727461009985005,-1.9762929700473513,-0.46727461009985005,Flight,"[-6.9200860e-07-1.6435204e-07j -1.0380129e-06-6.9200860e-07j
 -4.1520514e-07+0.0000000e+00j ...  2.5750123e-02-3.7131209e-02j
 -7.8491075e-04+7.5009115e-02j -2.3956161e-02-1.2825341e-03j]",True,0,0,0,0,0,UAV,35.727367,-78.696236,0.249,-0.0007167892763391137,0.09308778494596481,-0.07513727992773056,0.0,0.0,-0.01,0,0.01,"                                  0
time     2023-12-15 16:54:11.829692
type                            UAV
lat                       35.727367
lon                      -78.696238
alt                           0.249
pitch                     -0.000717
yaw                        0.093088
roll                      -0.075137
vel_x                           0.0
vel_y                           0.0
vel_z                         -0.01
heading                           0
speed                          0.01",71.75899758617135,71.86296647637108
0,14.2,3686,33.647316,31.529026,11.75,ZC,True,[-1.24141447e-05  1.16650563e-01  1.80789540e-01 -2.01577821e+00],-0.42958763,[-4.9839304  -5.01123197 -5.02015009 -4.30395285],-4.829816327060357,4.8256483,[70.62832502 70.51166204 70.44752306 72.64409081],71.05790023432407,-48.180930749999995,[ 233  634 1035 1436],[ 533  934 1335 1736],533,1.1655131261607934,0.4671934103453613,-1.9760827913581518,-0.4671934103453613,Flight,"[-1.2110150e-06-8.6501075e-07j -1.1937148e-06-3.9790493e-07j
 -7.2660902e-07-4.4980558e-07j ... -2.2937905e-02+5.4079503e-02j
 -4.8244987e-02-5.6784842e-03j  3.4821145e-02-2.7833173e-02j]",True,0,0,0,0,0,UAV,35.727367,-78.696236,0.25,-0.0005329898558557034,0.09319401532411575,-0.07502690702676773,0.0,0.0,-0.01,0,0.01,"                                  0
time     2023-12-15 16:54:12.234727
type                            UAV
lat                       35.727367
lon                      -78.696238
alt                            0.25
pitch                     -0.000533
yaw                        0.093194
roll                      -0.075027
vel_x                           0.0
vel_y                           0.0
vel_z                         -0.01
heading                           0
speed                          0.01",71.74664559773638,71.70170368588018
0,14.6,3686,33.648716,31.529026,11.754,ZC,True,[-0.56591038 -0.4900715  -0.41703131 -2.7183046 ],-1.0478294,[-5.36768557 -5.39614786 -5.34776827 -4.60367911],-5.17882020523948,-224.13565,[71.19422298 71.11838411 71.04534391 73.3466172 ],71.67614204995826,-48.180930749999995,[ 233  634 1035 1436],[ 533  934 1335 1736],533,1.1655131261607934,0.4672320530082321,-1.9760827913581518,-0.4672320530082321,Flight,"[ 1.03801284e-07+3.6330451e-07j  1.05531308e-06+2.4220301e-07j
  1.08991355e-06+1.3148164e-06j ... -1.81754738e-01-1.3459636e-02j
  3.22408192e-02-5.1791929e-02j  5.05072288e-02-9.2458576e-03j]",True,0,0,0,0,0,UAV,35.727367,-78.696236,0.246,-0.0004033884615637362,0.09310482442378998,-0.07497774809598923,0.0,0.0,-0.01,0,0.01,"                                  0
time     2023-12-15 16:54:12.639698
type                            UAV
lat                       35.727367
lon                      -78.696238
alt                           0.246
pitch                     -0.000403
yaw                        0.093105
roll                      -0.074978
vel_x                           0.0
vel_y                           0.0
vel_z                         -0.01
heading                           0
speed                          0.01",71.77162020660212,71.69658502209694
0,15.0,3686,33.651417,31.533401,11.75,ZC,True,[-1.41352472 -1.16169118 -1.09242843 -3.24584068],-1.7283713,[-6.6908455  -6.62891734 -6.74733272 -5.81820131],-6.471324214793341,-162.38362,[72.04183733 71.79000378 71.72074103 73.87415329],72.3566838564747,-42.827493999999994,[ 234  635 1036 1437],[ 534  935 1336 1737],534,1.1651897689753545,0.46735797762334513,-1.9764061485435864,-0.46735797762334513,Flight,"[-2.0760257e-07-5.8820729e-07j -3.6330451e-07-4.1520514e-07j
 -5.5360687e-07-6.9200860e-07j ...  9.6655264e-02-1.2878421e-01j
  6.2102184e-02-1.5581127e-02j -8.0354482e-02+5.8412272e-02j]",True,0,0,0,0,0,UAV,35.727367,-78.696236,0.25,-0.00035225230385549366,0.09305061399936676,-0.07487303018569946,0.0,0.0,-0.01,0,0.01,"                                  0
time     2023-12-15 16:54:13.044711
type                            UAV
lat                       35.727367
lon                      -78.696238
alt                            0.25
pitch                     -0.000352
yaw                        0.093051
roll                      -0.074873
vel_x                           0.0
vel_y                           0.0
vel_z                         -0.01
heading                           0
speed                          0.01",71.75928860872564,71.82873566462978
0,15.400001,3686,33.657463,31.541716,11.745,ZC,True,[-0.27714701  0.18070274  0.2595942  -1.96736002],-0.45105252,[-5.03169921 -5.09449444 -5.16140565 -4.35484475],-4.910611013596752,316.09018,[70.90545961 70.44760987 70.3687184  72.59567262],71.07936512629806,-42.827493999999994,[ 234  635 1036 1437],[ 534  935 1336 1737],534,1.1653029484907398,0.4672166518179589,-1.9762929700473513,-0.4672166518179589,Flight,"[-1.3840172e-07-6.2280770e-07j  9.5151182e-07+6.9200858e-08j
  4.1520514e-07-3.4600429e-08j ...  9.2347093e-02+3.7297774e-02j
 -8.7727413e-02+6.0471170e-02j -1.3489669e-02-4.4526290e-02j]",True,0,0,0,0,0,UAV,35.727367,-78.696236,0.255,-0.00016654031060170382,0.09284117817878723,-0.07514477521181107,0.0,0.0,-0.01,0,0.01,"                                  0
time     2023-12-15 16:54:13.449792
type                            UAV
lat                       35.727367
lon                      -78.696238
alt                           0.255
pitch                     -0.000167
yaw                        0.092841
roll                      -0.075145
vel_x                           0.0
vel_y                           0.0
vel_z                         -0.01
heading                           0
speed                          0.01",71.69996565571404,71.67874272030974
0,15.8,3686,33.65502,31.541716,11.738,ZC,True,[-0.51760793 -0.42632332 -0.32224469 -2.58460209],-0.9626945,[-5.1058218  -5.27247372 -5.27417544 -4.48476144],-5.034308099377966,-154.41928,[71.14592054 71.05463593 70.95055729 73.2129147 ],71.59100711260616,-42.827493999999994,[ 234  635 1036 1437],[ 534  935 1336 1737],534,1.1653029484907398,0.46714900624041605,-1.9762929700473513,-0.46714900624041605,Flight,"[-1.03801290e-06-6.9200860e-07j -2.07602568e-07+1.5224189e-06j
 -1.03801284e-07+5.1035636e-07j ... -1.46334350e-01+6.0078386e-02j
 -4.50123893e-03+9.6196111e-04j  4.12004776e-02-4.4618189e-02j]",True,0,0,0,0,0,UAV,35.727367,-78.696236,0.262,-4.871987766819075e-05,0.09271734207868576,-0.07519428431987762,0.0,0.0,-0.01,0,0.01,"                                  0
time     2023-12-15 16:54:13.854742
type                            UAV
lat                       35.727367
lon                      -78.696238
alt                           0.262
pitch                     -0.000049
yaw                        0.092717
roll                      -0.075194
vel_x                           0.0
vel_y                           0.0
vel_z                         -0.01
heading                           0
speed                          0.01",71.74689619917555,71.66118446990569
0,16.2,3686,33.649097,31.541716,11.721,ZC,True,[-1.3094134  -1.19954369 -1.18092741 -3.35218994],-1.7605187,[-6.73053074 -6.79664408 -6.70139931 -5.94313661],-6.542927688943564,-85.49932,[71.93772601 71.8278563  71.80924001 73.98050255],72.38883121690601,-37.47405725,[ 235  636 1037 1438],[ 535  936 1337 1738],535,1.1653029484907398,0.4669846003587151,-1.9762929700473513,-0.4669846003587151,Flight,"[-6.7470836e-07-4.8440603e-07j -6.2280770e-07+0.0000000e+00j
 -1.1677645e-06+2.0760257e-07j ...  7.3949732e-02+1.0420902e-01j
  8.8516273e-02-2.3717521e-02j -9.0120971e-02-4.4800773e-02j]",True,0,0,0,0,0,UAV,35.727367,-78.696236,0.279,0.00016439720639027655,0.09280356019735336,-0.07532686740159988,0.0,0.0,-0.01,0,0.01,"                                  0
time     2023-12-15 16:54:14.259930
type                            UAV
lat                       35.727367
lon                      -78.696238
alt                           0.279
pitch                      0.000164
yaw                        0.092804
roll                      -0.075327
vel_x                           0.0
vel_y                           0.0
vel_z                         -0.01
heading                           0
speed                          0.01",71.75494707540366,71.80678764888864
0,16.6,3686,33.64631,31.541716,11.713,ZC,True,[-0.18177433  0.01714503  0.07309053 -2.08658198],-0.5445302,[-5.14490751 -5.1826986  -5.14809891 -4.46629916],-4.9855010457359805,-134.58356,[70.81008693 70.61116757 70.55522208 72.71489459],71.1728427921942,-37.47405725,[ 235  636 1037 1438],[ 535  936 1337 1738],535,1.1653029484907398,0.466907172213536,-1.9762929700473513,-0.466907172213536,Flight,"[-6.9200860e-07-3.4600429e-08j -3.8060472e-07+1.2110151e-07j
 -6.9200858e-08-6.2280770e-07j ...  1.1957562e-01+1.5407637e-01j
  1.4971249e-01+6.3902356e-02j -1.5207411e-01-6.1586834e-02j]",True,0,0,0,0,0,UAV,35.727367,-78.696236,0.287,0.00017132011998910457,0.09269289672374725,-0.07541912794113159,0.0,0.0,-0.01,0,0.01,"                                  0
time     2023-12-15 16:54:14.665124
type                            UAV
lat                       35.727367
lon                      -78.696238
alt                           0.287
pitch                      0.000171
yaw                        0.092693
roll                      -0.075419
vel_x                           0.0
vel_y                           0.0
vel_z                         -0.01
heading                           0
speed                          0.01",71.65483826709284,71.67994722496111
0,17.0,3686,33.64631,31.541716,11.713,ZC,True,[-0.66821719 -0.7274146  -0.58447535 -2.66219425],-1.1605754,[-5.08626802 -5.24384998 -5.30201448 -4.62174741],-5.063469969907825,-19.715818,[71.29652979 71.35572721 71.21278795 73.29050686],71.78888795280099,-37.47405725,[ 235  636 1037 1438],[ 535  936 1337 1738],535,1.1653029484907398,0.466907172213536,-1.9762929700473513,-0.466907172213536,Flight,"[ 0.0000000e+00+1.9030236e-07j  5.5360687e-07+1.3840172e-07j
  1.3840172e-07-5.7090710e-07j ...  6.3532099e-02-3.6341178e-03j
  1.9565402e-02+5.6305796e-02j -3.1403869e-02+1.1138639e-02j]",True,0,0,0,0,0,UAV,35.727367,-78.696236,0.287,0.00013238409883342683,0.09261859208345413,-0.07540759444236755,0.0,0.0,-0.01,0,0.01,"                                  0
time     2023-12-15 16:54:15.070211
type                            UAV
lat                       35.727367
lon                      -78.696238
alt                           0.287
pitch                      0.000132
yaw                        0.092619
roll                      -0.075408
vel_x                           0.0
vel_y                           0.0
vel_z                         -0.01
heading                           0
speed                          0.01",71.74844005531394,71.70174244348188
0,17.4,3686,33.649097,31.541716,11.721,ZC,True,[-1.4834511  -1.27636344 -1.18912315 -3.31776288],-1.8166752,[-6.76699362 -6.70058207 -6.63939267 -5.8064782 ],-6.4783616408434685,-132.20447,[72.11176371 71.90467604 71.81743575 73.94607549],72.4449877466855,-32.1206205,[ 236  637 1038 1439],[ 536  937 1338 1739],536,1.1653029484907398,0.4669846003587151,-1.9762929700473513,-0.4669846003587151,Flight,"[ 6.9200858e-08-1.9030236e-07j  4.8440603e-07+6.5740818e-07j
 -4.8440603e-07-2.7680343e-07j ...  4.4785529e-02+9.0355977e-02j
 -1.0920487e-01-4.5504652e-02j  2.3071358e-02+5.1881615e-03j]",True,0,0,0,0,0,UAV,35.727367,-78.696236,0.279,8.338905172422528e-05,0.09256774187088013,-0.07551045715808868,-0.01,0.0,-0.01,0,0.01414213562373095,"                                  0
time     2023-12-15 16:54:15.475479
type                            UAV
lat                       35.727367
lon                      -78.696238
alt                           0.279
pitch                      0.000083
yaw                        0.092568
roll                       -0.07551
vel_x                         -0.01
vel_y                           0.0
vel_z                         -0.01
heading                           0
speed                      0.014142",71.7965630209948,71.85043010564667
0,17.8,3686,33.6484,31.541716,11.719,ZC,True,[-0.1417532  -0.00682789  0.04758609 -2.05735989],-0.53958875,[-5.18120274 -5.22023064 -5.25402652 -4.57172072],-5.056795155815001,6.096976,[70.77006581 70.6351405  70.58072651 72.68567249],71.16790132677629,-32.1206205,[ 236  637 1038 1439],[ 536  937 1338 1739],536,1.1653029484907398,0.46696524696321556,-1.9762929700473513,-0.46696524696321556,Flight,"[ 6.9200860e-07-2.3355290e-07j  8.6501075e-07-6.5740818e-07j
  2.5950322e-07-5.8820729e-07j ...  8.2758412e-02+9.4909914e-02j
 -4.3324720e-02+9.2768595e-03j -3.1312473e-02+1.4069053e-02j]",True,0,0,0,0,0,UAV,35.727367,-78.696236,0.281,0.00015771843027323484,0.09239818155765533,-0.07548802345991135,-0.01,0.0,-0.01,0,0.01414213562373095,"                                  0
time     2023-12-15 16:54:15.880702
type                            UAV
lat                       35.727367
lon                      -78.696238
alt                           0.281
pitch                      0.000158
yaw                        0.092398
roll                      -0.075488
vel_x                         -0.01
vel_y                           0.0
vel_z                         -0.01
heading                           0
speed                      0.014142",71.67245494150242,71.7138959928468
0,18.2,3686,33.64666,31.541716,11.714,ZC,True,[-0.47856459 -0.47130201 -0.4010057  -2.56436715],-0.9788099,[-5.09651474 -5.22440391 -5.22221586 -4.57017912],-5.028328407489549,-364.56467,[71.10687719 71.09961461 71.02931831 73.19267976],71.60712246793271,-32.1206205,[ 236  637 1038 1439],[ 536  937 1338 1739],536,1.1653029484907398,0.4669168528500665,-1.9762929700473513,-0.4669168528500665,Flight,"[ 1.7300215e-07-6.9200860e-07j -3.8060472e-07-1.0726133e-06j
  3.8060472e-07-1.7300215e-07j ...  6.7765906e-02-1.8658211e-02j
  5.7159144e-02-4.3025736e-02j -4.9988762e-02+2.7283320e-02j]",True,0,0,0,0,0,UAV,35.727367,-78.696236,0.286,0.00022900101612322032,0.09233355522155762,-0.07537748664617538,-0.01,0.0,-0.01,0,0.01414213562373095,"                                  0
time     2023-12-15 16:54:16.285978
type                            UAV
lat                       35.727367
lon                      -78.696238
alt                           0.286
pitch                      0.000229
yaw                        0.092334
roll                      -0.075377
vel_x                         -0.01
vel_y                           0.0
vel_z                         -0.01
heading                           0
speed                      0.014142",71.72737716486328,71.69253773911538
0,18.6,3686,33.647007,31.541716,11.715,ZC,True,[-1.46363745 -1.29250537 -1.2064826  -3.34806152],-1.8276718,[-6.59265369 -6.97029573 -6.98367034 -6.18533188],-6.682987912261591,-177.98366,[72.09195005 71.92081797 71.8347952  73.97637413],72.45598433876904,-32.1206205,[ 236  637 1038 1440],[ 536  937 1338 1740],536,1.1653029484907398,0.46692653288666963,-1.9762929700473513,-0.46692653288666963,Flight,"[ 5.01706211e-07-2.4220301e-07j -2.07602568e-07-6.9200858e-08j
  2.07602568e-07+3.1140385e-07j ... -2.52665132e-01-1.2704067e-01j
 -2.05474644e-04-1.0162160e-01j  1.09439395e-01+8.9113235e-02j]",True,0,0,0,0,0,UAV,35.727367,-78.696236,0.285,0.000262708606896922,0.09228137135505676,-0.07535846531391144,-0.01,0.0,-0.01,0,0.01414213562373095,"                                  0
time     2023-12-15 16:54:16.488646
type                            UAV
lat                       35.727367
lon                      -78.696238
alt                           0.285
pitch                      0.000263
yaw                        0.092281
roll                      -0.075358
vel_x                         -0.01
vel_y                           0.0
vel_z                         -0.01
heading                           0
speed                      0.014142",71.80536139374436,71.84524735763613
0,19.0,3686,33.650417,31.546095,11.713,ZC,True,[-0.33988934 -0.16502841 -0.06176134 -2.29471827],-0.7153493,[-5.11284564 -5.25458604 -5.25616315 -4.53918966],-5.040696123488852,37.435596,[70.96820194 70.79334101 70.69007395 72.92303088],71.34366194591877,-26.767183749999997,[ 237  638 1039 1440],[ 537  938 1339 1740],537,1.1649797505864141,0.46707178157499946,-1.9766161679516727,-0.46707178157499946,Flight,"[ 5.1900645e-07-3.1140385e-07j  1.0380129e-06-1.3840172e-07j
  4.1520514e-07+4.8440603e-07j ... -6.6477686e-02+2.6328661e-02j
  2.4162172e-03+5.8017500e-02j  4.5894011e-04-3.5646122e-02j]",True,0,0,0,0,0,UAV,35.727367,-78.696236,0.287,0.0001286209881072864,0.09206186234951019,-0.07524954527616501,-0.01,0.0,-0.01,0,0.01414213562373095,"                                  0
time     2023-12-15 16:54:16.893750
type                            UAV
lat                       35.727367
lon                      -78.696238
alt                           0.287
pitch                      0.000129
yaw                        0.092062
roll                       -0.07525
vel_x                         -0.01
vel_y                           0.0
vel_z                         -0.01
heading                           0
speed                      0.014142",71.70405920268877,71.74491960661624
0,19.4,3686,33.650066,31.546095,11.712,ZC,True,[-0.18984162 -0.29128271 -0.23770094 -2.40608064],-0.78122646,[-5.10072767 -5.19504223 -5.14259328 -4.3840636 ],-4.955606692516768,-354.04538,[70.81815422 70.91959531 70.86601355 73.03439324],71.40953908079813,-26.767183749999997,[ 237  638 1039 1440],[ 537  938 1339 1740],537,1.1649797505864141,0.46706210430919276,-1.9766161679516727,-0.46706210430919276,Flight,"[-2.0760257e-07-1.03801284e-07j -9.6881206e-07+5.27656539e-07j
 -3.3735418e-07+2.07602568e-07j ...  7.5200714e-02+3.08149345e-02j
 -3.8605914e-02+7.83548877e-02j  1.7394189e-02-2.34383997e-02j]",True,0,0,0,0,0,UAV,35.727367,-78.696236,0.288,7.59975882829167e-05,0.0919695645570755,-0.07516393065452576,-0.01,0.0,-0.01,0,0.01414213562373095,"                                  0
time     2023-12-15 16:54:17.298926
type                            UAV
lat                       35.727367
lon                      -78.696238
alt                           0.288
pitch                      0.000076
yaw                         0.09197
roll                      -0.075164
vel_x                         -0.01
vel_y                           0.0
vel_z                         -0.01
heading                           0
speed                      0.014142",71.73707659813877,71.67783779476318
0,19.8,3686,33.65111,31.546095,11.715,ZC,True,[-1.39435133 -1.3683584  -1.29246808 -3.46780464],-1.8807456,[-6.18347239 -6.37568341 -6.3458185  -5.6314752 ],-6.134112376520428,-181.91762,[72.02266393 71.996671   71.92078068 74.09611724],72.50905821530738,-26.767183749999997,[ 237  638 1039 1440],[ 537  938 1339 1740],537,1.1649797505864141,0.46709113427434173,-1.9766161679516727,-0.46709113427434173,Flight,"[-1.3840172e-07+4.4980558e-07j  5.1900645e-07+1.4186176e-06j
  1.3840172e-07+5.1900645e-07j ...  1.1103143e-01-4.4305850e-02j
 -1.1899364e-02+5.0348468e-02j -3.2165874e-02+1.8983820e-02j]",True,0,0,0,0,0,UAV,35.727367,-78.696236,0.285,-1.9134555259370245e-05,0.0918828696012497,-0.07528847455978394,-0.01,0.0,-0.01,0,0.01414213562373095,"                                  0
time     2023-12-15 16:54:17.704199
type                            UAV
lat                       35.727367
lon                      -78.696238
alt                           0.285
pitch                     -0.000019
yaw                        0.091883
roll                      -0.075288
vel_x                         -0.01
vel_y                           0.0
vel_z                         -0.01
heading                           0
speed                      0.014142",71.8288817084089,71.84409319362814
0,20.2,3686,33.650066,31.546095,11.712,ZC,True,[-0.6312536  -0.3897005  -0.29004321 -2.42745868],-0.934614,[-5.34383832 -5.40444992 -5.4336655  -4.70397087],-5.221481151203915,-160.29944,[71.25956621 71.0180131  70.91835582 73.05577128],71.56292660125717,-21.413746999999997,[ 238  639 1040 1441],[ 538  939 1340 1741],538,1.1649797505864141,0.46706210430919276,-1.9766161679516727,-0.46706210430919276,Flight,"[-4.1520514e-07-6.4010794e-07j -7.3958415e-07-3.4600430e-07j
  6.9200860e-07+4.4980558e-07j ... -8.2261832e-03-3.1071704e-02j
  1.9694565e-02-7.0799105e-02j  8.2719941e-03+3.3935912e-02j]",True,0,0,0,0,0,UAV,35.727367,-78.696236,0.288,-8.601330773672089e-05,0.09177912771701813,-0.07532478868961334,-0.01,0.0,-0.01,0,0.01414213562373095,"                                  0
time     2023-12-15 16:54:18.109425
type                            UAV
lat                       35.727367
lon                      -78.696238
alt                           0.288
pitch                     -0.000086
yaw                        0.091779
roll                      -0.075325
vel_x                         -0.01
vel_y                           0.0
vel_z                         -0.01
heading                           0
speed                      0.014142",71.74629124684402,71.78785681335417
0,20.6,3686,33.653896,31.546095,11.723,ZC,True,[ 0.09309351  0.13895051  0.1964401  -1.87462918],-0.36153626,[-4.84417769 -4.93577449 -4.94124774 -4.28576921],-4.751742283786725,-354.3687,[70.5352191  70.4893621  70.4318725  72.50294178],70.98984886957517,-21.413746999999997,[ 238  639 1040 1441],[ 538  939 1340 1741],538,1.1649797505864141,0.46716852084579313,-1.9766161679516727,-0.46716852084579313,Flight,"[ 8.6501075e-07+8.9961117e-07j  4.8440603e-07-2.9410364e-07j
  3.4600430e-07-3.0275376e-07j ...  8.9907415e-02+1.2328541e-01j
 -7.1763955e-02+2.4258291e-02j  3.0671690e-02-3.6987860e-02j]",True,0,0,0,0,0,UAV,35.727367,-78.696236,0.277,-0.0002471685002092272,0.09181031584739685,-0.07519809156656265,-0.01,0.0,0.0,0,0.01,"                                  0
time     2023-12-15 16:54:18.514584
type                            UAV
lat                       35.727367
lon                      -78.696238
alt                           0.277
pitch                     -0.000247
yaw                         0.09181
roll                      -0.075198
vel_x                         -0.01
vel_y                           0.0
vel_z                           0.0
heading                           0
speed                          0.01",71.72799185458211,71.62824827266596
0,21.0,3686,33.652504,31.546095,11.719,ZC,True,[-0.88802979 -0.9115808  -0.90386945 -3.08495177],-1.4471079,[-5.68119063 -5.72274832 -5.7064422  -4.94084351],-5.512806164873622,-213.89342,[71.5163424  71.5398934  71.53218205 73.71326437],72.07542055774258,-21.413746999999997,[ 238  639 1040 1441],[ 538  939 1340 1741],538,1.1649797505864141,0.46712983241122763,-1.9766161679516727,-0.46712983241122763,Flight,"[ 6.3145785e-07-1.2110151e-07j -2.5950322e-07-4.1520514e-07j
 -5.3630663e-07+5.1900645e-07j ... -1.2251043e-02+2.2583839e-02j
 -7.5117633e-02+3.8177595e-03j  2.7498346e-02+5.5539915e-03j]",True,0,0,0,0,0,UAV,35.727367,-78.696236,0.281,-0.0003453840035945177,0.0916706919670105,-0.07512914389371872,-0.01,0.01,0.0,0,0.01414213562373095,"                                  0
time     2023-12-15 16:54:18.919952
type                            UAV
lat                       35.727367
lon                      -78.696238
alt                           0.281
pitch                     -0.000345
yaw                        0.091671
roll                      -0.075129
vel_x                         -0.01
vel_y                          0.01
vel_z                           0.0
heading                           0
speed                      0.014142",71.75664511507628,71.71768584612587
0,21.4,3686,33.644714,31.537783,11.719,ZC,True,[-1.24527804 -1.0111726  -0.92875928 -3.102379  ],-1.5718973,[-6.0245642  -6.05966409 -5.99768026 -5.22266393],-5.826143119175636,-192.51668,[71.87359064 71.63948521 71.55707188 73.73069161],72.20020983477143,-16.06031025,[ 239  640 1041 1442],[ 539  940 1341 1742],539,1.164866501596392,0.4672228765734018,-1.976729415922545,-0.4672228765734018,Flight,"[-1.2975161e-06+2.76803434e-07j  4.1520514e-07-1.03801284e-07j
 -1.2110151e-07-8.30410272e-07j ...  2.3035062e-02+5.61680906e-02j
 -8.5081421e-02+1.60586923e-01j  5.8564860e-02-8.61230269e-02j]",True,0,0,0,0,0,UAV,35.727367,-78.696236,0.281,-0.0005183850298635662,0.09166911989450455,-0.07505398243665695,-0.01,0.01,0.0,0,0.01414213562373095,"                                  0
time     2023-12-15 16:54:19.326355
type                            UAV
lat                       35.727367
lon                      -78.696238
alt                           0.281
pitch                     -0.000518
yaw                        0.091669
roll                      -0.075054
vel_x                         -0.01
vel_y                          0.01
vel_z                           0.0
heading                           0
