index,time,center_freq,dist,h_dist,v_dist,wav_type,detected,power,avgPower,snr,avgSnr,freq_offset,path_loss,avg_pl,est_dist,peaks,orig_peaks,start_point,aod_theta,aod_phi,aoa_theta,aoa_phi,stage,corr,save_corr,rsrp,shadowing,multipath,delay,doppler,type,lat,lon,alt,pitch,yaw,roll,vel_x,vel_y,vel_z,heading,speed,vehicle,avg_pl_rolling,avg_pl_ewma
0,3.0000002,3686,33.896263,31.595976,12.274,ZC,True,[-0.96357686 -0.67846588 -0.70161431 -2.67249322],-1.2540376,[-5.91885036 -6.05803742 -5.99841703 -5.29348483],-5.817197409459115,212.05376,[71.59188947 71.30677848 71.32992691 73.30080582],71.88235017099024,160.60310249999998,[ 272  673 1074 1475],[ 572  973 1374 1775],572,1.1656579931199222,0.4718500892485343,-1.9759379315330634,-0.4718500892485343,Flight,"[-3.4600429e-08-2.7680343e-07j -5.1900642e-08+3.4600430e-07j
 -7.7850963e-08-8.6501075e-07j ... -6.4548902e-02-1.5733089e-01j
 -3.3004381e-02+7.9675443e-02j  2.2338592e-02+1.3519460e-02j]",True,0,0,0,0,0,UAV,35.727367,-78.696236,-0.274,-0.002626692410558462,0.12749461829662323,-0.07481443136930466,0.0,-0.01,0.0,0,0.01,"                                  0
time     2023-12-15 16:48:27.962797
type                            UAV
lat                       35.727367
lon                      -78.696239
alt                          -0.274
pitch                     -0.002627
yaw                        0.127495
roll                      -0.074814
vel_x                           0.0
vel_y                         -0.01
vel_z                           0.0
heading                           0
speed                          0.01",,71.88235017099024
0,3.4,3686,33.896263,31.595976,12.274,ZC,True,[-0.60461949 -0.15868781 -0.08560865 -2.10753113],-0.7391118,[-5.32476529 -5.4118048  -5.42691396 -4.71577018],-5.219813557618197,397.08148,[71.23293209 70.78700042 70.71392126 72.73584373],71.36742437513342,160.60310249999998,[ 272  673 1074 1475],[ 572  973 1374 1775],572,1.1656579931199222,0.4718500892485343,-1.9759379315330634,-0.4718500892485343,Flight,"[ 3.4600430e-07-7.6120944e-07j  3.1140385e-07+1.0726133e-06j
  3.4600430e-07+0.0000000e+00j ...  9.0484880e-02-8.9297168e-02j
  3.1177858e-02+3.9211128e-02j -5.1239777e-02-3.3692688e-02j]",True,0,0,0,0,0,UAV,35.727367,-78.696236,-0.274,-0.002626692410558462,0.12749461829662323,-0.07481443136930466,0.0,-0.01,0.0,0,0.01,"                                  0
time     2023-12-15 16:48:27.962797
type                            UAV
lat                       35.727367
lon                      -78.696239
alt                          -0.274
pitch                     -0.002627
yaw                        0.127495
roll                      -0.074814
vel_x                           0.0
vel_y                         -0.01
vel_z                           0.0
heading                           0
speed                          0.01",,71.59628028440312
0,3.8000002,3686,33.896263,31.595976,12.274,ZC,True,[-0.36084813  0.21184049  0.15965171 -1.80626519],-0.4489053,[-5.14387425 -5.13504338 -5.17050618 -4.49934763],-4.987192858642485,119.69454,[70.98916074 70.41647212 70.46866089 72.43457779],71.0772178842539,160.60310249999998,[ 272  673 1074 1475],[ 572  973 1374 1775],572,1.1656579931199222,0.4718500892485343,-1.9759379315330634,-0.4718500892485343,Flight,"[-2.4220301e-07-3.4600429e-08j  2.3355290e-07-5.7090710e-07j
 -4.1520514e-07-4.8440603e-07j ...  8.1963399e-03-2.8995160e-02j
 -6.1606755e-03+1.9703820e-02j  2.5620579e-03-1.2268689e-02j]",True,0,0,0,0,0,UAV,35.727367,-78.696236,-0.274,-0.002626692410558462,0.12749461829662323,-0.07481443136930466,0.0,-0.01,0.0,0,0.01,"                                  0
time     2023-12-15 16:48:27.962797
type                            UAV
lat                       35.727367
lon                      -78.696239
alt                          -0.274
pitch                     -0.002627
yaw                        0.127495
roll                      -0.074814
vel_x                           0.0
vel_y                         -0.01
vel_z                           0.0
heading                           0
speed                          0.01",,71.38354979253867
0,4.2000003,3686,33.896263,31.595976,12.274,ZC,True,[ 0.25738674  0.67192007  0.77074692 -1.44992608],0.06253191,[-4.9797039  -4.949333   -4.96734683 -4.24846252],-4.786211562946096,-194.7724,[70.37092587 69.95639254 69.85756568 72.07823868],70.56578069222341,160.60310249999998,[ 272  673 1074 1475],[ 572  973 1374 1775],572,1.1656579931199222,0.4718500892485343,-1.9759379315330634,-0.4718500892485343,Flight,"[-6.9200858e-08-7.9580985e-07j -6.9200858e-08+1.7300215e-07j
 -5.5360687e-07+6.5740818e-07j ...  5.8654629e-02+8.3256587e-03j
  3.5586957e-02-1.1645705e-01j -3.1372640e-02+8.1422217e-02j]",True,0,0,0,0,0,UAV,35.727367,-78.696236,-0.274,-0.002626692410558462,0.12749461829662323,-0.07481443136930466,0.0,-0.01,0.0,0,0.01,"                                  0
time     2023-12-15 16:48:27.962797
type                            UAV
lat                       35.727367
lon                      -78.696239
alt                          -0.274
pitch                     -0.002627
yaw                        0.127495
roll                      -0.074814
vel_x                           0.0
vel_y                         -0.01
vel_z                           0.0
heading                           0
speed                          0.01",,71.10652773958635
0,4.6,3686,33.896263,31.595976,12.274,ZC,True,[ 0.36085765  0.69596173  0.7444563  -1.35792489],0.1108377,[-4.76565904 -4.81826508 -4.82954555 -4.1607287 ],-4.6435495905169155,-155.74219,[70.26745495 69.93235087 69.8838563  71.98623749],70.5174749054209,160.60310249999998,[ 272  673 1074 1475],[ 572  973 1374 1775],572,1.1656579931199222,0.4718500892485343,-1.9759379315330634,-0.4718500892485343,Flight,"[ 4.1520514e-07+3.1140385e-07j  2.4220301e-07-3.4600430e-07j
 -3.4600429e-08+6.9200858e-08j ... -3.5024881e-02+6.6174321e-02j
  2.7603945e-02-2.9287776e-02j -2.9694565e-02-1.3823702e-02j]",True,0,0,0,0,0,UAV,35.727367,-78.696236,-0.274,-0.002626692410558462,0.12749461829662323,-0.07481443136930466,0.0,-0.01,0.0,0,0.01,"                                  0
time     2023-12-15 16:48:27.962797
type                            UAV
lat                       35.727367
lon                      -78.696239
alt                          -0.274
pitch                     -0.002627
yaw                        0.127495
roll                      -0.074814
vel_x                           0.0
vel_y                         -0.01
vel_z                           0.0
heading                           0
speed                          0.01",,70.93129783889458
0,5.0,3686,33.896263,31.595976,12.274,ZC,True,[ 0.57610908  0.8327053   0.89648183 -1.18393154],0.28034118,[-4.89329608 -4.89828914 -4.88576841 -4.26870463],-4.736514564777028,78.91321,[70.05220353 69.7956073  69.73183077 71.81224415],70.34797143685094,160.60310249999998,[ 272  673 1074 1475],[ 572  973 1374 1775],572,1.1656579931199222,0.4718500892485343,-1.9759379315330634,-0.4718500892485343,Flight,"[-1.38401717e-07-6.9200860e-07j -8.65010730e-09-2.0760257e-07j
  3.46004292e-08-2.7680343e-07j ...  5.34531660e-02-4.3923758e-02j
 -3.45578697e-03+5.3661461e-03j -1.23895835e-02+2.8167933e-02j]",True,0,0,0,0,0,UAV,35.727367,-78.696236,-0.274,-0.002626692410558462,0.12749461829662323,-0.07481443136930466,0.0,-0.01,0.0,0,0.01,"                                  0
time     2023-12-15 16:48:27.962797
type                            UAV
lat                       35.727367
lon                      -78.696239
alt                          -0.274
pitch                     -0.002627
yaw                        0.127495
roll                      -0.074814
vel_x                           0.0
vel_y                         -0.01
vel_z                           0.0
heading                           0
speed                          0.01",,70.77318395162018
0,5.4,3686,33.896263,31.595976,12.274,ZC,True,[ 0.6095328   0.67714559  0.73907433 -1.65803858],0.091928534,[-4.97986074 -4.87908772 -4.87525171 -4.15431977],-4.722129983516099,-445.4101,[70.01877981 69.95116701 69.88923827 72.28635119],70.53638406975188,160.60310249999998,[ 272  673 1074 1475],[ 572  973 1374 1775],572,1.1656579931199222,0.4718500892485343,-1.9759379315330634,-0.4718500892485343,Flight,"[ 4.8440603e-07+7.4390925e-07j -4.8440603e-07+2.2490279e-07j
 -7.2660902e-07+2.7680343e-07j ...  1.1612596e-02+6.2577784e-02j
  1.9801503e-01+1.3878302e-02j -6.6896953e-02-5.2277893e-02j]",True,0,0,0,0,0,UAV,35.727367,-78.696236,-0.274,-0.002626692410558462,0.12749461829662323,-0.07481443136930466,0.0,-0.01,0.0,0,0.01,"                                  0
time     2023-12-15 16:48:27.962797
type                            UAV
lat                       35.727367
lon                      -78.696239
alt                          -0.274
pitch                     -0.002627
yaw                        0.127495
roll                      -0.074814
vel_x                           0.0
vel_y                         -0.01
vel_z                           0.0
heading                           0
speed                          0.01",,70.71325621876532
0,5.8,3686,33.896263,31.595976,12.274,ZC,True,[ 0.43272414  0.64470709  0.73521547 -1.70733993],0.026326692,[-4.91316351 -4.88267306 -4.93595725 -4.13083366],-4.715656868800461,41.70895,[70.19558846 69.98360552 69.89309714 72.33565253],70.60198591190445,160.60310249999998,[ 272  673 1074 1475],[ 572  973 1374 1775],572,1.1656579931199222,0.4718500892485343,-1.9759379315330634,-0.4718500892485343,Flight,"[ 3.4600429e-08-6.9200860e-07j -2.5950322e-07+1.3840172e-07j
  2.1625269e-07+1.1418142e-06j ... -1.3165034e-01+7.9121910e-02j
 -3.7278086e-02-1.0057616e-01j  4.4466153e-02-3.3020817e-02j]",True,0,0,0,0,0,UAV,35.727367,-78.696236,-0.274,-0.002626692410558462,0.12749461829662323,-0.07481443136930466,0.0,-0.01,0.0,0,0.01,"                                  0
time     2023-12-15 16:48:27.962797
type                            UAV
lat                       35.727367
lon                      -78.696239
alt                          -0.274
pitch                     -0.002627
yaw                        0.127495
roll                      -0.074814
vel_x                           0.0
vel_y                         -0.01
vel_z                           0.0
heading                           0
speed                          0.01",,70.68651587158807
0,6.2000003,3686,33.896263,31.595976,12.274,ZC,True,[-0.26063588 -0.12396004 -0.0236997  -2.40298076],-0.7028191,[-5.12431147 -5.15213797 -5.17967059 -4.47337564],-4.982373916787488,-104.924034,[70.88894849 70.75227265 70.6520123  73.03129336],71.3311316997615,160.60310249999998,[ 272  673 1074 1475],[ 572  973 1374 1775],572,1.1656579931199222,0.4718500892485343,-1.9759379315330634,-0.4718500892485343,Flight,"[ 5.8820729e-07+4.4980558e-07j -3.8060472e-07+6.9200860e-07j
 -5.5360687e-07+4.1520514e-07j ... -3.7581187e-02-2.2689544e-02j
  1.9943548e-02+4.4796102e-02j -4.8904249e-04-1.7546890e-02j]",True,0,0,0,0,0,UAV,35.727367,-78.696236,-0.274,-0.002626692410558462,0.12749461829662323,-0.07481443136930466,0.0,-0.01,0.0,0,0.01,"                                  0
time     2023-12-15 16:48:27.962797
type                            UAV
lat                       35.727367
lon                      -78.696239
alt                          -0.274
pitch                     -0.002627
yaw                        0.127495
roll                      -0.074814
vel_x                           0.0
vel_y                         -0.01
vel_z                           0.0
heading                           0
speed                          0.01",,70.83542532585174
0,6.6,3686,33.896263,31.595976,12.274,ZC,True,[-0.38736211 -0.45637784 -0.46524947 -2.86860164],-1.0443977,[-5.50161643 -5.50176585 -5.48983906 -4.66408953],-5.289327718958355,-398.65222,[71.01567472 71.08469045 71.09356208 73.49691425],71.67271037245864,160.60310249999998,[ 272  673 1074 1475],[ 572  973 1374 1775],572,1.1656579931199222,0.4718500892485343,-1.9759379315330634,-0.4718500892485343,Flight,"[ 4.8440603e-07+4.1520514e-07j -3.2870409e-07-5.1900645e-07j
 -3.4600430e-07+2.0760257e-07j ... -8.4290104e-03-1.4468224e-01j
  1.5123598e-01+4.6736528e-05j -6.7965575e-02+1.3154581e-02j]",True,0,0,0,0,0,UAV,35.727367,-78.696236,-0.274,-0.002626692410558462,0.12749461829662323,-0.07481443136930466,0.0,-0.01,0.0,0,0.01,"                                  0
time     2023-12-15 16:48:27.962797
type                            UAV
lat                       35.727367
lon                      -78.696239
alt                          -0.274
pitch                     -0.002627
yaw                        0.127495
roll                      -0.074814
vel_x                           0.0
vel_y                         -0.01
vel_z                           0.0
heading                           0
speed                          0.01",70.99004315187493,71.02302578062195
0,7.0,3686,33.896263,31.595976,12.274,ZC,True,[-0.9934503  -0.99486816 -0.97989199 -3.4355062 ],-1.6009291,[-5.87896107 -5.91856028 -5.92087487 -5.11534599],-5.708435552931736,-162.95468,[71.62176291 71.62318077 71.6082046  74.0638188 ],72.22924176986145,160.60310249999998,[ 272  673 1074 1475],[ 572  973 1374 1775],572,1.1656579931199222,0.4718500892485343,-1.9759379315330634,-0.4718500892485343,Flight,"[ 5.1900645e-07+7.61209435e-07j  6.9200860e-07-7.43909254e-07j
  2.7680343e-07+3.80604718e-07j ... -7.1276883e-03-3.89818810e-02j
  1.8138928e-02+6.65589795e-02j  2.3529677e-02-1.28783835e-02j]",True,0,0,0,0,0,UAV,35.727367,-78.696236,-0.274,-0.002626692410558462,0.12749461829662323,-0.07481443136930466,0.0,-0.01,0.0,0,0.01,"                                  0
time     2023-12-15 16:48:27.962797
type                            UAV
lat                       35.727367
lon                      -78.696239
alt                          -0.274
pitch                     -0.002627
yaw                        0.127495
roll                      -0.074814
vel_x                           0.0
vel_y                         -0.01
vel_z                           0.0
heading                           0
speed                          0.01",71.02473231176205,71.2869389468265
0,7.4,3686,33.896263,31.595976,12.274,ZC,True,[-0.98792633 -0.76819123 -0.83347092 -3.29576921],-1.4713395,[-6.48452327 -6.63053227 -6.63344962 -5.68002355],-6.35713217695243,-88.628914,[71.61623893 71.39650384 71.46178352 73.92408181],72.09965202638796,160.60310249999998,[ 272  673 1074 1475],[ 572  973 1374 1775],572,1.1656579931199222,0.4718500892485343,-1.9759379315330634,-0.4718500892485343,Flight,"[ 1.0207127e-06+9.8611224e-07j  0.0000000e+00-2.2490279e-07j
  6.9200858e-08+7.9580985e-07j ... -1.7187743e-01+7.2964557e-02j
  2.6222074e-02-5.4322191e-02j  1.5716933e-02+2.9604472e-03j]",True,0,0,0,0,0,UAV,35.727367,-78.696236,-0.274,-0.002626692410558462,0.12749461829662323,-0.07481443136930466,0.0,-0.01,0.0,0,0.01,"                                  0
time     2023-12-15 16:48:27.962797
type                            UAV
lat                       35.727367
lon                      -78.696239
alt                          -0.274
pitch                     -0.002627
yaw                        0.127495
roll                      -0.074814
vel_x                           0.0
vel_y                         -0.01
vel_z                           0.0
heading                           0
speed                          0.01",71.0979550768875,71.46147563244578
0,7.8,3686,33.896263,31.595976,12.274,ZC,True,[-1.34811101 -1.13989715 -1.11375123 -3.65111636],-1.813219,[-7.19480612 -7.35510792 -7.3359114  -6.28160601],-7.041857861094556,163.05908,[71.97642361 71.76820976 71.74206383 74.27942896],72.44153154032492,160.60310249999998,[ 272  673 1074 1475],[ 572  973 1374 1775],572,1.1656579931199222,0.4718500892485343,-1.9759379315330634,-0.4718500892485343,Flight,"[-4.1520514e-07-1.3148164e-06j -2.8545355e-07-1.7300215e-07j
 -5.1900642e-08+2.7680343e-07j ... -5.5314530e-02-5.3594887e-02j
 -3.4145087e-03-3.8876317e-02j  1.5869763e-02+4.2511739e-02j]",True,0,0,0,0,0,UAV,35.727367,-78.696236,-0.274,-0.002626692410558462,0.12749461829662323,-0.07481443136930466,0.0,-0.01,0.0,0,0.01,"                                  0
time     2023-12-15 16:48:27.962797
type                            UAV
lat                       35.727367
lon                      -78.696239
alt                          -0.274
pitch                     -0.002627
yaw                        0.127495
roll                      -0.074814
vel_x                           0.0
vel_y                         -0.01
vel_z                           0.0
heading                           0
speed                          0.01",71.2343864424946,71.66888951267534
0,8.2,3686,33.896263,31.595976,12.274,ZC,True,[-1.2993143  -0.85510525 -0.82248141 -3.21074681],-1.546912,[-6.60501254 -6.3269834  -6.29456592 -5.38444871],-6.152752640881664,-11.662312,[71.9276269  71.48341785 71.45079402 73.83905941],72.17522454678301,165.95653925,[ 273  674 1075 1476],[ 573  974 1375 1776],573,1.1656579931199222,0.4718500892485343,-1.9759379315330634,-0.4718500892485343,Flight,"[-6.9200858e-08-5.1900645e-07j -2.0760257e-07+4.0655505e-07j
  2.2490279e-07-2.4220301e-07j ... -1.7945668e-02+6.5870914e-03j
 -1.5285636e-01+5.4577854e-02j  1.2225785e-01-4.3488968e-02j]",True,0,0,0,0,0,UAV,35.727367,-78.696236,-0.274,-0.002626692410558462,0.12749461829662323,-0.07481443136930466,0.0,-0.01,0.0,0,0.01,"                                  0
time     2023-12-15 16:48:27.962797
type                            UAV
lat                       35.727367
lon                      -78.696239
alt                          -0.274
pitch                     -0.002627
yaw                        0.127495
roll                      -0.074814
vel_x                           0.0
vel_y                         -0.01
vel_z                           0.0
heading                           0
speed                          0.01",71.39533082795057,71.77481517959521
0,8.6,3686,33.896263,31.595976,12.274,ZC,True,[-1.10728773 -0.58189647 -0.53399602 -2.97510094],-1.2995703,[-6.06437148 -5.84961863 -5.78693543 -4.95478411],-5.663927411676286,93.90851,[71.73560033 71.21020907 71.16230863 73.60341355],71.92788289390326,165.95653925,[ 273  674 1075 1476],[ 573  974 1375 1776],573,1.1656579931199222,0.4718500892485343,-1.9759379315330634,-0.4718500892485343,Flight,"[-8.3041027e-07+1.2802159e-06j  3.8060472e-07+2.4220301e-07j
 -1.3840172e-07-3.1140385e-07j ... -2.1670596e-03+5.6646474e-02j
  7.8640198e-03+8.4319726e-02j  1.1597372e-02-7.2573297e-02j]",True,0,0,0,0,0,UAV,35.727367,-78.696236,-0.274,-0.002626692410558462,0.12749461829662323,-0.07481443136930466,0.0,-0.01,0.0,0,0.01,"                                  0
time     2023-12-15 16:48:27.962797
type                            UAV
lat                       35.727367
lon                      -78.696239
alt                          -0.274
pitch                     -0.002627
yaw                        0.127495
roll                      -0.074814
vel_x                           0.0
vel_y                         -0.01
vel_z                           0.0
heading                           0
speed                          0.01",71.5363716267988,71.80654512050411
0,9.0,3686,33.896263,31.595976,12.274,ZC,True,[-0.56192986 -0.06502556 -0.00451331 -2.3566233 ],-0.747023,[-5.38640722 -5.31118685 -5.34945554 -4.5836841 ],-5.157683429825134,45.37236,[71.19024246 70.69333816 70.63282592 72.9849359 ],71.37533561092879,165.95653925,[ 273  674 1075 1476],[ 573  974 1375 1776],573,1.1656579931199222,0.4718500892485343,-1.9759379315330634,-0.4718500892485343,Flight,"[-6.9200858e-08-3.89254836e-07j  4.1520514e-07-1.03801284e-07j
 -1.2110151e-07+4.15205136e-07j ...  1.0472443e-02+1.16344221e-01j
 -8.4648646e-02+1.83928956e-03j  5.1911473e-02-2.83214469e-02j]",True,0,0,0,0,0,UAV,35.727367,-78.696236,-0.274,-0.002626692410558462,0.12749461829662323,-0.07481443136930466,0.0,-0.01,0.0,0,0.01,"                                  0
time     2023-12-15 16:48:27.962797
type                            UAV
lat                       35.727367
lon                      -78.696239
alt                          -0.274
pitch                     -0.002627
yaw                        0.127495
roll                      -0.074814
vel_x                           0.0
vel_y                         -0.01
vel_z                           0.0
heading                           0
speed                          0.01",71.63910804420658,71.71780541802005
0,9.400001,3686,33.896263,31.595976,12.274,ZC,True,[ 0.10798428  0.52328535  0.47465798 -1.75985494],-0.16348183,[-5.29599355 -5.16418174 -5.12598465 -4.38624757],-4.993101875645744,-20.824366,[70.52032832 70.10502725 70.15365463 72.38816754],70.79179443534525,165.95653925,[ 273  674 1075 1476],[ 573  974 1375 1776],573,1.1656579931199222,0.4718500892485343,-1.9759379315330634,-0.4718500892485343,Flight,"[ 1.3148164e-06-6.9200858e-08j -3.4600429e-08-2.0760257e-07j
 -3.4600430e-07+3.1140385e-07j ...  5.5529207e-02+6.4253032e-02j
 -4.0997148e-02+4.0926669e-02j  2.3711985e-02-4.1687600e-02j]",True,0,0,0,0,0,UAV,35.727367,-78.696236,-0.274,-0.002626692410558462,0.12749461829662323,-0.07481443136930466,0.0,-0.01,0.0,0,0.01,"                                  0
time     2023-12-15 16:48:27.962797
type                            UAV
lat                       35.727367
lon                      -78.696239
alt                          -0.274
pitch                     -0.002627
yaw                        0.127495
roll                      -0.074814
vel_x                           0.0
vel_y                         -0.01
vel_z                           0.0
heading                           0
speed                          0.01",71.66464908076593,71.52833676674877
0,9.8,3686,33.896263,31.595976,12.274,ZC,True,[ 0.53377991  1.01108791  1.00455255 -1.13146061],0.35448995,[-4.86407984 -4.85043818 -4.88096024 -4.14730815],-4.685696606199959,241.96252,[70.0945327  69.61722469 69.62376005 71.75977321],70.27382266419531,165.95653925,[ 273  674 1075 1476],[ 573  974 1375 1776],573,1.1656579931199222,0.4718500892485343,-1.9759379315330634,-0.4718500892485343,Flight,"[ 8.6501075e-08-1.5570193e-07j -1.3840172e-07+0.0000000e+00j
  5.1900645e-07+1.9030236e-07j ...  5.1296949e-02-8.2523754e-04j
  1.1534714e-01-1.2732231e-02j -8.6367778e-02+1.4644804e-03j]",True,0,0,0,0,0,UAV,35.727367,-78.696236,-0.274,-0.002626692410558462,0.12749461829662323,-0.07481443136930466,0.0,-0.01,0.0,0,0.01,"                                  0
time     2023-12-15 16:48:27.962797
type                            UAV
lat                       35.727367
lon                      -78.696239
alt                          -0.274
pitch                     -0.002627
yaw                        0.127495
roll                      -0.074814
vel_x                           0.0
vel_y                         -0.01
vel_z                           0.0
heading                           0
speed                          0.01",71.63183275599502,71.2728311665344
0,10.2,3686,33.896263,31.595976,12.274,ZC,True,[ 0.47381192  0.83656738  0.8643877  -1.35105043],0.20592915,[-4.852086   -4.82327626 -4.83997222 -4.20290315],-4.679559410044741,-252.48991,[70.15450068 69.79174523 69.7639249  71.97936303],70.42238346035273,165.95653925,[ 273  674 1075 1476],[ 573  974 1375 1776],573,1.1656579931199222,0.4718500892485343,-1.9759379315330634,-0.4718500892485343,Flight,"[ 8.1311009e-07-3.4600429e-08j  3.1140385e-07-8.9961117e-07j
  6.9200860e-07-1.7300215e-08j ...  1.7924668e-01-9.9535055e-02j
 -5.7128768e-02+5.5383835e-02j -5.5604793e-02+1.9134937e-02j]",True,0,0,0,0,0,UAV,35.727367,-78.696236,-0.274,-0.002626692410558462,0.12749461829662323,-0.07481443136930466,0.0,-0.01,0.0,0,0.01,"                                  0
time     2023-12-15 16:48:27.962797
type                            UAV
lat                       35.727367
lon                      -78.696239
alt                          -0.274
pitch                     -0.002627
yaw                        0.127495
roll                      -0.074814
vel_x                           0.0
vel_y                         -0.01
vel_z                           0.0
heading                           0
speed                          0.01",71.54095793205413,71.10025453391127
0,10.6,3686,33.896263,31.595976,12.274,ZC,True,[ 0.455257    0.55571636  0.53950789 -1.80385913],-0.06334447,[-4.95175606 -4.88057789 -4.8765048  -4.1685591 ],-4.719349462517185,-128.52826,[70.1730556  70.07259625 70.08880471 72.43217173],70.69165707304865,165.95653925,[ 273  674 1075 1476],[ 573  974 1375 1776],573,1.1656579931199222,0.4718500892485343,-1.9759379315330634,-0.4718500892485343,Flight,"[ 1.3840172e-07+7.2660902e-07j  2.0760257e-07+1.9895246e-07j
 -1.1245139e-06-2.4220301e-07j ... -7.3114857e-02+6.3505284e-02j
  5.4751374e-03-7.9251871e-02j  5.8870383e-02+1.0527907e-02j]",True,0,0,0,0,0,UAV,35.727367,-78.696236,-0.274,-0.002626692410558462,0.12749461829662323,-0.07481443136930466,0.0,-0.01,0.0,0,0.01,"                                  0
time     2023-12-15 16:48:27.962797
type                            UAV
lat                       35.727367
lon                      -78.696239
alt                          -0.274
pitch                     -0.002627
yaw                        0.127495
roll                      -0.074814
vel_x                           0.0
vel_y                         -0.01
vel_z                           0.0
heading                           0
speed                          0.01",71.44285260211312,71.01758189106089
0,11.0,3686,33.896263,31.595976,12.274,ZC,True,[-0.01881992  0.14177319  0.22909428 -2.26180333],-0.47743896,[-5.02476139 -5.02537009 -5.05462138 -4.25578399],-4.840134213925416,-257.9046,[70.64713253 70.48653942 70.39921833 72.89011593],71.1057515515885,165.95653925,[ 273  674 1075 1476],[ 573  974 1375 1776],573,1.1656579931199222,0.4718500892485343,-1.9759379315330634,-0.4718500892485343,Flight,"[ 0.0000000e+00+9.3421158e-07j -6.9200858e-08+3.1140385e-07j
 -8.3906042e-07-2.4220301e-07j ... -1.0615054e-01+7.8236379e-02j
 -5.9818432e-02-4.7698282e-02j  1.0928584e-01-1.8738139e-02j]",True,0,0,0,0,0,UAV,35.727367,-78.696236,-0.274,-0.002626692410558462,0.12749461829662323,-0.07481443136930466,0.0,-0.01,0.0,0,0.01,"                                  0
time     2023-12-15 16:48:27.962797
type                            UAV
lat                       35.727367
lon                      -78.696239
alt                          -0.274
pitch                     -0.002627
yaw                        0.127495
roll                      -0.074814
vel_x                           0.0
vel_y                         -0.01
vel_z                           0.0
heading                           0
speed                          0.01",71.33050358028584,71.03537998157678
0,11.400001,3686,33.896263,31.595976,12.274,ZC,True,[-0.19152795 -0.2817673  -0.27941438 -2.82538242],-0.894523,[-5.54431131 -5.56076403 -5.55752908 -4.67899145],-5.335398967326986,39.084824,[70.81984055 70.9100799  70.90772698 73.45369502],71.5228356143072,165.95653925,[ 273  674 1075 1476],[ 573  974 1375 1776],573,1.1656579931199222,0.4718500892485343,-1.9759379315330634,-0.4718500892485343,Flight,"[-6.9200858e-08+1.9030236e-07j  1.8165225e-07+3.8060472e-07j
 -2.0760257e-07+1.5570193e-07j ... -1.8219635e-02-1.6889405e-02j
 -4.7662124e-02+1.2249624e-02j  1.7120741e-02+1.8523296e-02j]",True,0,0,0,0,0,UAV,35.727367,-78.696236,-0.274,-0.002626692410558462,0.12749461829662323,-0.07481443136930466,0.0,-0.01,0.0,0,0.01,"                                  0
time     2023-12-15 16:48:27.962797
type                            UAV
lat                       35.727367
lon                      -78.696239
alt                          -0.274
pitch                     -0.002627
yaw                        0.127495
roll                      -0.074814
vel_x                           0.0
vel_y                         -0.01
vel_z                           0.0
heading                           0
speed                          0.01",71.27282193907776,71.13359581304572
0,11.8,3686,33.896263,31.595976,12.274,ZC,True,[-0.50169142 -0.53574347 -0.54376919 -3.26772679],-1.2122327,[-6.14236378 -6.22552086 -6.21200529 -5.26360202],-5.960872988210402,-342.2418,[71.13000402 71.16405608 71.17208179 73.8960394 ],71.84054532331058,165.95653925,[ 273  674 1075 1476],[ 573  974 1375 1776],573,1.1656579931199222,0.4718500892485343,-1.9759379315330634,-0.4718500892485343,Flight,"[ 1.03801284e-07+8.9961117e-07j -1.38401717e-07+9.3421158e-07j
 -5.19006448e-07+7.6120944e-07j ... -1.84540357e-02-4.1246895e-02j
  8.55211914e-03-2.9261306e-02j -2.65202951e-02+4.5654695e-02j]",True,0,0,0,0,0,UAV,35.727367,-78.696236,-0.274,-0.002626692410558462,0.12749461829662323,-0.07481443136930466,0.0,-0.01,0.0,0,0.01,"                                  0
time     2023-12-15 16:48:27.962797
type                            UAV
lat                       35.727367
lon                      -78.696239
alt                          -0.274
pitch                     -0.002627
yaw                        0.127495
roll                      -0.074814
vel_x                           0.0
vel_y                         -0.01
vel_z                           0.0
heading                           0
speed                          0.01",71.21272331737633,71.27582528974072
0,12.2,3686,33.896263,31.595976,12.274,ZC,True,[-1.11513647 -1.03722007 -1.09277756 -3.71664452],-1.7404447,[-6.78549326 -6.86988043 -6.76631158 -5.90240443],-6.581022424100945,-105.74644,[71.74344907 71.66553267 71.72109016 74.34495712],72.3687572563014,165.95653925,[ 273  674 1075 1476],[ 573  974 1375 1776],573,1.1656579931199222,0.4718500892485343,-1.9759379315330634,-0.4718500892485343,Flight,"[ 1.0380129e-06+1.3840172e-07j  5.1900645e-07+5.5360687e-07j
 -3.1140385e-07-1.3840172e-07j ... -2.1589325e-01-7.9769284e-02j
  1.8019212e-02-6.7802377e-02j  7.4768446e-02+7.2572254e-02j]",True,0,0,0,0,0,UAV,35.727367,-78.696236,-0.274,-0.002626692410558462,0.12749461829662323,-0.07481443136930466,0.0,-0.01,0.0,0,0.01,"                                  0
time     2023-12-15 16:48:27.962797
type                            UAV
lat                       35.727367
lon                      -78.696239
alt                          -0.274
pitch                     -0.002627
yaw                        0.127495
roll                      -0.074814
vel_x                           0.0
vel_y                         -0.01
vel_z                           0.0
heading                           0
speed                          0.01",71.23207658832817,71.49544882587877
0,12.6,3686,33.896263,31.595976,12.274,ZC,True,[-1.6148098  -1.43256545 -1.43009698 -3.62639532],-2.025967,[-7.0689288  -7.00958557 -7.06444973 -6.0486871 ],-6.797912796908998,-99.578476,[72.24312241 72.06087805 72.05840959 74.25470792],72.65427949107776,171.30997599999998,[ 274  675 1076 1477],[ 574  975 1376 1777],574,1.1656579931199222,0.4718500892485343,-1.9759379315330634,-0.4718500892485343,Flight,"[-2.7680343e-07+3.8060472e-07j -2.7680343e-07+2.7680343e-07j
 -6.9200858e-08+3.8060472e-07j ...  1.2625206e-01+6.6114277e-02j
 -5.4512631e-02+4.9177408e-02j -8.4138975e-02-2.2981398e-02j]",True,0,0,0,0,0,UAV,35.727367,-78.696236,-0.274,-0.002626692410558462,0.12749461829662323,-0.07481443136930466,0.0,-0.01,0.0,0,0.01,"                                  0
time     2023-12-15 16:48:27.962797
type                            UAV
lat                       35.727367
lon                      -78.696239
alt                          -0.274
pitch                     -0.002627
yaw                        0.127495
roll                      -0.074814
vel_x                           0.0
vel_y                         -0.01
vel_z                           0.0
heading                           0
speed                          0.01",71.30471624804562,71.72809386703437
0,13.0,3686,33.896263,31.595976,12.274,ZC,True,[-1.11709639 -0.77908593 -0.6928965  -2.95366541],-1.385686,[-6.10364167 -5.9952815  -5.95895173 -5.20932801],-5.816800726070338,-90.04433,[71.74540899 71.40739854 71.32120911 73.58197802],72.01399866345525,171.30997599999998,[ 274  675 1076 1477],[ 574  975 1376 1777],574,1.1656579931199222,0.4718500892485343,-1.9759379315330634,-0.4718500892485343,Flight,"[ 6.2280770e-07-1.03801284e-07j  6.2280770e-07+6.92008584e-08j
  1.2456154e-06+1.38401717e-07j ...  1.2724308e-03+1.03689112e-01j
 -3.6350936e-02-5.37605546e-02j  4.8403285e-02+2.01118458e-02j]",True,0,0,0,0,0,UAV,35.727367,-78.696236,-0.274,-0.002626692410558462,0.12749461829662323,-0.07481443136930466,0.0,-0.01,0.0,0,0.01,"                                  0
time     2023-12-15 16:48:27.962797
type                            UAV
lat                       35.727367
lon                      -78.696239
alt                          -0.274
pitch                     -0.002627
yaw                        0.127495
roll                      -0.074814
vel_x                           0.0
vel_y                         -0.01
vel_z                           0.0
heading                           0
speed                          0.01",71.36858255329827,71.78544816906002
0,13.400001,3686,33.896263,31.595976,12.274,ZC,True,[-0.53528167 -0.09505101  0.02610795 -2.19833792],-0.7006407,[-5.39976528 -5.33732076 -5.33844744 -4.53408318],-5.152404165649219,-217.60712,[71.16359427 70.72336362 70.60220466 72.82665052],71.3289532663705,171.30997599999998,[ 274  675 1076 1477],[ 574  975 1376 1777],574,1.1656579931199222,0.4718500892485343,-1.9759379315330634,-0.4718500892485343,Flight,"[-1.1418142e-06+6.40107942e-07j -3.1140385e-07-1.38401717e-07j
 -7.6120944e-07-7.95809854e-07j ... -9.1692209e-02+2.16380045e-01j
 -1.3607869e-01+6.29511103e-02j  6.1555546e-02-1.01352684e-01j]",True,0,0,0,0,0,UAV,35.727367,-78.696236,-0.274,-0.002626692410558462,0.12749461829662323,-0.07481443136930466,0.0,-0.01,0.0,0,0.01,"                                  0
time     2023-12-15 16:48:27.962797
type                            UAV
lat                       35.727367
lon                      -78.696239
alt                          -0.274
pitch                     -0.002627
yaw                        0.127495
roll                      -0.074814
vel_x                           0.0
vel_y                         -0.01
vel_z                           0.0
heading                           0
speed                          0.01",71.42229843640078,71.69392790610429
0,13.8,3686,33.896263,31.595976,12.274,ZC,True,[ 0.00744648  0.49578039  0.55171756 -1.72775649],-0.16820301,[-5.12292778 -4.96884586 -4.94022841 -4.15878499],-4.7976967592519735,198.8281,[70.62086612 70.13253221 70.07659505 72.35606909],70.79651561840555,171.30997599999998,[ 274  675 1076 1477],[ 574  975 1376 1777],574,1.1656579931199222,0.4718500892485343,-1.9759379315330634,-0.4718500892485343,Flight,"[-1.17641457e-06+1.3364415e-06j  3.11403852e-07+5.5360687e-07j
 -4.15205136e-07+8.3041027e-07j ...  1.09331824e-01+1.0012354e-01j
  2.37642676e-02+7.7701218e-02j -3.07627227e-02-6.8942085e-02j]",True,0,0,0,0,0,UAV,35.727367,-78.696236,-0.274,-0.002626692410558462,0.12749461829662323,-0.07481443136930466,0.0,-0.01,0.0,0,0.01,"                                  0
time     2023-12-15 16:48:27.962797
type                            UAV
lat                       35.727367
lon                      -78.696239
alt                          -0.274
pitch                     -0.002627
yaw                        0.127495
roll                      -0.074814
vel_x                           0.0
vel_y                         -0.01
vel_z                           0.0
heading                           0
speed                          0.01",71.47456773182181,71.51409760617616
0,14.2,3686,33.896263,31.595976,12.274,ZC,True,[ 0.46350444  0.98911992  0.97761123 -1.29632748],0.28347704,[-4.88627096 -4.76199527 -4.79267936 -4.05111756],-4.623015786428298,-59.763893,[70.16480817 69.63919269 69.65070138 71.92464009],70.3448355799947,171.30997599999998,[ 274  675 1076 1477],[ 574  975 1376 1777],574,1.1656579931199222,0.4718500892485343,-1.9759379315330634,-0.4718500892485343,Flight,"[-3.4600430e-07-2.0760257e-07j  1.2283152e-06-5.3630663e-07j
  0.0000000e+00-3.4600430e-07j ...  1.3692877e-02+7.5880952e-02j
 -5.1724873e-03-5.7667568e-02j -2.5787907e-02+2.1242796e-02j]",True,0,0,0,0,0,UAV,35.727367,-78.696236,-0.274,-0.002626692410558462,0.12749461829662323,-0.07481443136930466,0.0,-0.01,0.0,0,0.01,"                                  0
time     2023-12-15 16:48:27.962797
type                            UAV
lat                       35.727367
lon                      -78.696239
alt                          -0.274
pitch                     -0.002627
yaw                        0.127495
roll                      -0.074814
vel_x                           0.0
vel_y                         -0.01
vel_z                           0.0
heading                           0
speed                          0.01",71.46681294378601,71.27988277103711
0,14.6,3686,33.896263,31.595976,12.274,ZC,True,[ 0.73155117  0.94019375  0.93934092 -1.44394232],0.29178587,[-4.81224953 -4.81943322 -4.8162098  -4.07635864],-4.631062798540928,-18.522429,[69.89676144 69.68811886 69.68897168 72.07225493],70.33652672699372,171.30997599999998,[ 274  675 1076 1477],[ 574  975 1376 1777],574,1.1656579931199222,0.4718500892485343,-1.9759379315330634,-0.4718500892485343,Flight,"[ 6.7470836e-07+7.5255934e-07j  2.7680343e-07+1.2110151e-07j
 -2.0760257e-07+4.4980558e-07j ...  1.5768777e-01+5.9235590e-03j
 -2.5656218e-02+1.1653779e-02j -3.5615675e-02+1.8096872e-02j]",True,0,0,0,0,0,UAV,35.727367,-78.696236,-0.274,-0.002626692410558462,0.12749461829662323,-0.07481443136930466,0.0,-0.01,0.0,0,0.01,"                                  0
time     2023-12-15 16:48:27.962797
type                            UAV
lat                       35.727367
lon                      -78.696239
alt                          -0.274
pitch                     -0.002627
yaw                        0.127495
roll                      -0.074814
vel_x                           0.0
vel_y                         -0.01
vel_z                           0.0
heading                           0
speed                          0.01",71.43129990918052,71.09097770908862
0,15.0,3686,33.896263,31.595976,12.274,ZC,True,[ 0.30490922  0.44575793  0.44098184 -1.84847227],-0.16420582,[-5.05985444 -5.03421614 -5.02544035 -4.29917545],-4.85467159656015,-80.93933,[70.32340338 70.18255467 70.18733076 72.47678488],70.79251842325885,171.30997599999998,[ 274  675 1076 1477],[ 574  975 1376 1777],574,1.1656579931199222,0.4718500892485343,-1.9759379315330634,-0.4718500892485343,Flight,"[ 2.7680343e-07-1.7300215e-07j  0.0000000e+00+6.9200858e-08j
 -6.9200858e-08-6.9200858e-08j ...  7.8434050e-02+8.4418684e-02j
 -5.5047344e-02-5.5244360e-02j -2.4414651e-02+3.3874165e-02j]",True,0,0,0,0,0,UAV,35.727367,-78.696236,-0.274,-0.002626692410558462,0.12749461829662323,-0.07481443136930466,0.0,-0.01,0.0,0,0.01,"                                  0
time     2023-12-15 16:48:27.962797
type                            UAV
lat                       35.727367
lon                      -78.696239
alt                          -0.274
pitch                     -0.002627
yaw                        0.127495
roll                      -0.074814
vel_x                           0.0
vel_y                         -0.01
vel_z                           0.0
heading                           0
speed                          0.01",71.39997659634756,71.03122667736702
0,15.400001,3686,33.896263,31.595976,12.274,ZC,True,[-0.37291751 -0.19207213 -0.12893723 -2.48289712],-0.794206,[-5.18704131 -5.25115681 -5.27534858 -4.48433732],-5.049471005086833,129.59016,[71.00123012 70.82038474 70.75724984 73.11120972],71.42251860260544,171.30997599999998,[ 274  675 1076 1477],[ 574  975 1376 1777],574,1.1656579931199222,0.4718500892485343,-1.9759379315330634,-0.4718500892485343,Flight,"[-2.2490279e-07-1.2456154e-06j  0.0000000e+00-2.9410364e-07j
  2.0760257e-07-6.2280770e-07j ... -8.6002894e-02-6.8674169e-02j
  5.3155031e-02-7.5895660e-02j  3.8942680e-02+9.8452754e-02j]",True,0,0,0,0,0,UAV,35.727367,-78.696236,-0.274,-0.002626692410558462,0.12749461829662323,-0.07481443136930466,0.0,-0.01,0.0,0,0.01,"                                  0
time     2023-12-15 16:48:27.962797
type                            UAV
lat                       35.727367
lon                      -78.696239
alt                          -0.274
pitch                     -0.002627
yaw                        0.127495
roll                      -0.074814
vel_x                           0.0
vel_y                         -0.01
vel_z                           0.0
heading                           0
speed                          0.01",71.38994489517736,71.10954711425772
0,15.8,3686,33.896263,31.595976,12.274,ZC,True,[-0.56556581 -0.44306088 -0.46211634 -3.02474769],-1.1238726,[-5.73836042 -5.88000307 -5.85846336 -4.91808558],-5.5987281080993725,-153.81491,[71.19387841 71.07137348 71.09042895 73.65306029],71.75218528322142,171.30997599999998,[ 274  675 1076 1477],[ 574  975 1376 1777],574,1.1656579931199222,0.4718500892485343,-1.9759379315330634,-0.4718500892485343,Flight,"[ 4.8440603e-07-1.73002149e-07j  5.1900645e-07+3.46004292e-08j
  6.2280770e-07-1.45321803e-06j ... -5.4094656e-03-1.22804396e-01j
  6.6777237e-02+6.09267205e-02j -1.4313021e-02+4.62972410e-02j]",True,0,0,0,0,0,UAV,35.727367,-78.696236,-0.274,-0.002626692410558462,0.12749461829662323,-0.07481443136930466,0.0,-0.01,0.0,0,0.01,"                                  0
time     2023-12-15 16:48:27.962797
type                            UAV
lat                       35.727367
lon                      -78.696239
alt                          -0.274
pitch                     -0.002627
yaw                        0.127495
roll                      -0.074814
vel_x                           0.0
vel_y                         -0.01
vel_z                           0.0
heading                           0
speed                          0.01",71.38110889116845,71.23815626378325
0,16.2,3686,33.896263,31.595976,12.274,ZC,True,[-1.15142565 -1.07229535 -1.14130506 -3.68352366],-1.7621374,[-6.68118874 -6.73089084 -6.80776514 -5.89745552],-6.529325062638275,-166.52666,[71.77973826 71.70060796 71.76961767 74.31183626],72.39045003585807,171.30997599999998,[ 274  675 1076 1477],[ 574  975 1376 1777],574,1.1656579931199222,0.4718500892485343,-1.9759379315330634,-0.4718500892485343,Flight,"[ 3.8060472e-07-1.1418142e-06j -2.7680343e-07+8.6501075e-07j
  5.5360687e-07-5.5360687e-07j ...  6.8090238e-02+3.6156617e-02j
 -5.8508217e-02+2.1307152e-02j  1.6235283e-02+4.4272635e-03j]",True,0,0,0,0,0,UAV,35.727367,-78.696236,-0.274,-0.002626692410558462,0.12749461829662323,-0.07481443136930466,0.0,-0.01,0.0,0,0.01,"                                  0
time     2023-12-15 16:48:27.962797
type                            UAV
lat                       35.727367
lon                      -78.696239
alt                          -0.274
pitch                     -0.002627
yaw                        0.127495
roll                      -0.074814
vel_x                           0.0
vel_y                         -0.01
vel_z                           0.0
heading                           0
speed                          0.01",71.38327816912413,71.4687319339529
0,16.6,3686,33.896263,31.595976,12.274,ZC,True,[-1.37079963 -1.22291852 -1.28489748 -3.68848857],-1.8917761,[-7.14064479 -7.08234816 -6.98344578 -5.97331336],-6.794938020842249,146.06424,[71.99911223 71.85123112 71.91321009 74.31680117],72.52008865336504,176.66341275,[ 275  676 1077 1478],[ 575  976 1377 1778],575,1.1656579931199222,0.4718500892485343,-1.9759379315330634,-0.4718500892485343,Flight,"[-3.46004292e-08+1.1418142e-06j  0.00000000e+00+2.4220301e-07j
 -6.92008584e-08+1.1072137e-06j ...  1.37118045e-02+1.4797272e-01j
  1.13758603e-02+7.6783940e-02j -3.57083348e-03-5.7496328e-02j]",True,0,0,0,0,0,UAV,35.727367,-78.696236,-0.274,-0.002626692410558462,0.12749461829662323,-0.07481443136930466,0.0,-0.01,0.0,0,0.01,"                                  0
time     2023-12-15 16:48:27.962797
type                            UAV
lat                       35.727367
lon                      -78.696239
alt                          -0.274
pitch                     -0.002627
yaw                        0.127495
roll                      -0.074814
vel_x                           0.0
vel_y                         -0.01
vel_z                           0.0
heading                           0
speed                          0.01",71.36985908535286,71.6790886086401
0,17.0,3686,33.896263,31.595976,12.274,ZC,True,[-1.1519723  -0.65874158 -0.62104638 -2.71297226],-1.2861831,[-5.73723879 -5.73566661 -5.75376796 -4.97892718],-5.551400136055947,145.4729,[71.7802849  71.28705418 71.24935898 73.34128487],71.91449573288904,176.66341275,[ 275  676 1077 1478],[ 575  976 1377 1778],575,1.1656579931199222,0.4718500892485343,-1.9759379315330634,-0.4718500892485343,Flight,"[ 6.9200858e-08-3.4600430e-07j -2.7680343e-07-3.9790493e-07j
 -7.9580985e-07+6.9200860e-07j ...  9.5676072e-03+3.4544654e-02j
  2.8088628e-03-4.5842800e-02j -4.3244135e-02-2.7557962e-02j]",True,0,0,0,0,0,UAV,35.727367,-78.696236,-0.274,-0.002626692410558462,0.12749461829662323,-0.07481443136930466,0.0,-0.01,0.0,0,0.01,"                                  0
time     2023-12-15 16:48:27.962797
type                            UAV
lat                       35.727367
lon                      -78.696239
alt                          -0.274
pitch                     -0.002627
yaw                        0.127495
roll                      -0.074814
vel_x                           0.0
vel_y                         -0.01
vel_z                           0.0
heading                           0
speed                          0.01",71.35990879229624,71.72618531724564
0,17.4,3686,33.896263,31.595976,12.274,ZC,True,[-0.934128   -0.45294352 -0.39563929 -2.6247315 ],-1.1018605,[-5.41753893 -5.34136952 -5.33783117 -4.60691245],-5.175913018551279,-332.76056,[71.5624406  71.08125612 71.02395189 73.25304411],71.7301731803795,176.66341275,[ 275  676 1077 1478],[ 575  976 1377 1778],575,1.1656579931199222,0.4718500892485343,-1.9759379315330634,-0.4718500892485343,Flight,"[-3.1140385e-07+5.01706211e-07j -6.9200860e-07-1.03801284e-07j
  3.4600430e-07-3.46004299e-07j ... -1.4956552e-01-2.69971918e-02j
 -1.3504437e-01-6.74510077e-02j  1.2747611e-01+1.05716698e-01j]",True,0,0,0,0,0,UAV,35.727367,-78.696236,-0.274,-0.002626692410558462,0.12749461829662323,-0.07481443136930466,0.0,-0.01,0.0,0,0.01,"                                  0
time     2023-12-15 16:48:27.962797
type                            UAV
lat                       35.727367
lon                      -78.696239
alt                          -0.274
pitch                     -0.002627
yaw                        0.127495
roll                      -0.074814
vel_x                           0.0
vel_y                         -0.01
vel_z                           0.0
heading                           0
speed                          0.01",71.40003078369713,71.72698309698788
0,17.8,3686,33.896263,31.595976,12.274,ZC,True,[ 0.22511107  0.54944276  0.63899259 -1.68391942],-0.067593254,[-5.15874113 -5.06459803 -5.11491016 -4.36445746],-4.925676693629928,120.48529,[70.40320154 70.07886985 69.98932002 72.31223202],70.69590585601996,176.66341275,[ 275  676 1077 1478],[ 575  976 1377 1778],575,1.1656579931199222,0.4718500892485343,-1.9759379315330634,-0.4718500892485343,Flight,"[-4.3250537e-07-3.4600430e-07j -8.6501075e-08+2.7680343e-07j
  6.9200858e-08-1.0380129e-06j ...  1.5344492e-01-9.2505805e-02j
 -3.7891276e-02+5.6044739e-02j -2.9542590e-02-9.4293086e-03j]",True,0,0,0,0,0,UAV,35.727367,-78.696236,-0.274,-0.002626692410558462,0.12749461829662323,-0.07481443136930466,0.0,-0.01,0.0,0,0.01,"                                  0
time     2023-12-15 16:48:27.962797
type                            UAV
lat                       35.727367
lon                      -78.696239
alt                          -0.274
pitch                     -0.002627
yaw                        0.127495
roll                      -0.074814
vel_x                           0.0
vel_y                         -0.01
vel_z                           0.0
heading                           0
speed                          0.01",71.38996980745857,71.52072481062422
0,18.2,3686,33.896263,31.595976,12.274,ZC,True,[ 0.47409033  0.83734492  0.95549324 -1.31878215],0.23703659,[-4.84002954 -4.88575341 -4.89663142 -4.19277565],-4.703797502739796,-46.59292,[70.15422227 69.79096769 69.67281937 71.94709476],70.39127602171594,176.66341275,[ 275  676 1077 1478],[ 575  976 1377 1778],575,1.1656579931199222,0.4718500892485343,-1.9759379315330634,-0.4718500892485343,Flight,"[ 7.2660902e-07+1.3840172e-07j  4.8440603e-07+9.5151182e-07j
 -8.0446000e-07+2.7680343e-07j ...  5.6819491e-02+1.3978432e-01j
 -1.6592454e-02+3.6119942e-02j -1.6787436e-03-5.9509899e-02j]",True,0,0,0,0,0,UAV,35.727367,-78.696236,-0.274,-0.002626692410558462,0.12749461829662323,-0.07481443136930466,0.0,-0.01,0.0,0,0.01,"                                  0
time     2023-12-15 16:48:27.962797
type                            UAV
lat                       35.727367
lon                      -78.696239
alt                          -0.274
pitch                     -0.002627
yaw                        0.127495
roll                      -0.074814
vel_x                           0.0
vel_y                         -0.01
vel_z                           0.0
heading                           0
speed                          0.01",71.3946138516307,71.29479751423165
0,18.6,3686,33.896263,31.595976,12.274,ZC,True,[ 0.15665345  0.40240822  0.51418409 -1.76270178],-0.17236401,[-4.77334511 -4.82916334 -4.85232299 -4.15643477],-4.652816550829136,-327.93832,[70.47165915 70.22590439 70.11412851 72.39101438],70.80067660930854,176.66341275,[ 275  676 1077 1478],[ 575  976 1377 1778],575,1.1656579931199222,0.4718500892485343,-1.9759379315330634,-0.4718500892485343,Flight,"[ 2.4220301e-07-8.3041027e-07j -6.2280770e-07-2.7680343e-07j
 -4.8440603e-07-1.7300215e-07j ... -3.3927936e-02-6.3874848e-02j
 -9.7851399e-03-4.1679401e-02j  4.9750227e-03+3.7445519e-02j]",True,0,0,0,0,0,UAV,35.727367,-78.696236,-0.274,-0.002626692410558462,0.12749461829662323,-0.07481443136930466,0.0,-0.01,0.0,0,0.01,"                                  0
time     2023-12-15 16:48:27.962797
type                            UAV
lat                       35.727367
lon                      -78.696239
alt                          -0.274
pitch                     -0.002627
yaw                        0.127495
roll                      -0.074814
vel_x                           0.0
vel_y                         -0.01
vel_z                           0.0
heading                           0
speed                          0.01",71.44102883986218,71.1959601955139
0,19.0,3686,33.896263,31.595976,12.274,ZC,True,[-0.21293806  0.04408788  0.1436066  -2.30274037],-0.58199596,[-5.06958929 -5.0686157  -5.09702443 -4.35099252],-4.896555486123918,53.733337,[70.84125066 70.58422472 70.48470601 72.93105298],71.21030859158296,176.66341275,[ 275  676 1077 1478],[ 575  976 1377 1778],575,1.1656579931199222,0.4718500892485343,-1.9759379315330634,-0.4718500892485343,Flight,"[ 4.1520514e-07-2.0760257e-07j -3.4600430e-07+2.7680343e-07j
  4.4980558e-07+5.5360687e-07j ... -5.8644270e-03-5.2014720e-02j
  2.1583747e-04-5.9433538e-02j  1.7395297e-02+6.1982345e-02j]",True,0,0,0,0,0,UAV,35.727367,-78.696236,-0.274,-0.002626692410558462,0.12749461829662323,-0.07481443136930466,0.0,-0.01,0.0,0,0.01,"                                  0
time     2023-12-15 16:48:27.962797
type                            UAV
lat                       35.727367
lon                      -78.696239
alt                          -0.274
pitch                     -0.002627
yaw                        0.127495
roll                      -0.074814
vel_x                           0.0
vel_y                         -0.01
vel_z                           0.0
heading                           0
speed                          0.01",71.48280785669458,71.19883017991681
0,19.4,3686,33.896263,31.595976,12.274,ZC,True,[-0.44013551 -0.3587105  -0.38378592 -2.6722567 ],-0.96372217,[-5.61199431 -5.76706532 -5.72652929 -4.94864887],-5.51355944790428,-342.53635,[71.06844811 70.9870231  71.01209853 73.30056931],71.5920347619845,176.66341275,[ 275  676 1077 1478],[ 575  976 1377 1778],575,1.1656579931199222,0.4718500892485343,-1.9759379315330634,-0.4718500892485343,Flight,"[-7.6120944e-07-3.9790493e-07j -3.8060472e-07-1.7300215e-07j
  3.4600430e-07-1.5224189e-06j ...  2.9579526e-02+3.0484430e-02j
  8.8822693e-02-5.5641297e-02j -1.1362044e-01-1.3854807e-02j]",True,0,0,0,0,0,UAV,35.727367,-78.696236,-0.274,-0.002626692410558462,0.12749461829662323,-0.07481443136930466,0.0,-0.01,0.0,0,0.01,"                                  0
time     2023-12-15 16:48:27.962797
type                            UAV
lat                       35.727367
lon                      -78.696239
alt                          -0.274
pitch                     -0.002627
yaw                        0.127495
roll                      -0.074814
vel_x                           0.0
vel_y                         -0.01
vel_z                           0.0
heading                           0
speed                          0.01",71.4997594726325,71.27747778692883
0,19.8,3686,33.896263,31.595976,12.274,ZC,True,[-1.23782489 -1.01315938 -0.96529727 -3.3995967 ],-1.6539695,[-6.13958511 -6.28062596 -6.29787323 -5.3704154 ],-6.022124925264259,-379.38516,[71.8661375  71.64147198 71.59360987 74.02790931],72.28228216399482,176.66341275,[ 275  676 1077 1478],[ 575  976 1377 1778],575,1.1656579931199222,0.4718500892485343,-1.9759379315330634,-0.4718500892485343,Flight,"[ 2.4220301e-07+1.7300215e-08j  1.5570193e-07+1.9030236e-07j
  1.7300215e-07-6.9200858e-08j ...  5.5759128e-02+6.6733293e-02j
 -1.0932488e-01+1.3264199e-01j  2.4934107e-02-8.4658101e-02j]",True,0,0,0,0,0,UAV,35.727367,-78.696236,-0.274,-0.002626692410558462,0.12749461829662323,-0.07481443136930466,0.0,-0.01,0.0,0,0.01,"                                  0
time     2023-12-15 16:48:27.962797
type                            UAV
lat                       35.727367
lon                      -78.696239
alt                          -0.274
pitch                     -0.002627
yaw                        0.127495
roll                      -0.074814
vel_x                           0.0
vel_y                         -0.01
vel_z                           0.0
heading                           0
speed                          0.01",71.55276916070983,71.47845233996135
0,20.2,3686,33.896263,31.595976,12.274,ZC,True,[-1.59000298 -1.24987393 -1.23261312 -3.55800067],-1.9076227,[-7.32017476 -7.11043589 -6.98652329 -6.17050242],-6.89690908982368,-566.76447,[72.21831558 71.87818653 71.86092573 74.18631328],72.53593527972579,176.66341275,[ 275  676 1077 1478],[ 575  976 1377 1778],575,1.1656579931199222,0.4718500892485343,-1.9759379315330634,-0.4718500892485343,Flight,"[-4.84406030e-07-2.2490279e-07j  2.59503224e-07-1.7300215e-07j
 -1.03801284e-07+6.9200858e-08j ... -4.60898457e-03+7.8805521e-02j
 -4.59756665e-02-6.7518242e-03j  3.03651635e-02-1.3550220e-02j]",True,0,0,0,0,0,UAV,35.727367,-78.696236,-0.274,-0.002626692410558462,0.12749461829662323,-0.07481443136930466,0.0,-0.01,0.0,0,0.01,"                                  0
time     2023-12-15 16:48:27.962797
type                            UAV
lat                       35.727367
lon                      -78.696239
alt                          -0.274
pitch                     -0.002627
yaw                        0.127495
roll                      -0.074814
vel_x                           0.0
vel_y                         -0.01
vel_z                           0.0
heading                           0
speed                          0.01",71.5673176850966,71.68996044351073
0,20.6,3686,33.896263,31.595976,12.274,ZC,True,[-1.23226963 -0.93758653 -0.85397523 -3.0924475 ],-1.5290698,[-5.93084244 -5.83599949 -5.84046175 -5.09947733],-5.676695250573576,-245.61394,[71.86058224 71.56589913 71.48228784 73.7207601 ],72.15738232731549,182.01684949999998,[ 276  677 1078 1479],[ 576  977 1378 1779],576,1.1656579931199222,0.4718500892485343,-1.9759379315330634,-0.4718500892485343,Flight,"[ 5.1900645e-07+2.0760257e-07j  6.9200858e-08-4.1520514e-07j
 -9.6881206e-07+4.8440603e-07j ... -1.1668749e-01-2.1628484e-01j
 -4.6432462e-02-2.6565067e-02j  6.0214452e-02+9.1524087e-02j]",True,0,0,0,0,0,UAV,35.727367,-78.696236,-0.274,-0.002626692410558462,0.12749461829662323,-0.07481443136930466,0.0,-0.01,0.0,0,0.01,"                                  0
time     2023-12-15 16:48:27.962797
type                            UAV
lat                       35.727367
lon                      -78.696239
alt                          -0.274
pitch                     -0.002627
yaw                        0.127495
roll                      -0.074814
vel_x                           0.0
vel_y                         -0.01
vel_z                           0.0
heading                           0
speed                          0.01",71.53104705249164,71.78344889226793
0,21.0,3686,33.896263,31.595976,12.274,ZC,True,[-0.25825718  0.20862191  0.27360441 -1.98281045],-0.43971032,[-5.13567916 -5.14272618 -5.16267147 -4.44319195],-4.971067189768183,-214.4458,[70.88656979 70.4196907  70.35470819 72.61112306],71.06802293317897,182.01684949999998,[ 276  677 1078 1479],[ 576  977 1378 1779],576,1.1656579931199222,0.4718500892485343,-1.9759379315330634,-0.4718500892485343,Flight,"[ 9.6881206e-07+2.07602568e-07j  4.1520514e-07+6.92008584e-08j
  7.5255934e-07-1.03801284e-07j ... -4.0749930e-02-9.89228021e-03j
  3.1110214e-02-9.29270685e-03j -1.7487472e-02-1.31846489e-02j]",True,0,0,0,0,0,UAV,35.727367,-78.696236,-0.274,-0.002626692410558462,0.12749461829662323,-0.07481443136930466,0.0,-0.01,0.0,0,0.01,"                                  0
time     2023-12-15 16:48:27.962797
type                            UAV
lat                       35.727367
lon                      -78.696239
alt                          -0.274
pitch                     -0.002627
yaw                        0.127495
roll                      -0.074814
vel_x                           0.0
vel_y                         -0.01
vel_z                           0.0
heading                           0
speed                          0.01",71.44639977252065,71.64035871448513
0,21.4,3686,33.896263,31.595976,12.274,ZC,True,[-0.09046447  0.34760471  0.42929064 -1.81126415],-0.2812083,[-5.08906945 -5.00800124 -4.95867177 -4.24985604],-4.8263996212036675,294.13205,[70.71877708 70.28070789 70.19902196 72.43957676],70.90952092241677,182.01684949999998,[ 276  677 1078 1479],[ 576  977 1378 1779],576,1.1656579931199222,0.4718500892485343,-1.9759379315330634,-0.4718500892485343,Flight,"[-3.4600430e-07+9.6881206e-07j  2.0760257e-07-2.0760257e-07j
 -8.9961117e-07+1.0380129e-06j ...  7.5068399e-02-9.4345473e-02j
  1.0430922e-01+1.4883859e-02j -2.4657689e-02+8.0258464e-03j]",True,0,0,0,0,0,UAV,35.727367,-78.696236,-0.274,-0.002626692410558462,0.12749461829662323,-0.07481443136930466,0.0,-0.01,0.0,0,0.01,"                                  0
time     2023-12-15 16:48:27.962797
type                            UAV
lat                       35.727367
lon                      -78.696239
alt                          -0.274
pitch                     -0.002627
yaw                        0.127495
roll                      -0.074814
vel_x                           0.0
vel_y                         -0.01
vel_z                           0.0
heading                           0
speed                          0.01",71.36433454672438,71.49418708140104
