index,time,center_freq,dist,h_dist,v_dist,wav_type,detected,power,avgPower,snr,avgSnr,freq_offset,path_loss,avg_pl,est_dist,peaks,orig_peaks,start_point,aod_theta,aod_phi,aoa_theta,aoa_phi,stage,corr,save_corr,rsrp,shadowing,multipath,delay,doppler,type,lat,lon,alt,pitch,yaw,roll,vel_x,vel_y,vel_z,heading,speed,vehicle,avg_pl_rolling,avg_pl_ewma
0,3.0000002,3620,33.2453,31.076143,11.812,ZC,True,[ 1.40962285  1.29550472  1.30170003 -1.40806154],0.6496915,[-6.37509179 -6.23463403 -6.24979261 -5.28959133],-6.037277441822522,-408.50943,[69.21868975 69.33280789 69.32661257 72.03637414],69.97862108847609,69.59467775,[ 255  656 1057 1458],[ 555  956 1357 1758],555,1.1662537099336838,0.469027784523351,-1.9753421617235905,-0.469027784523351,Flight,"[-1.2283152e-06+2.0760257e-07j  2.4220301e-07+6.2280770e-07j
  1.3840172e-07-1.7300215e-07j ...  6.0311593e-02-6.0929693e-02j
 -5.8578596e-02+3.3933245e-02j -1.6082557e-02+1.7090882e-03j]",True,0,0,0,0,0,UAV,35.727367,-78.696236,0.188,-0.002953268587589264,0.06737003475427628,-0.06393025815486908,0.0,0.0,0.01,0,0.01,"                                  0
time     2023-12-15 16:36:05.100441
type                            UAV
lat                       35.727369
lon                      -78.696233
alt                           0.188
pitch                     -0.002953
yaw                         0.06737
roll                       -0.06393
vel_x                           0.0
vel_y                           0.0
vel_z                          0.01
heading                           0
speed                          0.01",,69.97862108847609
0,3.4,3620,33.247078,31.076143,11.817,ZC,True,[ 1.39225707  1.25939198  1.25192244 -1.48663812],0.6042333,[-6.72190636 -6.44587161 -6.47531038 -5.52092595],-6.291003573596166,-391.0489,[69.23605553 69.36892062 69.37639017 72.11495072],70.02407925994365,69.59467775,[ 255  656 1057 1458],[ 555  956 1357 1758],555,1.1662537099336838,0.4690761141434345,-1.9753421617235905,-0.4690761141434345,Flight,"[-1.0034124e-06-5.1900645e-07j  3.4600429e-08-6.9200858e-08j
 -3.4600430e-07+3.9790493e-07j ...  6.7868223e-03+4.9280908e-02j
 -2.7202720e-02-7.2743282e-02j  9.2166206e-03+2.8656922e-02j]",True,0,0,0,0,0,UAV,35.727367,-78.696236,0.183,-0.0029475451447069645,0.06736545264720917,-0.06386323273181915,0.0,0.0,0.01,0,0.01,"                                  0
time     2023-12-15 16:36:05.302974
type                            UAV
lat                       35.727369
lon                      -78.696233
alt                           0.183
pitch                     -0.002948
yaw                        0.067365
roll                      -0.063863
vel_x                           0.0
vel_y                           0.0
vel_z                          0.01
heading                           0
speed                          0.01",,70.0038756281803
0,3.8000002,3620,33.24459,31.076143,11.81,ZC,True,[ 1.43471368  1.36388231  1.36566989 -1.31652676],0.7119348,[-6.81159337 -6.49574459 -6.54363963 -5.57289447],-6.3559680148057796,-225.73529,[69.19359893 69.26443029 69.26264272 71.94483937],69.91637782725206,69.59467775,[ 255  656 1057 1458],[ 555  956 1357 1758],555,1.1662537099336838,0.46900844833766353,-1.9753421617235905,-0.46900844833766353,Flight,"[-5.1900645e-07-4.8440603e-07j  1.3840172e-07+3.2005397e-07j
 -5.1900642e-08+1.1764146e-06j ... -1.0196684e-01-1.6290401e-03j
  3.7284315e-02+6.6913545e-02j  1.3856227e-02-1.8280154e-02j]",True,0,0,0,0,0,UAV,35.727367,-78.696236,0.19,-0.0027938580606132746,0.06752723455429077,-0.06398565322160721,0.0,0.0,0.01,0,0.01,"                                  0
time     2023-12-15 16:36:05.707987
type                            UAV
lat                       35.727369
lon                      -78.696233
alt                            0.19
pitch                     -0.002794
yaw                        0.067527
roll                      -0.063986
vel_x                           0.0
vel_y                           0.0
vel_z                          0.01
heading                           0
speed                          0.01",,69.9680158737015
0,4.2000003,3620,33.249565,31.076143,11.824,ZC,True,[ 1.3804735   1.38742064  1.37059638 -1.3076472 ],0.7077108,[-6.82983609 -6.60574774 -6.62370149 -5.70235602],-6.44041033498639,-418.5715,[69.2478391  69.24089197 69.25771623 71.93595981],69.92060177555132,69.59467775,[ 255  656 1057 1458],[ 555  956 1357 1758],555,1.1662537099336838,0.46914374956041627,-1.9753421617235905,-0.46914374956041627,Flight,"[ 1.3840172e-07-1.3840172e-07j  8.9961117e-07+5.5360687e-07j
  0.0000000e+00+9.6881206e-07j ...  5.5535834e-02-8.7566562e-02j
  6.9214314e-02-7.4079655e-02j -4.4526480e-02+5.8228493e-02j]",True,0,0,0,0,0,UAV,35.727367,-78.696236,0.176,-0.002858080668374896,0.06753844767808914,-0.0640348419547081,0.0,0.0,0.01,0,0.01,"                                  0
time     2023-12-15 16:36:06.113074
type                            UAV
lat                       35.727369
lon                      -78.696233
alt                           0.176
pitch                     -0.002858
yaw                        0.067538
roll                      -0.064035
vel_x                           0.0
vel_y                           0.0
vel_z                          0.01
heading                           0
speed                          0.01",,69.95195418733626
0,4.6,3620,33.256683,31.076143,11.844,ZC,True,[ 1.20905931  1.28983425  1.31016432 -1.39902991],0.602507,[-6.94207455 -6.51644976 -6.55754757 -5.58247305],-6.399636235994494,-70.20587,[69.4192533  69.33847835 69.31814828 72.02734251],70.0258056108413,69.59467775,[ 255  656 1057 1458],[ 555  956 1357 1758],555,1.1662537099336838,0.46933682619558104,-1.9753421617235905,-0.46933682619558104,Flight,"[ 1.3840172e-07+8.6501075e-07j -2.2490279e-07+8.3041027e-07j
 -1.7300215e-07-3.4600430e-07j ... -1.0441484e-01-1.1139262e-03j
 -4.8317425e-03+3.7031457e-02j  4.0558796e-02+5.2182637e-03j]",True,0,0,0,0,0,UAV,35.727367,-78.696236,0.156,-0.002992556430399418,0.06746848672628403,-0.06404940038919449,0.0,0.0,0.01,0,0.01,"                                  0
time     2023-12-15 16:36:06.518349
type                            UAV
lat                       35.727369
lon                      -78.696233
alt                           0.156
pitch                     -0.002993
yaw                        0.067468
roll                      -0.064049
vel_x                           0.0
vel_y                           0.0
vel_z                          0.01
heading                           0
speed                          0.01",,69.97392331617522
0,5.0,3620,33.259533,31.076143,11.852,ZC,True,[ 1.37336758  1.37429539  1.35529503 -1.26307683],0.7099703,[-7.08493138 -6.84878293 -6.88669266 -5.89291167],-6.67832965886098,-470.3819,[69.25494503 69.25401722 69.27301758 71.89138944],69.9183423148324,69.59467775,[ 255  656 1057 1458],[ 555  956 1357 1758],555,1.1662537099336838,0.46941398744075363,-1.9753421617235905,-0.46941398744075363,Flight,"[-3.4600430e-07+7.2660902e-07j -5.1900645e-07-6.2280770e-07j
  3.4600430e-07+2.2490279e-07j ...  5.1039025e-02+1.9847499e-03j
 -8.8114664e-03-2.8762644e-02j -1.7365679e-02+1.4404643e-02j]",True,0,0,0,0,0,UAV,35.727367,-78.696236,0.148,-0.0031037977896630764,0.06748547405004501,-0.06405088305473328,0.0,0.0,0.01,0,0.01,"                                  0
time     2023-12-15 16:36:06.923489
type                            UAV
lat                       35.727369
lon                      -78.696233
alt                           0.148
pitch                     -0.003104
yaw                        0.067485
roll                      -0.064051
vel_x                           0.0
vel_y                           0.0
vel_z                          0.01
heading                           0
speed                          0.01",,69.95885777456742
0,5.4,3620,33.265953,31.076143,11.87,ZC,True,[ 1.3368237   1.33397612  1.30451734 -1.36464627],0.6526677,[-7.29057269 -6.94044657 -6.97352858 -5.97121017],-6.793939502814953,-160.34555,[69.2914889  69.29433648 69.32379527 71.99295887],69.97564488170404,69.59467775,[ 255  656 1057 1458],[ 555  956 1357 1758],555,1.1662537099336838,0.4695874552838724,-1.9753421617235905,-0.4695874552838724,Landing,"[ 8.9961117e-07+4.3250537e-07j -2.7680343e-07-1.1764146e-06j
 -6.2280770e-07-3.9790493e-07j ... -3.0583320e-03-1.0667333e-01j
 -1.1680837e-01+4.0882796e-02j  1.7639628e-02+3.6836863e-02j]",True,0,0,0,0,0,UAV,35.727367,-78.696236,0.13,-0.003264115657657385,0.0675518587231636,-0.06409904360771179,0.0,0.0,0.02,0,0.02,"                                  0
time     2023-12-15 16:36:07.328812
type                            UAV
lat                       35.727369
lon                      -78.696233
alt                            0.13
pitch                     -0.003264
yaw                        0.067552
roll                      -0.064099
vel_x                           0.0
vel_y                           0.0
vel_z                          0.02
heading                           0
speed                          0.02",,69.96310614354444
0,5.8,3620,33.26259,31.071777,11.872,ZC,True,[ 1.36146782  1.50343039  1.4867443  -1.19268564],0.7897392,[-7.20191127 -6.99983924 -7.10921376 -6.03289388],-6.835964536557928,-554.6859,[69.26684479 69.12488221 69.1415683  71.82099825],69.83857338621497,69.59467775,[ 255  656 1057 1458],[ 555  956 1357 1758],555,1.1665819753777855,0.4694406238684575,-1.9750138962794928,-0.4694406238684575,Flight,"[ 6.9200858e-08-1.9030236e-07j  0.0000000e+00-1.2110151e-07j
 -8.6501075e-07-8.9961117e-07j ...  1.3913621e-01-1.0029772e-01j
  8.5155377e-03+1.8637314e-02j -3.6530647e-02+6.9827229e-02j]",True,0,0,0,0,0,UAV,35.727367,-78.696236,0.128,-0.003241984872147441,0.06760646402835846,-0.06419534981250763,0.0,0.0,0.01,0,0.01,"                                  0
time     2023-12-15 16:36:07.734260
type                            UAV
lat                       35.727369
lon                      -78.696233
alt                           0.128
pitch                     -0.003242
yaw                        0.067606
roll                      -0.064195
vel_x                           0.0
vel_y                           0.0
vel_z                          0.01
heading                           0
speed                          0.01",,69.93317858011915
0,6.2000003,3620,33.262943,31.071777,11.873,ZC,True,[ 1.32527352  1.37565101  1.34202564 -1.29700329],0.6864867,[-7.59226564 -7.13722161 -7.23735063 -6.22443902],-7.047819223655459,-406.2746,[69.30303908 69.2526616  69.28628696 71.9253159 ],69.94182588409545,69.59467775,[ 255  656 1057 1458],[ 555  956 1357 1758],555,1.1665819753777855,0.4694502579005839,-1.9750138962794928,-0.4694502579005839,Flight,"[-5.53606867e-07+5.0170621e-07j  1.03801284e-07+6.7470836e-07j
 -3.80604718e-07+3.1140385e-07j ...  5.51009066e-02-1.3075808e-01j
  5.29739410e-02+1.9741578e-03j -1.70898438e-02+3.1983461e-02j]",True,0,0,0,0,0,UAV,35.727367,-78.696236,0.127,-0.0033481402788311243,0.06743592023849487,-0.06437371671199799,0.0,0.0,0.01,0,0.01,"                                  0
time     2023-12-15 16:36:08.139767
type                            UAV
lat                       35.727369
lon                      -78.696233
alt                           0.127
pitch                     -0.003348
yaw                        0.067436
roll                      -0.064374
vel_x                           0.0
vel_y                           0.0
vel_z                          0.01
heading                           0
speed                          0.01",,69.93517615023717
0,6.6,3620,33.262943,31.071777,11.873,ZC,True,[ 1.25348523  1.25111398  1.22687263 -1.43108608],0.5750964,[-7.58139959 -7.31801942 -7.32058227 -6.31572436],-7.133931411238457,25.551031,[69.37482738 69.37719862 69.40143997 72.05939868],70.05321616301548,69.59467775,[ 255  656 1057 1458],[ 555  956 1357 1758],555,1.1665819753777855,0.4694502579005839,-1.9750138962794928,-0.4694502579005839,Flight,"[-2.0760257e-07-5.88207286e-07j -4.7575591e-07+2.07602568e-07j
 -7.2660902e-07+8.47710510e-07j ... -2.4700692e-02+3.08201239e-02j
 -1.6111344e-02-1.16189625e-02j  4.0192481e-02-1.96534581e-02j]",True,0,0,0,0,0,UAV,35.727367,-78.696236,0.127,-0.0034176756162196398,0.06722711026668549,-0.0643627792596817,0.0,0.0,0.01,0,0.01,"                                  0
time     2023-12-15 16:36:08.545310
type                            UAV
lat                       35.727369
lon                      -78.696233
alt                           0.127
pitch                     -0.003418
yaw                        0.067227
roll                      -0.064363
vel_x                           0.0
vel_y                           0.0
vel_z                          0.01
heading                           0
speed                          0.01",69.95930881919267,69.96162396531285
0,7.0,3620,33.26223,31.071777,11.871,ZC,True,[ 1.33451201  1.39518326  1.42584865 -1.19091737],0.74115664,[-7.50691471 -7.36843216 -7.39866526 -6.33076728],-7.151194853492456,-331.14767,[69.29380059 69.23312935 69.20246396 71.81922998],69.88715596748892,69.59467775,[ 255  656 1057 1458],[ 555  956 1357 1758],555,1.1665819753777855,0.469430989203032,-1.9750138962794928,-0.469430989203032,Flight,"[-3.46004292e-08-1.03801284e-07j -7.95809854e-07+4.84406030e-07j
 -5.88207286e-07-1.64352045e-07j ... -1.51035022e-02-2.27600932e-02j
  1.09542675e-01-3.41887549e-02j -4.39776555e-02+2.94500869e-02j]",True,0,0,0,0,0,UAV,35.727367,-78.696236,0.129,-0.003502065548673272,0.06733991205692291,-0.06433892995119095,0.0,0.0,0.01,0,0.01,"                                  0
time     2023-12-15 16:36:08.950602
type                            UAV
lat                       35.727369
lon                      -78.696233
alt                           0.129
pitch                     -0.003502
yaw                         0.06734
roll                      -0.064339
vel_x                           0.0
vel_y                           0.0
vel_z                          0.01
heading                           0
speed                          0.01",69.95016230709396,69.94533079289435
0,7.4,3620,33.268932,31.080095,11.868,ZC,True,[ 1.31076601  1.4375609   1.49646773 -1.2374843 ],0.7518276,[-7.49035068 -7.2786063  -7.22901406 -6.14733728],-7.036327080919034,-230.09389,[69.3175466  69.19075171 69.13184487 71.8657969 ],69.87648501858645,69.59467775,[ 255  656 1057 1458],[ 555  956 1357 1758],555,1.1666964633927093,0.46930791520184495,-1.9748994092837184,-0.46930791520184495,Flight,"[ 4.6710579e-07-6.0550752e-07j -7.9580985e-07-1.7300215e-07j
 -6.2280770e-07+1.7300215e-07j ...  3.3296619e-02+3.4231588e-02j
 -4.5235772e-02+2.7027735e-02j -1.3730834e-03-2.6337223e-02j]",True,0,0,0,0,0,UAV,35.727367,-78.696236,0.132,-0.0034631798043847084,0.06744714081287384,-0.06435337662696838,0.0,-0.01,0.01,0,0.01414213562373095,"                                  0
time     2023-12-15 16:36:09.355998
type                            UAV
lat                       35.727369
lon                      -78.696233
alt                           0.132
pitch                     -0.003463
yaw                        0.067447
roll                      -0.064353
vel_x                           0.0
vel_y                         -0.01
vel_z                          0.01
heading                           0
speed                      0.014142",69.93540288295824,69.93054560785329
0,7.8,3620,33.271427,31.080095,11.875,ZC,True,[ 1.29796255  1.39664629  1.44693852 -1.18713571],0.73860294,[-7.29881817 -7.12087969 -7.13117595 -6.12965712],-6.920132734181466,12.102301,[69.33035005 69.23166631 69.18137409 71.81544831],69.88970969195289,74.9481145,[ 256  657 1058 1459],[ 556  957 1358 1759],556,1.1666964633927093,0.4693753626611932,-1.9748994092837184,-0.4693753626611932,Flight,"[ 3.4600429e-08-9.5151182e-07j  6.9200858e-08-1.3840172e-07j
 -6.9200860e-07-3.1140385e-07j ... -1.2926576e-01-1.1043426e-01j
 -7.3779635e-02-3.8462114e-02j  6.0976751e-02+6.4486533e-02j]",True,0,0,0,0,0,UAV,35.727367,-78.696236,0.125,-0.0032921754755079746,0.06756925582885742,-0.06445261090993881,0.0,-0.01,0.0,0,0.01,"                                  0
time     2023-12-15 16:36:09.761423
type                            UAV
lat                       35.727369
lon                      -78.696233
alt                           0.125
pitch                     -0.003292
yaw                        0.067569
roll                      -0.064453
vel_x                           0.0
vel_y                         -0.01
vel_z                           0.0
heading                           0
speed                          0.01",69.93273606942833,69.92190330928487
0,8.2,3620,33.27357,31.080095,11.881,ZC,True,[ 1.34244584  1.44533715  1.48108843 -1.11159006],0.78932035,[-7.28995258 -7.23597824 -7.23252866 -6.23461777],-6.998269315220554,-455.5738,[69.28586677 69.18297546 69.14722417 71.73990267],69.8389922651154,74.9481145,[ 256  657 1058 1459],[ 556  957 1358 1759],556,1.1666964633927093,0.46943315062995694,-1.9748994092837184,-0.46943315062995694,Flight,"[ 3.4600429e-08-3.8060472e-07j -2.2490279e-07+3.4600430e-07j
 -1.3840172e-07-5.3630663e-07j ... -2.1433201e-01-3.4703106e-02j
  1.0536678e-01+1.0458049e-02j  4.1412629e-02+2.9146086e-02j]",True,0,0,0,0,0,UAV,35.727367,-78.696236,0.119,-0.003333552274852991,0.06752768903970718,-0.0644165500998497,0.0,-0.01,0.0,0,0.01,"                                  0
time     2023-12-15 16:36:10.166803
type                            UAV
lat                       35.727369
lon                      -78.696233
alt                           0.119
pitch                     -0.003334
yaw                        0.067528
roll                      -0.064417
vel_x                           0.0
vel_y                         -0.01
vel_z                           0.0
heading                           0
speed                          0.01",69.92457511838472,69.90455825698339
0,8.6,3620,33.275715,31.080095,11.887,ZC,True,[ 1.26524879  1.40358731  1.46719659 -1.15790493],0.7445319,[-7.20548999 -6.91386678 -6.89349221 -5.8854058 ],-6.724563693305133,-478.97653,[69.36306381 69.2247253  69.16111601 71.78621753],69.88378066465391,74.9481145,[ 256  657 1058 1459],[ 556  957 1358 1759],556,1.1666964633927093,0.4694909163178409,-1.9748994092837184,-0.4694909163178409,Flight,"[-6.9200858e-08-7.6120944e-07j -6.2280770e-07-2.7680343e-07j
 -2.2490279e-07-3.1140385e-07j ...  3.6228258e-02+7.0655651e-02j
 -8.2373172e-02+7.2144128e-02j  1.9532496e-02-6.5676145e-02j]",True,0,0,0,0,0,UAV,35.727367,-78.696236,0.113,-0.0033865533769130707,0.06753472983837128,-0.06425973027944565,0.0,-0.01,0.0,0,0.01,"                                  0
time     2023-12-15 16:36:10.571732
type                            UAV
lat                       35.727369
lon                      -78.696233
alt                           0.113
pitch                     -0.003387
yaw                        0.067535
roll                       -0.06426
vel_x                           0.0
vel_y                         -0.01
vel_z                           0.0
heading                           0
speed                          0.01",69.910372623766,69.90025119732798
0,9.0,3620,33.27357,31.080095,11.881,ZC,True,[ 1.46233771  1.45701153  1.47612225 -1.15502931],0.81011057,[-7.19804115 -7.03735618 -7.02586412 -6.03789197],-6.824788353542931,-647.08563,[69.16597489 69.17130107 69.15219035 71.78334191],69.8182020567641,74.9481145,[ 256  657 1058 1459],[ 556  957 1358 1759],556,1.1666964633927093,0.46943315062995694,-1.9748994092837184,-0.46943315062995694,Flight,"[ 6.5740818e-07+1.3840172e-07j -1.0034124e-06-7.0065869e-07j
  1.2110151e-07-5.1900645e-07j ...  4.1057475e-02-1.7071851e-04j
  2.0781087e-02-1.8668143e-02j -3.7751146e-02-1.1628236e-02j]",True,0,0,0,0,0,UAV,35.727367,-78.696236,0.119,-0.003571696812286973,0.06761777400970459,-0.0641932487487793,0.01,-0.01,0.0,0,0.01414213562373095,"                                  0
time     2023-12-15 16:36:10.976913
type                            UAV
lat                       35.727369
lon                      -78.696233
alt                           0.119
pitch                     -0.003572
yaw                        0.067618
roll                      -0.064193
vel_x                          0.01
vel_y                         -0.01
vel_z                           0.0
heading                           0
speed                      0.014142",69.90035859795917,69.88336609586098
0,9.400001,3620,33.274284,31.080095,11.883,ZC,True,[ 1.53814933  1.49802589  1.49196802 -1.15938237],0.8421902,[-7.05949066 -6.92479533 -6.94454593 -5.92803583],-6.714216935116649,-585.66235,[69.09016328 69.13028671 69.13634459 71.78769498],69.7861223883511,74.9481145,[ 256  657 1058 1459],[ 556  957 1358 1759],556,1.1666964633927093,0.4694524083392229,-1.9748994092837184,-0.4694524083392229,Flight,"[ 2.7680343e-07+1.6608205e-06j  4.1520514e-07-1.3840172e-07j
  4.1520514e-07-4.8440603e-07j ...  7.8064762e-02-4.7726110e-02j
  5.7185099e-02+3.2643463e-02j -8.3163098e-02-1.4863168e-02j]",True,0,0,0,0,0,UAV,35.727367,-78.696236,0.117,-0.003465355606749654,0.06747403740882874,-0.06422877311706543,0.01,-0.01,0.0,0,0.01414213562373095,"                                  0
time     2023-12-15 16:36:11.382132
type                            UAV
lat                       35.727369
lon                      -78.696233
alt                           0.117
pitch                     -0.003465
yaw                        0.067474
roll                      -0.064229
vel_x                          0.01
vel_y                         -0.01
vel_z                           0.0
heading                           0
speed                      0.014142",69.88140634862387,69.86346931876952
0,9.8,3620,33.28563,31.088415,11.893,ZC,True,[ 1.27347884  1.38893287  1.40796515 -1.24698048],0.7058491,[-6.99946949 -6.97172706 -6.97062659 -6.00375444],-6.736394395556617,-278.33347,[69.35483376 69.23937974 69.22034746 71.87529308],69.92246350836267,74.9481145,[ 256  657 1058 1459],[ 556  957 1358 1759],556,1.1668108901551195,0.46945453786001967,-1.9747849835404583,-0.46945453786001967,Flight,"[-6.9200860e-07+6.9200858e-08j  0.0000000e+00+9.4286167e-07j
 -3.1140385e-07+7.4390925e-07j ...  8.9725561e-02-1.3390116e-01j
 -9.6472882e-02-7.9846129e-02j  2.9511398e-02+8.2522511e-02j]",True,0,0,0,0,0,UAV,35.727367,-78.696236,0.107,-0.0034533669240772724,0.06754107773303986,-0.06425676494836807,0.01,-0.01,0.0,0,0.01414213562373095,"                                  0
time     2023-12-15 16:36:11.787358
type                            UAV
lat                       35.727369
lon                      -78.696234
alt                           0.107
pitch                     -0.003453
yaw                        0.067541
roll                      -0.064257
vel_x                          0.01
vel_y                         -0.01
vel_z                           0.0
heading                           0
speed                      0.014142",69.88979536083863,69.87548460483963
0,10.2,3620,33.288486,31.088415,11.901,ZC,True,[ 1.47143022  1.52549948  1.60286401 -1.0854238 ],0.8785925,[-6.97245722 -6.78862257 -6.77940686 -5.77185299],-6.5780849101211105,-69.37789,[69.15688238 69.10281313 69.0254486  71.7137364 ],69.74972012784136,74.9481145,[ 256  657 1058 1459],[ 556  957 1358 1759],556,1.1668108901551195,0.4695315000103903,-1.9747849835404583,-0.4695315000103903,Flight,"[ 1.03801284e-07-3.46004292e-08j  0.00000000e+00-7.26609017e-07j
 -6.40107942e-07-1.03801284e-07j ... -5.91419600e-02+9.21236409e-04j
 -3.62016000e-02-5.55177741e-02j  7.31825903e-02+3.21061723e-02j]",True,0,0,0,0,0,UAV,35.727367,-78.696236,0.099,-0.003274544607847929,0.06774114817380905,-0.06412854790687561,0.01,-0.02,0.0,0,0.022360679774997897,"                                  0
time     2023-12-15 16:36:12.192697
type                            UAV
lat                       35.727369
lon                      -78.696234
alt                           0.099
pitch                     -0.003275
yaw                        0.067741
roll                      -0.064129
vel_x                          0.01
vel_y                         -0.02
vel_z                           0.0
heading                           0
speed                      0.022361",69.87058478521323,69.84996391757548
0,10.6,3620,33.285984,31.088415,11.894,ZC,True,[ 1.25473404  1.40931735  1.45376255 -1.09498183],0.75570804,[-6.75833458 -6.8046774  -6.82197941 -5.85941178],-6.561100793287393,-222.55553,[69.37357857 69.21899525 69.17455005 71.72329443],69.87260457684711,74.9481145,[ 256  657 1058 1459],[ 556  957 1358 1759],556,1.1668108901551195,0.4694641603006429,-1.9747849835404583,-0.4694641603006429,Flight,"[ 2.4220301e-07+3.4600430e-07j -2.0760257e-07-6.9200858e-08j
 -3.2870409e-07-6.6605827e-07j ...  3.4962609e-02-8.6503096e-02j
 -4.4874862e-02+3.3821695e-02j -6.8064928e-03+1.5554277e-03j]",True,0,0,0,0,0,UAV,35.727367,-78.696236,0.106,-0.0033563440665602684,0.06771335750818253,-0.06414222717285156,0.0,-0.01,0.0,0,0.01,"                                  0
time     2023-12-15 16:36:12.597961
type                            UAV
lat                       35.727369
lon                      -78.696234
alt                           0.106
pitch                     -0.003356
yaw                        0.067713
roll                      -0.064142
vel_x                           0.0
vel_y                         -0.01
vel_z                           0.0
heading                           0
speed                          0.01",69.8525236265964,69.85454486414794
0,11.0,3620,33.28063,31.088415,11.879,ZC,True,[ 1.27217092  1.32243104  1.39499111 -1.27430547],0.6788219,[-6.83683002 -6.63313494 -6.60158185 -5.64150418],-6.42826274905059,-180.41226,[69.35614168 69.30588157 69.2333215  71.90261808],69.94949070514457,74.9481145,[ 256  657 1058 1459],[ 556  957 1358 1759],556,1.1668108901551195,0.4693197588595996,-1.9747849835404583,-0.4693197588595996,Flight,"[ 6.9200860e-07+2.9410364e-07j -1.2110151e-07-2.5950322e-07j
  2.4220301e-07-1.5743195e-06j ... -2.0028269e-02+8.4096000e-02j
 -6.6285599e-03-5.5869315e-02j  1.3060486e-02-7.0501487e-03j]",True,0,0,0,0,0,UAV,35.727367,-78.696236,0.121,-0.0033349248114973307,0.06781874597072601,-0.06403877586126328,0.0,-0.01,0.0,0,0.01,"                                  0
time     2023-12-15 16:36:13.002998
type                            UAV
lat                       35.727369
lon                      -78.696234
alt                           0.121
pitch                     -0.003335
yaw                        0.067819
roll                      -0.064039
vel_x                           0.0
vel_y                         -0.01
vel_z                           0.0
heading                           0
speed                          0.01",69.85875710036194,69.87371080696833
0,11.400001,3620,33.27813,31.088415,11.872,ZC,True,[ 1.11641103  1.33476284  1.37507894 -1.2678113 ],0.63961035,[-6.63550619 -6.50053025 -6.46331774 -5.45187911],-6.262808322144508,-438.6463,[69.51190158 69.29354976 69.25323367 71.89612391],69.98870222951446,74.9481145,[ 256  657 1058 1459],[ 556  957 1358 1759],556,1.1668108901551195,0.469252323907016,-1.9747849835404583,-0.469252323907016,Flight,"[ 6.9200858e-08-2.7680343e-07j  8.4771051e-07-4.1520514e-07j
  1.0553131e-06+6.9200858e-08j ... -6.1404690e-02+9.1357417e-03j
 -8.3947286e-02-5.1892024e-02j  6.4850867e-02+3.0243646e-02j]",True,0,0,0,0,0,UAV,35.727367,-78.696236,0.128,-0.003369096666574478,0.06773363798856735,-0.06392990052700043,0.0,-0.01,0.0,0,0.01,"                                  0
time     2023-12-15 16:36:13.408038
type                            UAV
lat                       35.727369
lon                      -78.696234
alt                           0.128
pitch                     -0.003369
yaw                        0.067734
roll                       -0.06393
vel_x                           0.0
vel_y                         -0.01
vel_z                           0.0
heading                           0
speed                          0.01",69.86997882145475,69.89688005031854
0,11.8,3620,33.27599,31.088415,11.866,ZC,True,[ 1.30714249  1.35207015  1.34840625 -1.17203187],0.70889676,[-6.58219072 -6.53355645 -6.56175708 -5.61143015],-6.322233600500711,-404.31488,[69.32117012 69.27624246 69.27990636 71.80034448],69.91941585133151,74.9481145,[ 256  657 1058 1459],[ 556  957 1358 1759],556,1.1668108901551195,0.46919449837075655,-1.9747849835404583,-0.46919449837075655,Flight,"[ 5.5360687e-07-4.1520514e-07j -1.3840172e-06-3.1140385e-07j
 -2.7680343e-07+6.9200860e-07j ... -1.1817244e-01-5.0702155e-02j
 -2.8266007e-02+1.8937636e-02j  6.0579885e-02-2.6275964e-02j]",True,0,0,0,0,0,UAV,35.727367,-78.696236,0.134,-0.0034667267464101315,0.06783126294612885,-0.06392338126897812,0.0,-0.01,0.0,0,0.01,"                                  0
time     2023-12-15 16:36:13.813094
type                            UAV
lat                       35.727369
lon                      -78.696234
alt                           0.134
pitch                     -0.003467
yaw                        0.067831
roll                      -0.063923
vel_x                           0.0
vel_y                         -0.01
vel_z                           0.0
heading                           0
speed                          0.01",69.87294943739262,69.90141397408317
0,12.2,3620,33.2817,31.088415,11.882,ZC,True,[ 1.4615862   1.64731334  1.67316334 -0.92165103],0.965103,[-6.70336314 -6.38934604 -6.46048981 -5.48377248],-6.259242867580928,-348.1498,[69.1667264  68.98099927 68.95514926 71.54996363],69.66320964087791,74.9481145,[ 256  657 1058 1459],[ 556  957 1358 1759],556,1.1668108901551195,0.4693486502856706,-1.9747849835404583,-0.4693486502856706,Flight,"[ 3.6330451e-07+5.3630663e-07j -6.9200858e-08-6.9200860e-07j
 -1.3840172e-07-1.7300215e-07j ...  1.3896322e-01+3.3140533e-02j
 -4.3998528e-02-9.1986712e-03j -1.7213298e-02-9.0322001e-03j]",True,0,0,0,0,0,UAV,35.727367,-78.696236,0.118,-0.0034253743942826986,0.06783368438482285,-0.06393422931432724,0.01,0.0,0.0,0,0.01,"                                  0
time     2023-12-15 16:36:14.218189
type                            UAV
lat                       35.727369
lon                      -78.696234
alt                           0.118
pitch                     -0.003425
yaw                        0.067834
roll                      -0.063934
vel_x                          0.01
vel_y                           0.0
vel_z                           0.0
heading                           0
speed                          0.01",69.85537117496888,69.85354706234249
0,12.6,3620,33.28384,31.088415,11.888,ZC,True,[ 1.46453225  1.62467248  1.61544873 -0.89071413],0.95348483,[-6.44576782 -6.40384675 -6.40438101 -5.46204587],-6.179010360661513,-229.61348,[69.16378036 69.00364012 69.01286388 71.51902674],69.67482777393215,74.9481145,[ 256  657 1058 1459],[ 556  957 1358 1759],556,1.1668108901551195,0.4694064164258675,-1.9747849835404583,-0.4694064164258675,Flight,"[-2.7680343e-07+6.92008584e-08j  1.7300215e-08+3.11403852e-07j
  1.0380129e-06-1.03801284e-07j ...  7.2059527e-02+1.10169247e-01j
  7.2046228e-02-6.61665760e-03j -8.0783285e-02-5.00200950e-02j]",True,0,0,0,0,0,UAV,35.727367,-78.696236,0.112,-0.003425853094086051,0.06782404333353043,-0.06394035369157791,0.01,0.0,0.0,0,0.01,"                                  0
time     2023-12-15 16:36:14.623276
type                            UAV
lat                       35.727369
lon                      -78.696234
alt                           0.112
pitch                     -0.003426
yaw                        0.067824
roll                       -0.06394
vel_x                          0.01
vel_y                           0.0
vel_z                           0.0
heading                           0
speed                          0.01",69.8344758858967,69.81766765609605
0,13.0,3620,33.285984,31.088415,11.894,ZC,True,[ 1.1627336   1.42973826  1.45349798 -1.12413479],0.73045874,[-6.47201057 -6.30484149 -6.31172605 -5.40756866],-6.124036689967541,-115.7569,[69.465579   69.19857435 69.17481462 71.75244739],69.89785384145435,74.9481145,[ 256  657 1058 1459],[ 556  957 1358 1759],556,1.1668108901551195,0.4694641603006429,-1.9747849835404583,-0.4694641603006429,Flight,"[-2.5085311e-07-4.49805583e-07j  1.5570193e-07-9.86112241e-07j
 -5.5360687e-07+7.74184628e-07j ... -3.5198256e-02+5.49856015e-02j
  7.2284448e-03+1.44737745e-02j -6.6836267e-03-2.28273571e-02j]",True,0,0,0,0,0,UAV,35.727367,-78.696236,0.106,-0.003381123533472419,0.06783034652471542,-0.06388229876756668,0.0,0.0,0.0,0,0.0,"                                  0
time     2023-12-15 16:36:15.028388
type                            UAV
lat                       35.727369
lon                      -78.696234
alt                           0.106
pitch                     -0.003381
yaw                         0.06783
roll                      -0.063882
vel_x                           0.0
vel_y                           0.0
vel_z                           0.0
heading                           0
speed                           0.0",69.84244106436572,69.83375350967701
0,13.400001,3620,33.283127,31.088415,11.886,ZC,True,[ 1.32434443  1.4784977   1.50661216 -1.0081001 ],0.82533854,[-6.41690731 -6.34319797 -6.38360814 -5.44816141],-6.147968706300841,-348.4433,[69.30396818 69.1498149  69.12170044 71.6364127 ],69.80297405499304,74.9481145,[ 256  657 1058 1459],[ 556  957 1358 1759],556,1.1668108901551195,0.46938716351421766,-1.9747849835404583,-0.46938716351421766,Flight,"[-3.2870409e-07-5.5360687e-07j -6.9200860e-07-1.3840172e-07j
 -3.7195463e-07+8.9961117e-07j ... -2.2582108e-02+1.2916811e-01j
  5.6259815e-02-3.9959934e-02j -1.3182988e-02-3.2989848e-02j]",True,0,0,0,0,0,UAV,35.727367,-78.696236,0.114,-0.0032095955684781075,0.06783697009086609,-0.06393985450267792,0.0,0.0,0.0,0,0.0,"                                  0
time     2023-12-15 16:36:15.433477
type                            UAV
lat                       35.727369
lon                      -78.696234
alt                           0.114
pitch                      -0.00321
yaw                        0.067837
roll                       -0.06394
vel_x                           0.0
vel_y                           0.0
vel_z                           0.0
heading                           0
speed                           0.0",69.84412623102992,69.82758269863461
0,13.8,3620,33.2817,31.088415,11.882,ZC,True,[ 1.6797468   1.79132956  1.80409402 -0.65087983],1.1560726,[-6.39792212 -6.24308461 -6.27722976 -5.38846735],-6.07667595995284,-115.90071,[68.94856581 68.83698305 68.82421859 71.27919243],69.47223997023039,74.9481145,[ 256  657 1058 1459],[ 556  957 1358 1759],556,1.1668108901551195,0.4693486502856706,-1.9747849835404583,-0.4693486502856706,Flight,"[ 5.19006448e-07+1.3840172e-07j -7.61209435e-07+4.8440603e-07j
 -5.53606867e-07-5.1900645e-07j ...  1.02110185e-01-6.6765539e-02j
  8.52769241e-02-1.5819108e-02j -4.80657406e-02-1.6845427e-02j]",True,0,0,0,0,0,UAV,35.727367,-78.696236,0.118,-0.0031056166626513004,0.06788622587919235,-0.06388989090919495,0.0,0.0,0.0,0,0.0,"                                  0
time     2023-12-15 16:36:15.838589
type                            UAV
lat                       35.727369
lon                      -78.696234
alt                           0.118
pitch                     -0.003106
yaw                        0.067886
roll                       -0.06389
vel_x                           0.0
vel_y                           0.0
vel_z                           0.0
heading                           0
speed                           0.0",69.79910387721668,69.7563764199797
0,14.2,3620,33.28527,31.088415,11.892,ZC,True,[ 1.79215606  1.84758102  1.86808077 -0.63116257],1.2191638,[-6.30785968 -6.22204671 -6.23201618 -5.34065831],-6.0256452194965435,-286.3549,[68.83615655 68.78073159 68.76023183 71.25947517],69.40914878520307,74.9481145,[ 256  657 1058 1459],[ 556  957 1358 1759],556,1.1668108901551195,0.46944491481033956,-1.9747849835404583,-0.46944491481033956,Flight,"[ 2.0760257e-07+3.1140385e-07j -9.6881206e-07+7.6120944e-07j
  2.4220301e-07+1.3840172e-07j ... -4.6873685e-02-9.2950591e-04j
  7.1320184e-02+1.8379332e-02j -6.9276285e-03+2.7435303e-02j]",True,0,0,0,0,0,UAV,35.727367,-78.696236,0.108,-0.003027000930160284,0.06769406795501709,-0.06400622427463531,0.0,0.0,0.0,0,0.0,"                                  0
time     2023-12-15 16:36:16.243799
type                            UAV
lat                       35.727369
lon                      -78.696234
alt                           0.108
pitch                     -0.003027
yaw                        0.067694
roll                      -0.064006
vel_x                           0.0
vel_y                           0.0
vel_z                           0.0
heading                           0
speed                           0.0",69.76504674295286,69.6868232647297
0,14.6,3620,33.288128,31.088415,11.9,ZC,True,[ 1.44573894  1.58591483  1.62457513 -0.91939717],0.9342079,[-6.18347195 -6.15823004 -6.13763851 -5.2490465 ],-5.932096751055454,-459.15753,[69.18257366 69.04239778 69.00373748 71.54770978],69.69410467223966,74.9481145,[ 256  657 1058 1459],[ 556  957 1358 1759],556,1.1668108901551195,0.46952188190712096,-1.9747849835404583,-0.46952188190712096,Flight,"[ 7.6120944e-07-7.6120944e-07j -7.6120944e-07+4.1520514e-07j
 -6.9200858e-08+5.1900645e-07j ... -8.9071468e-02+9.9686133e-03j
  1.2661551e-02+1.6926469e-02j  6.4699342e-03-2.3041070e-02j]",True,0,0,0,0,0,UAV,35.727367,-78.696236,0.1,-0.0029889424331486225,0.06772232055664062,-0.06409043073654175,0.0,0.0,0.0,0,0.0,"                                  0
time     2023-12-15 16:36:16.649034
type                            UAV
lat                       35.727369
lon                      -78.696234
alt                             0.1
pitch                     -0.002989
yaw                        0.067722
roll                       -0.06409
vel_x                           0.0
vel_y                           0.0
vel_z                           0.0
heading                           0
speed                           0.0",69.7471967524921,69.6882813512554
0,15.0,3620,33.285984,31.088415,11.894,ZC,True,[ 1.53742357  1.60087262  1.64679155 -0.95476609],0.9575804,[-6.20604799 -6.0814775  -6.08330175 -5.1844555 ],-5.888820685939673,-332.73007,[69.09088904 69.02743999 68.98152105 71.58307869],69.67073219156191,74.9481145,[ 256  657 1058 1459],[ 556  957 1358 1759],556,1.1668108901551195,0.4694641603006429,-1.9747849835404583,-0.4694641603006429,Flight,"[ 5.5360687e-07-7.6120944e-07j -1.0034124e-06+6.9200858e-08j
 -7.6120944e-07+6.9200858e-08j ... -1.7839268e-01-4.0125668e-02j
  8.6508781e-02-2.6350822e-03j  1.4221953e-02+3.6378544e-02j]",True,0,0,0,0,0,UAV,35.727367,-78.696236,0.106,-0.0030334284529089928,0.06779440492391586,-0.06414374709129333,0.0,0.0,0.0,0,0.0,"                                  0
time     2023-12-15 16:36:17.054247
type                            UAV
lat                       35.727369
lon                      -78.696234
alt                           0.106
pitch                     -0.003033
yaw                        0.067794
roll                      -0.064144
vel_x                           0.0
vel_y                           0.0
vel_z                           0.0
heading                           0
speed                           0.0",69.71932090113384,69.68476803990166
0,15.400001,3620,33.31861,31.088415,11.985,ZC,True,[ 1.5412136   1.64630798  1.74352562 -0.74822487],1.0457056,[-6.15490357 -6.0741941  -6.11100331 -5.23604622],-5.8940368018745435,-504.24268,[69.08709901 68.98200463 68.88478699 71.37653747],69.58260702394377,74.9481145,[ 256  657 1058 1459],[ 556  957 1358 1759],556,1.1668108901551195,0.47033721562123043,-1.9747849835404583,-0.47033721562123043,Flight,"[-4.6710579e-07+4.4980558e-07j -2.7680343e-07-6.2280770e-07j
 -6.4010794e-07+1.7300215e-07j ...  8.5266948e-02+4.6914704e-02j
 -8.4332503e-02-8.2028016e-02j  1.6358867e-02+1.6815254e-02j]",True,0,0,0,0,0,UAV,35.727367,-78.696236,0.015,-0.003067692508921027,0.06779403239488602,-0.0641331747174263,0.0,0.0,0.0,0,0.0,"                                  0
time     2023-12-15 16:36:17.459368
type                            UAV
lat                       35.727369
lon                      -78.696234
alt                           0.015
pitch                     -0.003068
yaw                        0.067794
roll                      -0.064133
vel_x                           0.0
vel_y                           0.0
vel_z                           0.0
heading                           0
speed                           0.0",69.67871138057677,69.66431963581525
0,15.8,3620,33.31789,31.088415,11.983,ZC,True,[ 1.66435849  1.62289589  1.65417084 -0.86999871],1.0178566,[-6.14174251 -6.05823162 -6.07477111 -5.19510057],-5.8674614521825195,-126.22574,[68.96395412 69.00541671 68.97414176 71.49831131],69.61045597690806,74.9481145,[ 256  657 1058 1459],[ 556  957 1358 1759],556,1.1668108901551195,0.47031808251652596,-1.9747849835404583,-0.47031808251652596,Flight,"[ 1.3840172e-07-4.4980558e-07j  4.4980558e-07+2.0760257e-07j
  1.0726133e-06+2.4220301e-07j ... -4.2660635e-02-4.5154355e-02j
  3.7848301e-02-3.7501328e-02j -3.8361426e-02+1.0832495e-02j]",True,0,0,0,0,0,UAV,35.727367,-78.696236,0.017,-0.0030588218942284584,0.0677170678973198,-0.06403321027755737,0.0,0.0,0.0,0,0.0,"                                  0
time     2023-12-15 16:36:17.864531
type                            UAV
lat                       35.727369
lon                      -78.696234
alt                           0.017
pitch                     -0.003059
yaw                        0.067717
roll                      -0.064033
vel_x                           0.0
vel_y                           0.0
vel_z                           0.0
heading                           0
speed                           0.0",69.64781539313444,69.65354007167333
0,16.2,3620,33.31825,31.088415,11.984,ZC,True,[ 1.58326566  1.68208529  1.70565298 -0.81487753],1.0390316,[-6.18612573 -6.04707277 -6.09154428 -5.2023527 ],-5.881773869312959,-135.42859,[69.04504695 68.94622731 68.92265962 71.44319014],69.58928100535962,74.9481145,[ 256  657 1058 1459],[ 556  957 1358 1759],556,1.1668108901551195,0.470327649372547,-1.9747849835404583,-0.470327649372547,Flight,"[ 1.03801284e-07-2.42203015e-07j -4.49805583e-07+1.03801290e-06j
  1.73002149e-07-1.03801284e-07j ...  2.89687850e-02+1.69133469e-02j
  1.25955731e-01-6.25012144e-02j -7.02530220e-02+3.02092894e-03j]",True,0,0,0,0,0,UAV,35.727367,-78.696236,0.016,-0.00293580605648458,0.06786338239908218,-0.06390754133462906,0.0,0.0,0.0,0,0.0,"                                  0
time     2023-12-15 16:36:18.269957
type                            UAV
lat                       35.727369
lon                      -78.696234
alt                           0.016
pitch                     -0.002936
yaw                        0.067863
roll                      -0.063908
vel_x                           0.0
vel_y                           0.0
vel_z                           0.0
heading                           0
speed                           0.0",69.64042252958261,69.64068173846107
0,16.6,3620,33.31789,31.088415,11.983,ZC,True,[ 1.63845144  1.71269072  1.74460105 -0.76486702],1.0827191,[-6.09470354 -6.01274611 -6.01801185 -5.19377703],-5.829809633535405,-277.24734,[68.98986116 68.91562189 68.88371156 71.39317963],69.54559355883202,74.9481145,[ 256  657 1058 1459],[ 556  957 1358 1759],556,1.1668108901551195,0.47031808251652596,-1.9747849835404583,-0.47031808251652596,Flight,"[ 1.29751612e-07-4.1520514e-07j  1.03801284e-07+1.3840172e-06j
  1.55701926e-07+8.6501075e-08j ... -1.21001199e-01-3.2193467e-02j
  5.48778735e-02-3.2993238e-02j  7.38649955e-03+3.8452189e-02j]",True,0,0,0,0,0,UAV,35.727367,-78.696236,0.017,-0.0028506177477538586,0.0679359883069992,-0.06388147920370102,0.0,-0.01,0.0,0,0.01,"                                  0
time     2023-12-15 16:36:18.675052
type                            UAV
lat                       35.727369
lon                      -78.696234
alt                           0.017
pitch                     -0.002851
yaw                        0.067936
roll                      -0.063881
vel_x                           0.0
vel_y                         -0.01
vel_z                           0.0
heading                           0
speed                          0.01",69.6274991080726,69.621656384935
0,17.0,3620,33.31789,31.088415,11.983,ZC,True,[ 1.48185378  1.69479039  1.75018622 -0.70302667],1.0559509,[-6.01088545 -5.8232675  -5.85232793 -4.9912345 ],-5.669428845585822,-336.2046,[69.14645882 68.93352221 68.87812639 71.33133928],69.57236167547784,74.9481145,[ 256  657 1058 1459],[ 556  957 1358 1759],556,1.1668108901551195,0.47031808251652596,-1.9747849835404583,-0.47031808251652596,Flight,"[ 2.7680343e-07-7.6120944e-07j -6.9200860e-07+6.9200860e-07j
 -5.0170621e-07+1.2715658e-06j ... -6.1952345e-02-3.3963090e-03j
  8.3275791e-03+8.0027059e-02j  1.6511897e-02-3.8300704e-02j]",True,0,0,0,0,0,UAV,35.727367,-78.696236,0.017,-0.0028548676054924726,0.06801458448171616,-0.06394774466753006,0.0,0.0,0.0,0,0.0,"                                  0
time     2023-12-15 16:36:19.080157
type                            UAV
lat                       35.727369
lon                      -78.696234
alt                           0.017
pitch                     -0.002855
yaw                        0.068015
roll                      -0.063948
vel_x                           0.0
vel_y                           0.0
vel_z                           0.0
heading                           0
speed                           0.0",69.59494989147495,69.6117942425954
0,17.4,3620,33.306892,31.080095,11.974,ZC,True,[ 1.69948762  1.80347864  1.85679756 -0.60548409],1.1885699,[-5.97053851 -5.90505915 -5.90783696 -5.09018376],-5.7184045932559915,-460.15552,[68.92882498 68.82483396 68.77151505 71.2337967 ],69.43974267315002,74.9481145,[ 256  657 1058 1459],[ 556  957 1358 1759],556,1.1666964633927093,0.47032601766623083,-1.9748994092837184,-0.47032601766623083,Flight,"[ 2.5950322e-07-6.9200858e-08j -9.3421158e-07-3.4600430e-07j
 -9.6881206e-07+4.1520514e-07j ...  9.6856639e-02-2.5674002e-02j
  7.4781217e-03-1.3497766e-02j -2.8565561e-02+1.5045858e-02j]",True,0,0,0,0,0,UAV,35.727367,-78.696236,0.026,-0.0029851722065359354,0.06800121814012527,-0.06385275721549988,0.0,0.0,0.0,0,0.0,"                                  0
time     2023-12-15 16:36:19.485209
type                            UAV
lat                       35.727369
lon                      -78.696233
alt                           0.026
pitch                     -0.002985
yaw                        0.068001
roll                      -0.063853
vel_x                           0.0
vel_y                           0.0
vel_z                           0.0
heading                           0
speed                           0.0",69.55862675329064,69.57737499295824
0,17.8,3620,33.30797,31.080095,11.977,ZC,True,[ 1.63852673  1.85997276  1.93153014 -0.49506357],1.2337415,[-5.83808036 -5.70238216 -5.73080307 -4.89750326],-5.542192209837661,-321.72485,[68.98978587 68.76833985 68.69678247 71.12337618],69.39457109045527,74.9481145,[ 256  657 1058 1459],[ 556  957 1358 1759],556,1.1666964633927093,0.4703547308860505,-1.9748994092837184,-0.4703547308860505,Flight,"[ 5.1900645e-07+3.8060472e-07j  0.0000000e+00+1.2110151e-07j
 -3.1140385e-07-1.2110151e-07j ...  8.1782611e-03-9.2482343e-02j
 -3.7505568e-03+1.3179234e-02j -4.3324581e-03+3.4791424e-03j]",True,0,0,0,0,0,UAV,35.727367,-78.696236,0.023,-0.003002159995958209,0.06802548468112946,-0.06378009170293808,0.0,0.0,0.0,0,0.0,"                                  0
time     2023-12-15 16:36:19.890435
type                            UAV
lat                       35.727369
lon                      -78.696233
alt                           0.023
pitch                     -0.003002
yaw                        0.068025
roll                       -0.06378
vel_x                           0.0
vel_y                           0.0
vel_z                           0.0
heading                           0
speed                           0.0",69.55085986531313,69.5408066175032
0,18.2,3620,33.301647,31.071777,11.981,ZC,True,[ 1.7027957   1.89616726  1.92371065 -0.46429511],1.2645947,[-5.80180357 -5.71294282 -5.72902762 -4.92211528],-5.541472321427244,-480.44547,[68.9255169  68.73214534 68.70460196 71.09260772],69.36371797938335,74.9481145,[ 256  657 1058 1459],[ 556  957 1358 1759],556,1.1665819753777855,0.4704870930374437,-1.9750138962794928,-0.4704870930374437,Flight,"[-2.7680343e-07-4.8440603e-07j  2.7680343e-07+8.6501075e-08j
 -2.7680343e-07-6.5740818e-07j ...  5.9821833e-02-1.0057326e-01j
 -2.9253418e-02-3.3086970e-02j -4.3517686e-02+6.0182497e-02j]",True,0,0,0,0,0,UAV,35.727367,-78.696236,0.019,-0.0030635539442300797,0.06816474348306656,-0.06378214061260223,0.0,0.0,0.0,0,0.0,"                                  0
time     2023-12-15 16:36:20.295533
type                            UAV
lat                       35.727369
lon                      -78.696233
alt                           0.019
pitch                     -0.003064
yaw                        0.068165
roll                      -0.063782
vel_x                           0.0
vel_y                           0.0
vel_z                           0.0
heading                           0
speed                           0.0",69.54631678473115,69.5053830041219
0,18.6,3620,33.29805,31.071777,11.971,ZC,True,[ 1.67476701  1.83083382  1.86514215 -0.60783773],1.1907263,[-5.66558153 -5.60317663 -5.62269665 -4.74188476],-5.408334891118325,-247.88084,[68.9535456  68.79747879 68.76317046 71.23615033],69.43758629246577,74.9481145,[ 256  657 1058 1459],[ 556  957 1358 1759],556,1.1665819753777855,0.47039139258500307,-1.9750138962794928,-0.47039139258500307,Flight,"[ 1.3840172e-07+1.2110151e-07j -4.6710579e-07-6.9200860e-07j
  4.8440603e-07+3.1140385e-07j ...  1.9242128e-02-1.2852762e-02j
 -6.4705707e-02+5.6763612e-02j  1.9379215e-02-4.1779913e-02j]",True,0,0,0,0,0,UAV,35.727367,-78.696236,0.029,-0.002973533933982253,0.06783624738454819,-0.06379973888397217,0.0,0.01,0.0,0,0.01,"                                  0
time     2023-12-15 16:36:20.700677
type                            UAV
lat                       35.727369
lon                      -78.696233
alt                           0.029
pitch                     -0.002974
yaw                        0.067836
roll                        -0.0638
vel_x                           0.0
vel_y                          0.01
vel_z                           0.0
heading                           0
speed                          0.01",69.52066494675377,69.49182185920532
0,19.0,3620,33.29805,31.071777,11.971,ZC,True,[ 1.83893253  1.87332717  1.92310667 -0.5985285 ],1.2592095,[-5.77964137 -5.72906556 -5.74919648 -4.91178671],-5.542422529519765,-352.9744,[68.78938007 68.75498544 68.70520593 71.22684111],69.36910313698996,74.9481145,[ 256  657 1058 1459],[ 556  957 1358 1759],556,1.1665819753777855,0.47039139258500307,-1.9750138962794928,-0.47039139258500307,Flight,"[ 2.7680343e-07-2.0760257e-07j -6.9200858e-08+5.1900645e-07j
 -2.7680343e-07+8.3041027e-07j ... -6.5744847e-02-9.1330772e-03j
  2.8504543e-02+4.3432724e-02j -3.4789261e-03-3.8462528e-03j]",True,0,0,0,0,0,UAV,35.727367,-78.696236,0.029,-0.002973533933982253,0.06783624738454819,-0.06379973888397217,0.0,0.01,0.0,0,0.01,"                                  0
time     2023-12-15 16:36:20.903248
type                            UAV
lat                       35.727369
lon                      -78.696233
alt                           0.029
pitch                     -0.002974
yaw                        0.067836
roll                        -0.0638
vel_x                           0.0
vel_y                          0.01
vel_z                           0.0
heading                           0
speed                          0.01",69.49050204129657,69.46727550454611
0,19.4,3620,33.304165,31.071777,11.988,ZC,True,[ 1.84919397  1.94982523  1.94674406 -0.51593743],1.3074565,[-5.80918284 -5.73718284 -5.75712564 -4.89883299],-5.550581078223308,-933.3084,[68.77911863 68.67848738 68.68156855 71.14425004],69.3208561490526,74.9481145,[ 256  657 1058 1459],[ 556  957 1358 1759],556,1.1665819753777855,0.47055404663494027,-1.9750138962794928,-0.47055404663494027,Flight,"[-5.1900642e-08-2.0760257e-07j -4.8440603e-07+1.3494167e-06j
 -3.8060472e-07+4.1520514e-07j ... -2.5268901e-02-9.8955750e-02j
 -1.6904108e-02+8.0467775e-02j  2.5971012e-02+7.4148029e-03j]",True,0,0,0,0,0,UAV,35.727367,-78.696236,0.012,-0.0030218178872019053,0.06811155378818512,-0.06377164274454117,0.0,0.01,0.0,0,0.01,"                                  0
time     2023-12-15 16:36:21.308448
type                            UAV
lat                       35.727369
lon                      -78.696233
alt                           0.012
pitch                     -0.003022
yaw                        0.068112
roll                      -0.063772
vel_x                           0.0
vel_y                          0.01
vel_z                           0.0
heading                           0
speed                          0.01",69.46432695380744,69.43798914203921
0,19.8,3620,33.307766,31.071777,11.998,ZC,True,[ 2.05529538  2.02907893  2.01861044 -0.36342027],1.4348911,[-5.74305736 -5.70667035 -5.6945565  -4.92943137],-5.518428895687549,-236.75334,[68.57301722 68.59923367 68.60970217 70.99173288],69.19342148426861,74.9481145,[ 256  657 1058 1459],[ 556  957 1358 1759],556,1.1665819753777855,0.4706496421687219,-1.9750138962794928,-0.4706496421687219,Flight,"[ 6.2280770e-07-4.8440603e-07j -1.2283152e-06-5.1900645e-07j
 -7.6120944e-07+6.7470836e-07j ... -6.9255911e-02-3.1460926e-02j
  4.4301558e-02-1.4366037e-01j -5.5837827e-03+5.1791660e-02j]",True,0,0,0,0,0,UAV,35.727367,-78.696236,0.002,-0.0031377007253468037,0.06833492964506149,-0.06368158757686615,0.0,0.0,0.0,0,0.0,"                                  0
time     2023-12-15 16:36:21.713730
type                            UAV
lat                       35.727369
lon                      -78.696233
alt                           0.002
pitch                     -0.003138
yaw                        0.068335
roll                      -0.063682
vel_x                           0.0
vel_y                           0.0
vel_z                           0.0
heading                           0
speed                           0.0",69.42262350454351,69.38907228137607
0,20.2,3620,33.307045,31.071777,11.996,ZC,True,[ 1.93773815  1.91065994  1.91927363 -0.49857218],1.3172749,[-5.59523338 -5.56735582 -5.55481417 -4.75407205],-5.367868853773711,-345.2305,[68.69057446 68.71765266 68.70903898 71.12688478],69.31103771993114,74.9481145,[ 256  657 1058 1459],[ 556  957 1358 1759],556,1.1665819753777855,0.47063052800507754,-1.9750138962794928,-0.47063052800507754,Flight,"[ 1.3840172e-07-4.8440603e-07j  8.0446000e-07+1.7300215e-07j
  0.0000000e+00-1.1764146e-06j ... -7.2949468e-03-1.0612142e-01j
 -7.7839722e-03-7.5191231e-03j  2.1637587e-02+4.3092258e-02j]",True,0,0,0,0,0,UAV,35.727367,-78.696236,0.004,-0.003104297211393714,0.06822673231363297,-0.06374024599790573,0.0,0.0,0.0,0,0.0,"                                  0
time     2023-12-15 16:36:22.118849
type                            UAV
lat                       35.727369
lon                      -78.696233
alt                           0.004
pitch                     -0.003104
yaw                        0.068227
roll                       -0.06374
vel_x                           0.0
vel_y                           0.0
vel_z                           0.0
heading                           0
speed                           0.0",69.39479917600065,69.3734645193197
0,20.6,3620,33.31173,31.071777,12.009,ZC,True,[ 1.91865047  1.96416484  1.95293737 -0.42298754],1.3531913,[-5.82418968 -5.7291748  -5.73940436 -4.91272682],-5.551373915995187,-452.72263,[68.70966213 68.66414776 68.67537523 71.05130014],69.27512131598375,74.9481145,[ 256  657 1058 1459],[ 556  957 1358 1759],556,1.1665819753777855,0.4707547260189919,-1.9750138962794928,-0.4707547260189919,Flight,"[ 2.4220301e-07+2.0760257e-07j  1.5570193e-07-1.1764146e-06j
 -6.9200860e-07-7.2660902e-07j ... -4.9697392e-02+1.5599583e-01j
  6.2032878e-02+1.0996819e-01j  1.7365489e-02-1.1151556e-01j]",True,0,0,0,0,0,UAV,35.727367,-78.696236,-0.009,-0.002807008568197489,0.0680437982082367,-0.06374500691890717,0.0,0.0,0.0,0,0.0,"                                  0
time     2023-12-15 16:36:22.524616
type                            UAV
lat                       35.727369
lon                      -78.696233
alt                          -0.009
pitch                     -0.002807
yaw                        0.068044
roll                      -0.063745
vel_x                           0.0
vel_y                           0.0
vel_z                           0.0
heading                           0
speed                           0.0",69.36775195171583,69.35379502192507
0,21.0,3620,33.313175,31.071777,12.013,ZC,True,[ 1.90342826  1.93019498  1.93097229 -0.39525659],1.3423347,[-5.7051934  -5.51818145 -5.55182865 -4.77052256],-5.3864315166463,-220.93588,[68.72488434 68.69811763 68.69734031 71.02356919],69.28597786793104,74.9481145,[ 256  657 1058 1459],[ 556  957 1358 1759],556,1.1665819753777855,0.47079291983343624,-1.9750138962794928,-0.47079291983343624,Flight,"[ 6.0983257e-07-8.6501075e-07j -6.9200860e-07+2.0760257e-07j
 -4.1520514e-07+5.5360687e-07j ...  6.9877639e-02-4.4079080e-02j
 -5.6811146e-02+5.4964788e-02j -3.7838684e-03+9.8266602e-03j]",True,0,0,0,0,0,UAV,35.727367,-78.696236,-0.013,-0.0029089723248034716,0.06825531274080276,-0.06363102793693542,0.0,0.0,0.0,0,0.0,"                                  0
time     2023-12-15 16:36:22.931477
type                            UAV
lat                       35.727369
lon                      -78.696233
alt                          -0.013
pitch                     -0.002909
yaw                        0.068255
roll                      -0.063631
vel_x                           0.0
vel_y                           0.0
vel_z                           0.0
heading                           0
speed                           0.0",69.33911357096115,69.3402311184932
0,21.4,3620,33.3175,31.071777,12.025,ZC,True,[ 1.96418263  1.92805738  1.97165831 -0.43175495],1.3580358,[-5.6193994  -5.48816612 -5.47424579 -4.69323217],-5.318760869431909,-110.28997,[68.66412997 68.70025522 68.6566543  71.06006756],69.27027676315923,74.9481145,[ 256  657 1058 1459],[ 556  957 1358 1759],556,1.1665819753777855,0.47090744208187935,-1.9750138962794928,-0.47090744208187935,Flight,"[-3.1140385e-07-6.2280770e-07j  2.5950322e-07+2.5950322e-07j
  4.5845567e-07+2.5517818e-07j ...  2.2282971e-02-1.6597722e-02j
  3.3942088e-02+7.0487976e-02j -2.8626839e-02-2.0051498e-02j]",True,0,0,0,0,0,UAV,35.727367,-78.696236,-0.025,-0.002708599902689457,0.06865232437849045,-0.06373514235019684,0.0,0.0,0.0,0,0.0,"                                  0
time     2023-12-15 16:36:23.337290
type                            UAV
lat                       35.727369
lon                      -78.696233
alt                          -0.025
pitch                     -0.002709
yaw                        0.068652
roll                      -0.063735
vel_x                           0.0
vel_y                           0.0
vel_z                           0.0
heading                           0
speed                           0.0",69.32216697996208,69.32623985740697
