index,time,center_freq,dist,h_dist,v_dist,wav_type,detected,power,avgPower,snr,avgSnr,freq_offset,path_loss,avg_pl,est_dist,peaks,orig_peaks,start_point,aod_theta,aod_phi,aoa_theta,aoa_phi,stage,corr,save_corr,rsrp,shadowing,multipath,delay,doppler,type,lat,lon,alt,pitch,yaw,roll,vel_x,vel_y,vel_z,heading,speed,vehicle,avg_pl_rolling,avg_pl_ewma
0,19.0,3620,33.266308,31.076143,11.871,ZC,True,[ 1.8095384   1.81998426  1.77963247 -0.65282874],1.1890815,[-5.34607644 -5.19602585 -5.21244946 -4.41178959],-5.04158533713224,-396.25095,[68.8187742  68.80832835 68.84868014 71.28114135],69.43923100814699,149.896229,[ 270  671 1072 1473],[ 570  971 1372 1773],570,1.1662537099336838,0.4695970865123098,-1.9753421617235905,-0.4695970865123098,Flight,"[-1.9030236e-07-2.4220301e-07j -3.4600429e-08+3.8060472e-07j
 -1.0034124e-06+2.4220301e-07j ...  8.4288411e-02-1.1155227e-01j
  3.5005115e-02-2.4997806e-02j -7.0743307e-02+3.4730457e-02j]",True,0,0,0,0,0,UAV,35.727367,-78.696236,0.129,-0.015391231514513493,0.025933409109711647,-0.07487141340970993,-0.01,0.0,0.0,0,0.01,"                                  0
time     2023-12-15 16:20:00.876612
type                            UAV
lat                       35.727369
lon                      -78.696233
alt                           0.129
pitch                     -0.015391
yaw                        0.025933
roll                      -0.074871
vel_x                         -0.01
vel_y                           0.0
vel_z                           0.0
heading                           0
speed                          0.01",,69.43923100814699
0,19.4,3620,33.26274,31.076143,11.861,ZC,True,[ 1.58364801  1.64612511  1.67530553 -0.80431313],1.0251914,[-5.17084393 -5.18599132 -5.23496482 -4.42735498],-5.004788762248472,45.895958,[69.0446646  68.98218749 68.95300708 71.43262573],69.60312122586586,149.896229,[ 270  671 1072 1473],[ 570  971 1372 1773],570,1.1662537099336838,0.46950074644763373,-1.9753421617235905,-0.46950074644763373,Flight,"[ 1.7300215e-07+1.28021588e-06j  0.0000000e+00+6.92008584e-08j
 -8.6501075e-08+5.53606867e-07j ...  2.4076710e-02+2.05914080e-02j
 -4.7093023e-02-1.17767476e-01j  1.1993962e-02+5.10567725e-02j]",True,0,0,0,0,0,UAV,35.727367,-78.696236,0.139,-0.015507767908275127,0.02598690800368786,-0.07497131824493408,-0.01,0.0,0.0,0,0.01,"                                  0
time     2023-12-15 16:20:01.281673
type                            UAV
lat                       35.727369
lon                      -78.696233
alt                           0.139
pitch                     -0.015508
yaw                        0.025987
roll                      -0.074971
vel_x                         -0.01
vel_y                           0.0
vel_z                           0.0
heading                           0
speed                          0.01",,69.53028112910192
0,19.8,3620,33.259533,31.076143,11.852,ZC,True,[ 1.52403437  1.54191228  1.63585409 -0.85176331],0.96250933,[-5.28365825 -5.31868512 -5.30395264 -4.49379935],-5.100023843471087,-413.07346,[69.10427824 69.08640032 68.99245851 71.48007592],69.6658032470172,149.896229,[ 270  671 1072 1473],[ 570  971 1372 1773],570,1.1662537099336838,0.46941398744075363,-1.9753421617235905,-0.46941398744075363,Flight,"[-1.4532180e-06-4.6710579e-07j  6.0550752e-07+4.4980558e-07j
  1.3840172e-07+9.6881206e-07j ...  1.8096717e-02+1.8088447e-02j
 -7.1247475e-04-3.7240755e-02j -2.0723755e-02+1.6908711e-02j]",True,0,0,0,0,0,UAV,35.727367,-78.696236,0.148,-0.01552808191627264,0.026267698034644127,-0.07497794926166534,-0.01,-0.01,-0.01,0,0.017320508075688773,"                                  0
time     2023-12-15 16:20:01.686723
type                            UAV
lat                       35.727369
lon                      -78.696233
alt                           0.148
pitch                     -0.015528
yaw                        0.026268
roll                      -0.074978
vel_x                         -0.01
vel_y                         -0.01
vel_z                         -0.01
heading                           0
speed                      0.017321",,69.58582298070654
0,20.2,3620,33.258465,31.076143,11.849,ZC,True,[ 1.35379755  1.34901425  1.4256379  -0.89815784],0.80757296,[-5.61875205 -5.49929675 -5.54721185 -4.74756447],-5.353206280210549,-421.92395,[69.27451506 69.27929835 69.20267471 71.52647045],69.82073964157671,149.896229,[ 270  671 1072 1473],[ 570  971 1372 1773],570,1.1662537099336838,0.4693850566322875,-1.9753421617235905,-0.4693850566322875,Flight,"[-2.4220301e-07-1.7300215e-07j -8.8231093e-07-1.9030236e-07j
 -2.0760257e-07+2.2490279e-07j ... -2.1934630e-02+1.3496244e-01j
  4.0098540e-02-4.4981882e-02j  4.3645501e-03-3.4700625e-02j]",True,0,0,0,0,0,UAV,35.727367,-78.696236,0.151,-0.015698716044425964,0.026191730052232742,-0.0748714953660965,0.0,-0.01,-0.01,0,0.01414213562373095,"                                  0
time     2023-12-15 16:20:02.091794
type                            UAV
lat                       35.727369
lon                      -78.696233
alt                           0.151
pitch                     -0.015699
yaw                        0.026192
roll                      -0.074871
vel_x                           0.0
vel_y                         -0.01
vel_z                         -0.01
heading                           0
speed                      0.014142",,69.66540179536445
0,20.6,3620,33.258465,31.076143,11.849,ZC,True,[ 0.9959372   1.09254866  1.13328518 -1.4011513 ],0.45515493,[-5.66585805 -5.56893246 -5.56446605 -4.73784885],-5.384276351635728,-101.01509,[69.6323754  69.53576394 69.49502743 72.02946391],70.17315766862451,149.896229,[ 270  671 1072 1473],[ 570  971 1372 1773],570,1.1662537099336838,0.4693850566322875,-1.9753421617235905,-0.4693850566322875,Flight,"[ 2.7680343e-07+2.7680343e-07j  3.6330451e-07+4.3250537e-07j
  8.2176018e-07-9.6881206e-07j ... -6.2794909e-02-6.6684231e-02j
 -2.6268784e-02-4.7510541e-03j  2.8444836e-02+4.2024884e-02j]",True,0,0,0,0,0,UAV,35.727367,-78.696236,0.151,-0.015794314444065094,0.02611665427684784,-0.07502785325050354,0.0,-0.01,-0.01,0,0.01414213562373095,"                                  0
time     2023-12-15 16:20:02.496784
type                            UAV
lat                       35.727369
lon                      -78.696233
alt                           0.151
pitch                     -0.015794
yaw                        0.026117
roll                      -0.075028
vel_x                           0.0
vel_y                         -0.01
vel_z                         -0.01
heading                           0
speed                      0.014142",,69.81644768817146
0,21.0,3620,33.25633,31.076143,11.843,ZC,True,[ 0.69857325  0.93182327  0.90344963 -1.63036009],0.22587152,[-5.83536535 -5.75969554 -5.74727923 -4.87664525],-5.554746343274623,-147.79059,[69.92973936 69.69648933 69.72486297 72.25867269],70.40244108769198,149.896229,[ 270  671 1072 1473],[ 570  971 1372 1773],570,1.1662537099336838,0.4693271782611958,-1.9753421617235905,-0.4693271782611958,Flight,"[ 6.9200860e-07-6.2280770e-07j  6.2280770e-07-1.3840172e-06j
 -3.1140385e-07-2.7680343e-07j ...  3.2532915e-02-3.8784865e-02j
  2.4986234e-02-4.2799417e-02j  2.3803019e-03+2.8259797e-02j]",True,0,0,0,0,0,UAV,35.727367,-78.696236,0.157,-0.0158010832965374,0.02560437098145485,-0.07516562193632126,0.0,-0.01,-0.01,0,0.01414213562373095,"                                  0
time     2023-12-15 16:20:02.901948
type                            UAV
lat                       35.727369
lon                      -78.696233
alt                           0.157
pitch                     -0.015801
yaw                        0.025604
roll                      -0.075166
vel_x                           0.0
vel_y                         -0.01
vel_z                         -0.01
heading                           0
speed                      0.014142",,69.97528448004428
0,21.4,3620,33.25597,31.076143,11.842,ZC,True,[ 0.32638006  0.66255289  0.73329528 -1.77841389],-0.014046417,[-6.07571984 -6.09162225 -6.09430137 -5.29687662],-5.889630021338206,-85.88615,[70.30193255 69.96575972 69.89501732 72.4067265 ],70.64235902106566,149.896229,[ 270  671 1072 1473],[ 570  971 1372 1773],570,1.1662537099336838,0.469317529697875,-1.9753421617235905,-0.469317529697875,Flight,"[ 8.3041027e-07+2.0760257e-07j  1.7300215e-07-5.8820729e-07j
 -3.4600429e-08-1.1764146e-06j ...  1.9137185e-02-2.5087405e-02j
 -6.9835499e-02+1.1121210e-02j  3.6531098e-02+2.8717250e-02j]",True,0,0,0,0,0,UAV,35.727367,-78.696236,0.158,-0.015865180641412735,0.025376617908477783,-0.07511432468891144,0.0,-0.01,-0.01,0,0.01414213562373095,"                                  0
time     2023-12-15 16:20:03.307931
type                            UAV
lat                       35.727369
lon                      -78.696233
alt                           0.158
pitch                     -0.015865
yaw                        0.025377
roll                      -0.075114
vel_x                           0.0
vel_y                         -0.01
vel_z                         -0.01
heading                           0
speed                      0.014142",,70.1441032504474
0,21.8,3620,33.254192,31.076143,11.837,ZC,True,[ 0.42630035  0.38121485  0.45895717 -2.13845252],-0.21799503,[-6.61571742 -6.48762901 -6.523416   -5.6317258 ],-6.314622058182555,-247.13908,[70.20201225 70.24709775 70.16935543 72.76676513],70.84630764199589,149.896229,[ 270  671 1072 1473],[ 570  971 1372 1773],570,1.1662537099336838,0.46926927758067033,-1.9753421617235905,-0.46926927758067033,Flight,"[-1.7300215e-07-5.1900645e-07j -3.1140385e-07-3.4600429e-08j
  8.4771051e-07+0.0000000e+00j ...  2.6106715e-02+1.0338020e-01j
  5.3593747e-02-1.1854799e-03j -5.0112080e-02+1.0987332e-02j]",True,0,0,0,0,0,UAV,35.727367,-78.696236,0.163,-0.016019407659769058,0.025082465261220932,-0.07515135407447815,0.0,-0.01,-0.01,0,0.01414213562373095,"                                  0
time     2023-12-15 16:20:03.714333
type                            UAV
lat                       35.727369
lon                      -78.696233
alt                           0.163
pitch                     -0.016019
yaw                        0.025082
roll                      -0.075151
vel_x                           0.0
vel_y                         -0.01
vel_z                         -0.01
heading                           0
speed                      0.014142",,70.31285617069302
0,22.2,3620,33.253834,31.076143,11.836,ZC,True,[ 0.75104605  0.53521321  0.61345654 -1.93811543],-0.009599909,[-6.88888386 -6.71826142 -6.69242428 -5.85695523],-6.539131201648791,-640.9623,[69.87726655 70.0930994  70.01485607 72.56642804],70.63791251415697,149.896229,[ 270  671 1072 1473],[ 570  971 1372 1773],570,1.1662537099336838,0.46925962529870424,-1.9753421617235905,-0.46925962529870424,Flight,"[-1.3840172e-07+5.5360687e-07j  3.4600430e-07+5.5360687e-07j
 -1.7300215e-07+3.4600430e-07j ... -1.3604750e-02+4.6400327e-02j
  7.3069252e-02+1.1593206e-01j -8.3920574e-03-7.1109280e-02j]",True,0,0,0,0,0,UAV,35.727367,-78.696236,0.164,-0.016018815338611603,0.024745767936110497,-0.07490018010139465,0.0,-0.01,-0.01,0,0.01414213562373095,"                                  0
time     2023-12-15 16:20:04.119830
type                            UAV
lat                       35.727369
lon                      -78.696233
alt                           0.164
pitch                     -0.016019
yaw                        0.024746
roll                        -0.0749
vel_x                           0.0
vel_y                         -0.01
vel_z                         -0.01
heading                           0
speed                      0.014142",,70.38794579864603
0,22.6,3620,33.25348,31.076143,11.835,ZC,True,[ 0.80045356  0.7024432   0.6969473  -1.94789056],0.06298838,[-7.24682759 -7.05363116 -7.09102143 -6.07824478],-6.867431240262903,-315.6437,[69.82785904 69.92586941 69.93136531 72.57620316],70.5653242296423,149.896229,[ 270  671 1072 1473],[ 570  971 1372 1773],570,1.1662537099336838,0.4692499723966454,-1.9753421617235905,-0.4692499723966454,Flight,"[ 4.8440603e-07+1.38401717e-07j  3.4600430e-07-6.92008598e-07j
 -4.8440603e-07-1.03801284e-07j ... -9.2614643e-02+6.56755343e-02j
 -1.5548190e-01+7.57035241e-02j  8.0477759e-02-6.71099201e-02j]",True,0,0,0,0,0,UAV,35.727367,-78.696236,0.165,-0.016064811497926712,0.024621007964015007,-0.07496043294668198,0.0,-0.01,-0.01,0,0.01414213562373095,"                                  0
time     2023-12-15 16:20:04.524800
type                            UAV
lat                       35.727369
lon                      -78.696233
alt                           0.165
pitch                     -0.016065
yaw                        0.024621
roll                       -0.07496
vel_x                           0.0
vel_y                         -0.01
vel_z                         -0.01
heading                           0
speed                      0.014142",70.17963972857841,70.42768886399298
0,23.0,3620,33.24762,31.071777,11.83,ZC,True,[ 0.23684328 -0.04306643 -0.09421598 -2.49629523],-0.5991836,[-6.66768893 -6.4208558  -6.50520479 -5.63147912],-6.306307161751866,-520.01416,[70.39146933 70.67137903 70.72252858 73.12460783],71.22749619401793,144.54279225,[ 269  670 1071 1472],[ 569  970 1371 1772],569,1.1665819753777855,0.4690354347392494,-1.9750138962794928,-0.4690354347392494,Flight,"[ 2.4220301e-07+2.4220301e-07j -2.9410364e-07-1.7300215e-07j
 -9.3421158e-07-5.5360687e-07j ...  7.5260431e-02+1.3977857e-01j
  1.0311070e-01+9.3602739e-02j -6.1799344e-02-8.4474005e-02j]",True,0,0,0,0,0,UAV,35.727367,-78.696236,0.17,-0.01610337197780609,0.024402927607297897,-0.07471662759780884,0.01,0.0,-0.01,0,0.01414213562373095,"                                  0
time     2023-12-15 16:20:04.929623
type                            UAV
lat                       35.727369
lon                      -78.696233
alt                            0.17
pitch                     -0.016103
yaw                        0.024403
roll                      -0.074717
vel_x                          0.01
vel_y                           0.0
vel_z                         -0.01
heading                           0
speed                      0.014142",70.35846624716551,70.60268213775448
0,23.4,3620,33.247974,31.071777,11.831,ZC,True,[ 0.5572405   0.60594441  0.63256413 -2.07269086],-0.06923546,[-6.86927588 -6.5477609  -6.66924093 -5.55950056],-6.411444570640163,-615.53613,[70.07107211 70.0223682  69.99574847 72.70100347],70.69754806227837,144.54279225,[ 269  670 1071 1472],[ 569  970 1371 1772],569,1.1665819753777855,0.4690450948049276,-1.9750138962794928,-0.4690450948049276,Flight,"[ 4.1520514e-07+1.0034124e-06j  4.4980558e-07+3.1140385e-07j
 -4.3250537e-07+0.0000000e+00j ... -1.2117554e-02-3.1861633e-02j
  7.0217416e-02-1.3706258e-01j -4.3487824e-02+6.3111991e-02j]",True,0,0,0,0,0,UAV,35.727367,-78.696236,0.169,-0.0161900632083416,0.02399996854364872,-0.07457857578992844,0.01,0.0,-0.01,0,0.01414213562373095,"                                  0
time     2023-12-15 16:20:05.334575
type                            UAV
lat                       35.727369
lon                      -78.696233
alt                           0.169
pitch                      -0.01619
yaw                           0.024
roll                      -0.074579
vel_x                          0.01
vel_y                           0.0
vel_z                         -0.01
heading                           0
speed                      0.014142",70.46790893080676,70.62305535981895
0,23.8,3620,33.25047,31.071777,11.838,ZC,True,[ 0.79118587  0.68692177  0.64397098 -2.05396294],0.017028922,[-6.51508841 -6.09060263 -6.18424003 -5.19828902],-5.997055023443465,-596.24884,[69.83712673 69.94139084 69.98434162 72.68227554],70.61128368315785,144.54279225,[ 269  670 1071 1472],[ 569  970 1371 1772],569,1.1665819753777855,0.4691126979137549,-1.9750138962794928,-0.4691126979137549,Flight,"[-6.9200858e-08+6.9200860e-07j  6.2280770e-07-2.0760257e-07j
 -8.3041027e-07+1.9030236e-07j ...  4.3455336e-02-9.4753347e-02j
 -3.2387670e-02+6.1916463e-02j -4.6378071e-03+1.6662735e-02j]",True,0,0,0,0,0,UAV,35.727367,-78.696236,0.162,-0.01624409109354019,0.023847676813602448,-0.07453407347202301,0.01,0.0,0.0,0,0.01,"                                  0
time     2023-12-15 16:20:05.739527
type                            UAV
lat                       35.727369
lon                      -78.696233
alt                           0.162
pitch                     -0.016244
yaw                        0.023848
roll                      -0.074534
vel_x                          0.01
vel_y                           0.0
vel_z                           0.0
heading                           0
speed                          0.01",70.56245697442083,70.62056406405361
0,24.2,3620,33.251537,31.071777,11.841,ZC,True,[ 1.03058954  1.02970494  1.02358874 -1.46059094],0.40582308,[-6.40377083 -6.17619295 -6.14494107 -5.30716724],-6.008018021114192,-516.96173,[69.59772307 69.59860766 69.60472386 72.08890355],70.22248953622508,144.54279225,[ 269  670 1071 1472],[ 569  970 1371 1772],569,1.1665819753777855,0.4691416613724571,-1.9750138962794928,-0.4691416613724571,Flight,"[ 1.3840172e-07-1.7300215e-07j -7.7850967e-07-5.1900642e-08j
 -1.0380129e-06+7.8715976e-07j ... -6.8897828e-02-6.6727619e-03j
 -4.4842009e-02-5.3263623e-02j  2.9970199e-02+1.3214803e-02j]",True,0,0,0,0,0,UAV,35.727367,-78.696236,0.159,-0.016323210671544075,0.02360459789633751,-0.07443543523550034,0.01,0.0,0.0,0,0.01,"                                  0
time     2023-12-15 16:20:06.144638
type                            UAV
lat                       35.727369
lon                      -78.696233
alt                           0.159
pitch                     -0.016323
yaw                        0.023605
roll                      -0.074435
vel_x                          0.01
vel_y                           0.0
vel_z                           0.0
heading                           0
speed                          0.01",70.60263196388566,70.53728657582221
0,24.6,3620,33.253315,31.071777,11.846,ZC,True,[ 1.04280251  0.9996812   1.01359093 -1.72186288],0.33355293,[-5.88144994 -5.6830294  -5.69154697 -4.7414232 ],-5.499362378225439,-154.87532,[69.58551009 69.6286314  69.61472168 72.35017549],70.29475966421735,144.54279225,[ 269  670 1071 1472],[ 569  970 1371 1772],569,1.1665819753777855,0.4691899214041407,-1.9750138962794928,-0.4691899214041407,Flight,"[-6.9200858e-08-4.49805583e-07j -1.2456154e-06+2.76803434e-07j
  5.1900642e-08-3.80604718e-07j ... -1.0284182e-02-4.23975997e-02j
  3.3583660e-02-1.14905946e-01j -2.8230853e-02+1.03365980e-01j]",True,0,0,0,0,0,UAV,35.727367,-78.696236,0.154,-0.0163393784314394,0.02342153899371624,-0.07446840405464172,0.01,0.0,0.0,0,0.01,"                                  0
time     2023-12-15 16:20:06.549617
type                            UAV
lat                       35.727369
lon                      -78.696233
alt                           0.154
pitch                     -0.016339
yaw                        0.023422
roll                      -0.074468
vel_x                          0.01
vel_y                           0.0
vel_z                           0.0
heading                           0
speed                          0.01",70.61479216344495,70.48701232557401
0,25.0,3620,33.25474,31.071777,11.85,ZC,True,[ 1.27671674  1.20609367  1.25066852 -1.36037309],0.59327644,[-5.62614152 -5.4079115  -5.42075669 -4.56331598],-5.25453142296874,-5.0006814,[69.35159586 69.42221894 69.37764409 71.98868569],70.03503614521307,144.54279225,[ 269  670 1071 1472],[ 569  970 1371 1772],569,1.1665819753777855,0.4692285182814609,-1.9750138962794928,-0.4692285182814609,Flight,"[-6.9200858e-08+1.9030236e-07j  3.2005397e-07+6.5740818e-07j
 -8.8231093e-07-6.9200860e-07j ... -1.7085000e-03+1.6470946e-02j
  9.0649806e-02+3.6293548e-02j  4.7604484e-03-4.0100444e-02j]",True,0,0,0,0,0,UAV,35.727367,-78.696236,0.15,-0.01630239374935627,0.023161588236689568,-0.0746883749961853,0.0,0.0,0.0,0,0.0,"                                  0
time     2023-12-15 16:20:06.954423
type                            UAV
lat                       35.727369
lon                      -78.696233
alt                            0.15
pitch                     -0.016302
yaw                        0.023162
roll                      -0.074688
vel_x                           0.0
vel_y                           0.0
vel_z                           0.0
heading                           0
speed                           0.0",70.57805166919705,70.39399899705391
0,25.4,3620,33.25581,31.071777,11.853,ZC,True,[ 1.52363167  1.4200368   1.4325809  -1.11786438],0.81459624,[-5.43655286 -5.43374891 -5.45979357 -4.5761622 ],-5.226564383290258,-332.76776,[69.10468094 69.20827581 69.19573171 71.74617699],69.81371635998693,144.54279225,[ 269  670 1071 1472],[ 569  970 1371 1772],569,1.1665819753777855,0.469257459423996,-1.9750138962794928,-0.469257459423996,Flight,"[ 6.57408179e-07-3.4600429e-08j -1.12451396e-07-4.8440603e-07j
 -4.49805583e-07+8.6501075e-07j ...  1.56961665e-01-6.3014304e-04j
  3.23190838e-02+6.7231499e-02j -7.77606219e-02-1.2024825e-02j]",True,0,0,0,0,0,UAV,35.727367,-78.696236,0.147,-0.01635029725730419,0.022816531360149384,-0.07460368424654007,0.0,0.0,0.0,0,0.0,"                                  0
time     2023-12-15 16:20:07.359527
type                            UAV
lat                       35.727369
lon                      -78.696233
alt                           0.147
pitch                      -0.01635
yaw                        0.022817
roll                      -0.074604
vel_x                           0.0
vel_y                           0.0
vel_z                           0.0
heading                           0
speed                           0.0",70.49518740308918,70.27526890566381
0,25.8,3620,33.257595,31.071777,11.858,ZC,True,[-0.06658624 -0.08170205 -0.35038301 -3.03586297],-0.88363355,[-5.30071727 -5.13242417 -5.14450461 -4.51428584],-5.02298297117327,-385.5975,[70.69489884 70.71001465 70.97869562 73.66417557],71.5119461714409,144.54279225,[ 269  670 1071 1472],[ 569  970 1371 1772],569,1.1665819753777855,0.4693056822802158,-1.9750138962794928,-0.4693056822802158,Flight,"[-4.8440603e-07+4.1520514e-07j  6.9200860e-07+5.0170621e-07j
 -1.1764146e-06+0.0000000e+00j ...  3.1900663e-02+2.7698585e-01j
  7.6776206e-02+1.6044302e-01j -5.6826275e-02-2.0947862e-01j]",True,0,0,0,0,0,UAV,35.727367,-78.696236,0.142,-0.016307052224874496,0.022493941709399223,-0.07463449984788895,0.0,0.0,0.0,0,0.0,"                                  0
time     2023-12-15 16:20:07.764649
type                            UAV
lat                       35.727369
lon                      -78.696233
alt                           0.142
pitch                     -0.016307
yaw                        0.022494
roll                      -0.074634
vel_x                           0.0
vel_y                           0.0
vel_z                           0.0
heading                           0
speed                           0.0",70.56175125603367,70.52714169563141
0,26.2,3620,33.258663,31.071777,11.861,ZC,True,[-0.00748887  0.33502243  0.17936479 -2.52371797],-0.5042049,[-5.39476078 -5.36735711 -5.38490076 -4.57170326],-5.179680477137307,-422.88373,[70.63580148 70.29329018 70.44894782 73.15203058],71.13251751268362,144.54279225,[ 269  670 1071 1472],[ 569  970 1371 1772],569,1.1665819753777855,0.46933460855168263,-1.9750138962794928,-0.46933460855168263,Flight,"[ 6.2280770e-07-6.92008598e-07j -4.8440603e-07-8.30410272e-07j
  6.9200860e-07-1.03801284e-07j ... -8.0382049e-02-2.42841039e-02j
 -2.3090355e-02-1.02387652e-01j  3.1373456e-02+1.02539062e-02j]",True,0,0,0,0,0,UAV,35.727367,-78.696236,0.139,-0.016238553449511528,0.02226284146308899,-0.07443395256996155,0.0,0.0,0.0,0,0.0,"                                  0
time     2023-12-15 16:20:08.169831
type                            UAV
lat                       35.727369
lon                      -78.696233
alt                           0.139
pitch                     -0.016239
yaw                        0.022263
roll                      -0.074434
vel_x                           0.0
vel_y                           0.0
vel_z                           0.0
heading                           0
speed                           0.0",70.61121175588633,70.64998725005992
0,26.6,3620,33.260803,31.071777,11.867,ZC,True,[ 1.88939149  1.82415795  1.84938892 -0.64588317],1.2292638,[-5.24464617 -5.31726408 -5.37802158 -4.55861055],-5.124635594221624,23.642597,[68.73892111 68.80415466 68.77892368 71.27419578],69.39904880794786,144.54279225,[ 269  670 1071 1472],[ 569  970 1371 1772],569,1.1665819753777855,0.4693924443712629,-1.9750138962794928,-0.4693924443712629,Flight,"[-1.9030236e-07+2.59503224e-07j  7.6120944e-07-1.38401717e-07j
 -1.1418142e-06+1.03801284e-07j ...  2.2181055e-02-6.55404776e-02j
  4.5740902e-02-3.34499660e-03j -2.1820484e-02+8.63737427e-03j]",True,0,0,0,0,0,UAV,35.727367,-78.696236,0.133,-0.016431396827101707,0.021876467391848564,-0.07434719800949097,0.0,0.01,0.0,0,0.01,"                                  0
time     2023-12-15 16:20:08.574898
type                            UAV
lat                       35.727369
lon                      -78.696233
alt                           0.133
pitch                     -0.016431
yaw                        0.021876
roll                      -0.074347
vel_x                           0.0
vel_y                          0.01
vel_z                           0.0
heading                           0
speed                          0.01",70.49458421371689,70.39688145044433
0,27.0,3620,33.262943,31.071777,11.873,ZC,True,[ 1.85948629  1.7551651   1.72049167 -0.74162467],1.1483796,[-5.39690174 -5.26993205 -5.28993533 -4.51836831],-5.118784355648289,-289.06378,[68.76882631 68.8731475  68.90782094 71.36993728],69.47993300748382,144.54279225,[ 269  670 1071 1472],[ 569  970 1371 1772],569,1.1665819753777855,0.4694502579005839,-1.9750138962794928,-0.4694502579005839,Flight,"[-8.3041027e-07+6.2280770e-07j -1.3840172e-07+2.7680343e-07j
  3.4600430e-07-6.2280770e-07j ... -1.6559477e-01-1.7473269e-01j
 -1.9373404e-02-4.2283662e-02j  4.8158087e-02+8.9052767e-02j]",True,0,0,0,0,0,UAV,35.727367,-78.696236,0.127,-0.016376793384552002,0.02161910943686962,-0.07435739040374756,0.0,0.0,0.0,0,0.0,"                                  0
time     2023-12-15 16:20:08.980024
type                            UAV
lat                       35.727369
lon                      -78.696233
alt                           0.127
pitch                     -0.016377
yaw                        0.021619
roll                      -0.074357
vel_x                           0.0
vel_y                           0.0
vel_z                           0.0
heading                           0
speed                           0.0",70.31982789506348,70.21178454422329
0,27.4,3620,33.306686,31.071777,11.995,ZC,True,[-0.2086208  -0.67190638 -0.29780277 -2.60222276],-0.94513816,[-5.21584431 -5.44293774 -5.28633851 -4.50957748],-5.113674509524197,-215.16457,[70.83693341 71.30021899 70.92611537 73.23053536],71.57345078190617,144.54279225,[ 269  670 1071 1472],[ 569  970 1371 1772],569,1.1665819753777855,0.4706209699862656,-1.9750138962794928,-0.4706209699862656,Flight,"[ 2.5950322e-07+1.7300215e-08j -6.2280770e-07+6.9200860e-07j
  1.0726133e-06-5.5360687e-07j ...  5.6246154e-02-3.1268131e-02j
 -9.9527702e-02-2.6318990e-03j  3.4088794e-02-2.9603955e-03j]",True,0,0,0,0,0,UAV,35.727367,-78.696236,0.005,-0.01656893640756607,0.02146037667989731,-0.0743950679898262,0.0,0.0,0.0,0,0.0,"                                  0
time     2023-12-15 16:20:09.385373
type                            UAV
lat                       35.727369
lon                      -78.696233
alt                           0.005
pitch                     -0.016569
yaw                         0.02146
roll                      -0.074395
vel_x                           0.0
vel_y                           0.0
vel_z                           0.0
heading                           0
speed                           0.0",70.40741816702626,70.48614219389916
0,27.8,3620,33.307407,31.071777,11.997,ZC,True,[ 0.04127152 -0.31782986 -0.4548828  -2.89841053],-0.9074629,[-5.42576709 -5.58637461 -5.55643684 -4.72768089],-5.324064856182369,-418.35117,[70.58704108 70.94614246 71.0831954  73.52672314],71.53577552192222,144.54279225,[ 269  670 1071 1472],[ 569  970 1371 1772],569,1.1665819753777855,0.47064008539876206,-1.9750138962794928,-0.47064008539876206,Flight,"[-1.0726133e-06-3.4600429e-08j -2.9410364e-07+9.6881206e-07j
  1.2456154e-06-8.9961117e-07j ...  4.0561911e-02+8.7711670e-02j
  2.1540809e-02+3.1118691e-02j -3.6317851e-02-1.5077068e-02j]",True,0,0,0,0,0,UAV,35.727367,-78.696236,0.003,-0.016455357894301414,0.02132822573184967,-0.07444290071725845,0.0,0.0,0.0,0,0.0,"                                  0
time     2023-12-15 16:20:09.790527
type                            UAV
lat                       35.727369
lon                      -78.696233
alt                           0.003
pitch                     -0.016455
yaw                        0.021328
roll                      -0.074443
vel_x                           0.0
vel_y                           0.0
vel_z                           0.0
heading                           0
speed                           0.0",70.49986735090269,70.69731540612815
0,28.2,3620,33.307766,31.071777,11.998,ZC,True,[-0.45439252  0.02945043  0.02945741 -3.02402559],-0.8548776,[-5.60531358 -5.35178557 -5.56592    -4.77187977],-5.323724728585093,-184.13025,[71.08270512 70.59886217 70.59885519 73.6523382 ],71.48319017260611,144.54279225,[ 269  670 1071 1472],[ 569  970 1371 1772],569,1.1665819753777855,0.4706496421687219,-1.9750138962794928,-0.4706496421687219,Flight,"[-7.6120944e-07+1.38401717e-07j -1.3148164e-06+1.73002149e-07j
  8.9961117e-07-6.22807704e-07j ... -9.5474698e-02-2.15654418e-01j
  4.2684473e-02-1.11692265e-01j  2.3499088e-02+1.37728631e-01j]",True,0,0,0,0,0,UAV,35.727367,-78.696236,0.002,-0.016425756737589836,0.02106812596321106,-0.07455354183912277,0.0,0.0,0.0,0,0.0,"                                  0
time     2023-12-15 16:20:10.195691
type                            UAV
lat                       35.727369
lon                      -78.696233
alt                           0.002
pitch                     -0.016426
yaw                        0.021068
roll                      -0.074554
vel_x                           0.0
vel_y                           0.0
vel_z                           0.0
heading                           0
speed                           0.0",70.6259374145408,70.85523611890471
0,28.6,3620,33.31065,31.071777,12.006,ZC,True,[ 1.70992393  1.69374072  1.67799303 -0.70569336],1.093991,[-5.41977261 -5.20890701 -5.20355563 -4.461402  ],-5.073409313338841,-226.11182,[68.91838868 68.93457188 68.95031957 71.33400596],69.53432152282159,144.54279225,[ 269  670 1071 1472],[ 569  970 1371 1772],569,1.1665819753777855,0.47072607419013185,-1.9750138962794928,-0.47072607419013185,Flight,"[-5.8820729e-07+2.7680343e-07j -5.8820729e-07+1.5916197e-06j
  1.9376241e-06-5.1900645e-07j ...  8.4568672e-02+5.8085127e-03j
 -1.3875768e-01+7.6231979e-02j  5.8289465e-02-8.2858026e-02j]",True,0,0,0,0,0,UAV,35.727367,-78.696236,-0.006,-0.016494370996952057,0.02088790014386177,-0.07468477636575699,0.0,0.0,0.0,0,0.0,"                                  0
time     2023-12-15 16:20:10.600822
type                            UAV
lat                       35.727369
lon                      -78.696233
alt                          -0.006
pitch                     -0.016494
yaw                        0.020888
roll                      -0.074685
vel_x                           0.0
vel_y                           0.0
vel_z                           0.0
heading                           0
speed                           0.0",70.54989360040123,70.59005135999429
0,29.0,3620,33.31065,31.071777,12.006,ZC,True,[-0.54744693 -0.81133158 -0.47659563 -2.71809508],-1.1383673,[-5.72961951 -5.87436112 -5.75331433 -5.02437997],-5.595418732411561,-399.23373,[71.17575954 71.43964418 71.10490824 73.34640769],71.76667991058726,144.54279225,[ 269  670 1071 1472],[ 569  970 1371 1772],569,1.1665819753777855,0.47072607419013185,-1.9750138962794928,-0.47072607419013185,Flight,"[-7.9580985e-07+5.5360687e-07j -2.7680343e-07+5.5360687e-07j
 -1.1072137e-06-4.1520514e-07j ...  2.6426960e-02+1.3450806e-01j
  4.7906648e-02-9.5078520e-02j -8.2979836e-02-1.3196199e-01j]",True,0,0,0,0,0,UAV,35.727367,-78.696236,-0.006,-0.016494370996952057,0.02088790014386177,-0.07468477636575699,0.0,0.0,0.0,0,0.0,"                                  0
time     2023-12-15 16:20:10.803370
type                            UAV
lat                       35.727369
lon                      -78.696233
alt                          -0.006
pitch                     -0.016494
yaw                        0.020888
roll                      -0.074685
vel_x                           0.0
vel_y                           0.0
vel_z                           0.0
heading                           0
speed                           0.0",70.72305797693863,70.82609045450235
0,29.4,3620,33.313175,31.071777,12.013,ZC,True,[-0.6946118  -0.42905811 -0.62071164 -2.81275734],-1.1392847,[-5.93004816 -5.78206286 -6.16871252 -5.05779442],-5.734654488709898,-312.52686,[71.32292441 71.05737071 71.24902425 73.44106994],71.76759732653582,144.54279225,[ 269  670 1071 1472],[ 569  970 1371 1772],569,1.1665819753777855,0.47079291983343624,-1.9750138962794928,-0.47079291983343624,Flight,"[ 6.2280770e-07+3.46004299e-07j -3.1140385e-07+2.07602568e-07j
  4.1520514e-07+5.53606867e-07j ...  3.6640439e-02+1.01656266e-01j
 -1.5929865e-02-4.51714136e-02j -4.1518784e-03-5.06906658e-02j]",True,0,0,0,0,0,UAV,35.727367,-78.696236,-0.013,-0.016593782231211662,0.020662851631641388,-0.07464605569839478,0.0,0.0,0.01,0,0.01,"                                  0
time     2023-12-15 16:20:11.208562
type                            UAV
lat                       35.727369
lon                      -78.696233
alt                          -0.013
pitch                     -0.016594
yaw                        0.020663
roll                      -0.074646
vel_x                           0.0
vel_y                           0.0
vel_z                          0.01
heading                           0
speed                          0.01",70.91844607359354,71.01484821717493
0,29.8,3620,33.318584,31.071777,12.028,ZC,True,[-1.0468873  -0.46084753 -0.30357347 -2.59870414],-1.1025031,[-5.92790654 -6.23700359 -5.81060815 -5.05547978],-5.757749514694644,-513.52203,[71.6751999  71.08916013 70.93188607 73.22701674],71.73081571182772,144.54279225,[ 269  670 1071 1472],[ 569  970 1371 1772],569,1.1665819753777855,0.4709360587724229,-1.9750138962794928,-0.4709360587724229,Flight,"[ 2.4220301e-07+7.2660902e-07j -6.2280770e-07-6.9200858e-08j
  6.9200858e-08+1.3840172e-06j ...  3.5671659e-02+8.8375723e-03j
  7.6399237e-02+3.2778785e-02j -3.0793276e-02-3.6622342e-02j]",True,0,0,0,0,0,UAV,35.727367,-78.696236,-0.028,-0.016689252108335495,0.02057875692844391,-0.0745539739727974,0.0,0.0,0.01,0,0.01,"                                  0
time     2023-12-15 16:20:11.613641
type                            UAV
lat                       35.727369
lon                      -78.696233
alt                          -0.028
pitch                     -0.016689
yaw                        0.020579
roll                      -0.074554
vel_x                           0.0
vel_y                           0.0
vel_z                          0.01
heading                           0
speed                          0.01",70.94033302763222,71.15831922940315
0,30.2,3620,33.31931,31.071777,12.03,ZC,True,[-0.90796876 -1.11291307 -0.88140266 -3.50851975],-1.6027011,[-6.20248753 -6.28080976 -6.17289159 -5.31399747],-5.992546590622503,-888.7615,[71.53628136 71.74122567 71.50971526 74.13683235],72.23101366180143,144.54279225,[ 269  670 1071 1472],[ 569  970 1371 1772],569,1.1665819753777855,0.47095513348334217,-1.9750138962794928,-0.47095513348334217,Flight,"[-7.61209435e-07+3.46004299e-07j -1.03801284e-07+6.92008598e-07j
  1.69542102e-06-1.59161971e-06j ... -1.04143761e-01+7.15752617e-02j
 -1.76856630e-02+1.05280906e-01j  7.31832311e-02-3.28383669e-02j]",True,0,0,0,0,0,UAV,35.727367,-78.696236,-0.03,-0.016625402495265007,0.020587163046002388,-0.07452753931283951,0.0,0.0,0.01,0,0.01,"                                  0
time     2023-12-15 16:20:12.018796
type                            UAV
lat                       35.727369
lon                      -78.696233
alt                           -0.03
pitch                     -0.016625
yaw                        0.020587
roll                      -0.074528
vel_x                           0.0
vel_y                           0.0
vel_z                          0.01
heading                           0
speed                          0.01",71.050182642544,71.37319061324449
0,30.6,3620,33.319668,31.071777,12.031,ZC,True,[-0.13228659 -0.30824618 -0.6013305  -2.9749232 ],-1.0041966,[-6.13476722 -6.0245554  -6.30376002 -5.25273612],-5.928954689500567,-771.253,[70.7605992  70.93655878 71.22964311 73.60323581],71.63250922269015,144.54279225,[ 269  670 1071 1472],[ 569  970 1371 1772],569,1.1665819753777855,0.4709646699143672,-1.9750138962794928,-0.4709646699143672,Flight,"[ 7.4390925e-07-4.4980558e-07j  4.4980558e-07-2.0760257e-07j
 -8.9961117e-07+1.5743195e-06j ... -7.5310051e-02+8.4526561e-02j
  7.1244705e-03-2.5269732e-02j  2.7436411e-02-2.4810273e-02j]",True,0,0,0,0,0,UAV,35.727367,-78.696236,-0.031,-0.016855629161000252,0.020128712058067322,-0.07453744113445282,0.01,0.01,0.01,0,0.017320508075688773,"                                  0
time     2023-12-15 16:20:12.423990
type                            UAV
lat                       35.727369
lon                      -78.696233
alt                          -0.031
pitch                     -0.016856
yaw                        0.020129
roll                      -0.074537
vel_x                          0.01
vel_y                          0.01
vel_z                          0.01
heading                           0
speed                      0.017321",71.27352868401823,71.42511861889096
0,31.0,3620,33.322197,31.071777,12.038,ZC,True,[-0.51911554 -0.61308317 -0.51078367 -3.03091109],-1.1684734,[-6.50832226 -6.52147933 -6.29535256 -5.54711997],-6.218068530693003,-516.70215,[71.14742815 71.24139577 71.13909627 73.65922369],71.7967859711143,144.54279225,[ 269  670 1071 1472],[ 569  970 1371 1772],569,1.1665819753777855,0.47103140768295787,-1.9750138962794928,-0.47103140768295787,Landing,"[-1.3840172e-07+6.2280770e-07j  1.3840172e-06+6.9200858e-08j
 -1.5224189e-06-6.2280770e-07j ...  9.8807201e-02-5.2381556e-02j
  6.4187363e-02+2.2430767e-03j -8.3956145e-02+3.0060438e-02j]",True,0,0,0,0,0,UAV,35.727367,-78.696236,-0.038,-0.016956830397248268,0.019810285419225693,-0.07469575852155685,0.01,0.0,0.02,0,0.022360679774997897,"                                  0
time     2023-12-15 16:20:12.829199
type                            UAV
lat                       35.727369
lon                      -78.696233
alt                          -0.038
pitch                     -0.016957
yaw                         0.01981
roll                      -0.074696
vel_x                          0.01
vel_y                           0.0
vel_z                          0.02
heading                           0
speed                      0.022361",71.50521398038127,71.49952577861741
0,31.4,3620,33.324726,31.071777,12.045,ZC,True,[-1.14333392 -0.78751865 -0.98547534 -3.51456654],-1.6077236,[-6.33771075 -6.37824319 -6.47976336 -5.59825402],-6.198492829349416,-497.7028,[71.77164652 71.41583125 71.61378794 74.14287914],72.2360362154966,144.54279225,[ 269  670 1071 1472],[ 569  970 1371 1772],569,1.1665819753777855,0.47109811527224005,-1.9750138962794928,-0.47109811527224005,Flight,"[-3.4600430e-07+5.5360687e-07j -6.5740818e-07+2.7680343e-07j
 -6.8335845e-07-8.9961117e-07j ... -3.9092325e-02-6.8957619e-02j
 -4.8323651e-03+1.1148310e-02j  3.9672852e-02+7.5502776e-02j]",True,0,0,0,0,0,UAV,35.727367,-78.696236,-0.045,-0.01655026711523533,0.01995161734521389,-0.07469071447849274,0.01,0.0,0.01,0,0.01414213562373095,"                                  0
time     2023-12-15 16:20:13.234203
type                            UAV
lat                       35.727369
lon                      -78.696233
alt                          -0.045
pitch                      -0.01655
yaw                        0.019952
roll                      -0.074691
vel_x                          0.01
vel_y                           0.0
vel_z                          0.01
heading                           0
speed                      0.014142",71.57147252374031,71.64694466326675
0,31.8,3620,33.32934,31.067415,12.069,ZC,True,[-1.44633479 -1.13033885 -1.7834409  -3.86403889],-2.0560384,[-7.12155133 -6.96604387 -7.45749153 -6.19904113],-6.936031964392444,81.93636,[72.07464739 71.75865146 72.41175351 74.49235149],72.68435096280871,144.54279225,[ 269  670 1071 1472],[ 569  970 1371 1772],569,1.166910332945907,0.4711611936605851,-1.974685538711375,-0.4711611936605851,Landing,"[-7.6120944e-07-9.6881206e-07j  1.3840172e-07-1.2975161e-07j
  0.0000000e+00-8.3041027e-07j ...  3.0355580e-02-8.5263744e-02j
  2.5748254e-03+9.9762036e-03j -2.7803037e-02+2.3805788e-03j]",True,0,0,0,0,0,UAV,35.727367,-78.696236,-0.069,-0.016738086938858032,0.0197029709815979,-0.07459373027086258,0.01,0.0,0.02,0,0.022360679774997897,"                                  0
time     2023-12-15 16:20:13.639393
type                            UAV
lat                       35.727369
lon                      -78.696233
alt                          -0.069
pitch                     -0.016738
yaw                        0.019703
roll                      -0.074594
vel_x                          0.01
vel_y                           0.0
vel_z                          0.02
heading                           0
speed                      0.022361",71.68633006782896,71.85455751345222
0,32.2,3620,33.33224,31.067415,12.077,ZC,True,[-1.51654426 -1.49151456 -3.67126271],-2.2264404,[-7.23282372 -7.57335897 -6.27638431],-7.027522335211731,-418.47165,[72.14485686 72.11982716 74.29957532],72.85475311520409,144.54279225,[ 269  670 1472],[ 569  970 1772],569,1.166910332945907,0.47123730796329144,-1.974685538711375,-0.47123730796329144,Landing,"[ 1.3840172e-07+2.7680343e-07j -1.3840172e-07+1.2456154e-06j
  1.3840172e-06+1.1764146e-06j ... -1.6587099e-01-1.6853903e-01j
 -3.2359082e-02+2.4389150e-02j  6.3021049e-02+5.4015769e-03j]",True,0,0,0,0,0,UAV,35.727367,-78.696236,-0.077,-0.01682918332517147,0.019636129960417747,-0.07471241801977158,0.02,0.0,0.02,0,0.0282842712474619,"                                  0
time     2023-12-15 16:20:14.044311
type                            UAV
lat                       35.727369
lon                      -78.696233
alt                          -0.077
pitch                     -0.016829
yaw                        0.019636
roll                      -0.074712
vel_x                          0.02
vel_y                           0.0
vel_z                          0.02
heading                           0
speed                      0.028284",71.82348636208877,72.05469811714516
0,32.6,3620,33.33514,31.067415,12.085,ZC,True,[-1.26191201 -0.83664297 -0.77441947 -3.27240462],-1.5363448,[-7.25193529 -7.12287918 -7.31647871 -5.89770099],-6.897248541786507,-476.18365,[71.89022462 71.46495558 71.40273207 73.90071723],72.16465737327508,144.54279225,[ 269  670 1071 1472],[ 569  970 1371 1772],569,1.166910332945907,0.4713133828836655,-1.974685538711375,-0.4713133828836655,Landing,"[-6.5740818e-07+1.1072137e-06j  4.4980558e-07-1.3840172e-07j
  6.5740818e-07-4.8440603e-07j ...  8.4840059e-02+2.0591047e-01j
  4.8061345e-02+7.4004889e-02j -5.0355803e-02-1.3586728e-01j]",True,0,0,0,0,0,UAV,35.727367,-78.696236,-0.085,-0.01686716452240944,0.019194604828953743,-0.07463149726390839,0.01,0.0,0.02,0,0.022360679774997897,"                                  0
time     2023-12-15 16:20:14.449283
type                            UAV
lat                       35.727369
lon                      -78.696233
alt                          -0.085
pitch                     -0.016867
yaw                        0.019195
roll                      -0.074631
vel_x                          0.01
vel_y                           0.0
vel_z                          0.02
heading                           0
speed                      0.022361",72.08651994713412,72.07669889294608
0,33.0,3620,33.332603,31.067415,12.078,ZC,True,[-0.73136216 -0.91075815 -0.72912551 -2.94963026],-1.330219,[-7.33457918 -7.15949297 -6.46709806 -5.82229832],-6.695867134999175,-211.11719,[71.35967477 71.53907075 71.35743812 73.57794287],71.95853162645638,144.54279225,[ 269  670 1071 1472],[ 569  970 1371 1772],569,1.166910332945907,0.4712468194810524,-1.974685538711375,-0.4712468194810524,Landing,"[ 0.0000000e+00-1.38401717e-07j  3.8060472e-07+1.03801284e-07j
 -3.8060472e-07-1.31481636e-06j ...  3.1710427e-02+4.91502555e-03j
 -4.8440602e-04+4.44112234e-02j  8.2380162e-04+2.29189098e-02j]",True,0,0,0,0,0,UAV,35.727367,-78.696236,-0.078,-0.016986412927508354,0.018965288996696472,-0.07478947937488556,0.0,0.0,0.02,0,0.02,"                                  0
time     2023-12-15 16:20:14.854299
type                            UAV
lat                       35.727369
lon                      -78.696233
alt                          -0.078
pitch                     -0.016986
yaw                        0.018965
roll                      -0.074789
vel_x                           0.0
vel_y                           0.0
vel_z                          0.02
heading                           0
speed                          0.02",72.10570511872103,72.05305776766436
0,33.4,3620,33.33369,31.067415,12.081,ZC,True,[ 0.81007967  0.81652806  0.75935219 -1.7550255 ],0.1577336,[-6.10516121 -5.91814298 -5.91132177 -5.03822487],-5.743212704107642,-316.01968,[69.81823294 69.81178455 69.86896042 72.3833381 ],70.47057900132603,144.54279225,[ 269  670 1071 1472],[ 569  970 1371 1772],569,1.166910332945907,0.47127535035041707,-1.974685538711375,-0.47127535035041707,Landing,"[ 1.3840172e-07+1.7300215e-07j -3.1140385e-07+6.2280770e-07j
 -1.2629157e-06-1.0207127e-06j ... -5.8781665e-02-4.3962128e-02j
  8.1124410e-02-3.5275467e-02j  1.1841236e-02+4.2268645e-02j]",True,0,0,0,0,0,UAV,35.727367,-78.696236,-0.081,-0.016807032749056816,0.018934709951281548,-0.07469885051250458,0.0,0.0,0.02,0,0.02,"                                  0
time     2023-12-15 16:20:15.259651
type                            UAV
lat                       35.727369
lon                      -78.696233
alt                          -0.081
pitch                     -0.016807
yaw                        0.018935
roll                      -0.074699
vel_x                           0.0
vel_y                           0.0
vel_z                          0.02
heading                           0
speed                          0.02",71.97600328620004,71.73647982606411
0,33.8,3620,33.33514,31.067415,12.085,ZC,True,[-1.6565401  -1.28904175 -1.59238425 -3.71724978],-2.063804,[-8.12741525 -7.7804628  -7.73069716 -6.73877962],-7.59433870840882,-547.4584,[72.2848527  71.91735436 72.22069685 74.34556238],72.69211657460264,139.1893555,[ 268  669 1070 1471],[ 568  969 1370 1771],568,1.166910332945907,0.4713133828836655,-1.974685538711375,-0.4713133828836655,Landing,"[ 6.5740818e-07-3.2870409e-07j -6.9200858e-08-7.2660902e-07j
 -1.5743195e-06+6.4010794e-07j ...  6.4820372e-02-2.4207948e-02j
 -6.6390127e-02-2.6407670e-02j -9.0639284e-03+1.3306110e-02j]",True,0,0,0,0,0,UAV,35.727367,-78.696236,-0.085,-0.01676388457417488,0.01887618377804756,-0.07502930611371994,0.0,0.0,0.02,0,0.02,"                                  0
time     2023-12-15 16:20:15.665854
type                            UAV
lat                       35.727369
lon                      -78.696233
alt                          -0.085
pitch                     -0.016764
yaw                        0.018876
roll                      -0.075029
vel_x                           0.0
vel_y                           0.0
vel_z                          0.02
heading                           0
speed                          0.02",72.07213337247754,71.9276468796155
0,34.2,3620,33.342106,31.071777,12.093,ZC,True,[ 0.47977581  0.68615647  0.72221995 -1.9288171 ],-0.010166216,[-6.23463668 -6.19369995 -6.20103579 -5.21614941],-5.961380458513528,31.639032,[70.1485368  69.94215613 69.90609265 72.5571297 ],70.63847882045286,144.54279225,[ 269  670 1071 1472],[ 569  970 1371 1772],569,1.1665819753777855,0.4715547260622004,-1.9750138962794928,-0.4715547260622004,Landing,"[-1.9030236e-07-8.4771051e-07j  6.9200858e-08+6.0550752e-07j
  3.4600429e-08+9.8611224e-07j ...  1.3894537e-02-4.1977793e-02j
 -4.7193393e-02+2.4253223e-02j  1.8525347e-02-3.3448961e-02j]",True,0,0,0,0,0,UAV,35.727367,-78.696236,-0.093,-0.01694559119641781,0.01890038140118122,-0.07520781457424164,0.0,0.0,0.02,0,0.02,"                                  0
time     2023-12-15 16:20:16.071757
type                            UAV
lat                       35.727369
lon                      -78.696233
alt                          -0.093
pitch                     -0.016946
yaw                          0.0189
roll                      -0.075208
vel_x                           0.0
vel_y                           0.0
vel_z                          0.02
heading                           0
speed                          0.02",71.91287988834267,71.6697704207069
0,34.6,3620,33.34247,31.071777,12.094,ZC,True,[ 0.44278475  0.58771761  0.64222716 -1.96744869],-0.07367979,[-6.37783777 -6.21368369 -6.24779964 -5.27814048],-6.029365393684971,-167.27223,[70.18552785 70.040595   69.98608544 72.59576129],70.70199239517355,144.54279225,[ 269  670 1071 1472],[ 569  970 1371 1772],569,1.1665819753777855,0.4715642237113789,-1.9750138962794928,-0.4715642237113789,Landing,"[ 2.7680343e-07+4.3250537e-07j  4.8440603e-07-6.5740818e-07j
 -1.9030236e-06-1.5570193e-06j ...  9.8615199e-02+1.8436527e-02j
  6.9315523e-02-2.4595542e-02j -1.9318752e-02+1.4435818e-02j]",True,0,0,0,0,0,UAV,35.727367,-78.696236,-0.094,-0.016884591430425644,0.01853548362851143,-0.07517354935407639,0.0,0.0,0.02,0,0.02,"                                  0
time     2023-12-15 16:20:16.476680
type                            UAV
lat                       35.727369
lon                      -78.696233
alt                          -0.094
pitch                     -0.016885
yaw                        0.018535
roll                      -0.075174
vel_x                           0.0
vel_y                           0.0
vel_z                          0.02
heading                           0
speed                          0.02",71.81982820559102,71.47618908422703
0,35.0,3620,33.342106,31.071777,12.093,ZC,True,[ 0.49064044  0.73381409  0.76318334 -1.76222171],0.05635404,[-6.1694252  -6.20488333 -6.22802049 -5.33156266],-5.983472918554934,-4.8012223,[70.13767216 69.89449851 69.86512927 72.39053432],70.57195856485609,144.54279225,[ 269  670 1071 1472],[ 569  970 1371 1772],569,1.1665819753777855,0.4715547260622004,-1.9750138962794928,-0.4715547260622004,Landing,"[-1.03801284e-07-4.4980558e-07j -1.10721373e-06+1.3840172e-07j
  9.34211585e-07+3.4600429e-08j ... -5.58086932e-02-1.2733165e-02j
 -4.03503291e-02+8.7323353e-02j  4.43130471e-02-3.8240161e-02j]",True,0,0,0,0,0,UAV,35.727367,-78.696236,-0.093,-0.01658441126346588,0.01864125393331051,-0.07497727870941162,0.0,0.0,0.02,0,0.02,"                                  0
time     2023-12-15 16:20:16.881920
type                            UAV
lat                       35.727369
lon                      -78.696233
alt                          -0.093
pitch                     -0.016584
yaw                        0.018641
roll                      -0.074977
vel_x                           0.0
vel_y                           0.0
vel_z                          0.02
heading                           0
speed                          0.02",71.6973454649652,71.29532374745132
0,35.4,3620,33.34138,31.071777,12.091,ZC,True,[-0.56479756 -0.7044914  -0.65751188 -3.14073569],-1.2668841,[-7.19271344 -7.10333961 -7.08912704 -6.12806588],-6.87831149331919,-141.56453,[71.19311017 71.332804   71.28582448 73.76904829],71.89519673504518,144.54279225,[ 269  670 1071 1472],[ 569  970 1371 1772],569,1.1665819753777855,0.47153572891790035,-1.9750138962794928,-0.47153572891790035,Flight,"[-5.0170621e-07-4.1520514e-07j  5.8820729e-07+3.4600429e-08j
  1.5916197e-06+3.4600429e-08j ... -3.8922022e-03+1.4779192e-02j
  3.9882071e-02-6.3112862e-02j -7.9651568e-03+2.4018338e-02j]",True,0,0,0,0,0,UAV,35.727367,-78.696236,-0.091,-0.011929651722311974,0.018521949648857117,-0.07022495567798615,-0.01,-0.01,0.0,0,0.01414213562373095,"                                  0
time     2023-12-15 16:20:17.286665
type                            UAV
lat                       35.727369
lon                      -78.696233
alt                          -0.091
pitch                      -0.01193
yaw                        0.018522
roll                      -0.070225
vel_x                         -0.01
vel_y                         -0.01
vel_z                           0.0
heading                           0
speed                      0.014142",71.66326151692007,71.41530855214842
0,35.8,3620,33.34145,31.093199,12.036,ZC,True,[-3.51535985  0.47770197  0.4967292  -1.7671341 ],-1.0770156,[-8.2276077  -6.00855652 -6.01697793 -5.26426714],-6.379352321317151,-117.98317,[74.14367245 70.15061063 70.13158341 72.39544671],71.70532830080123,139.1893555,[ 268  670 1071 1472],[ 568  970 1371 1772],568,1.1657121590591542,0.47141426550002047,-1.975883713617262,-0.47141426550002047,Landing,"[ 3.4600430e-07+6.9200858e-08j -4.1520514e-07-5.1900645e-07j
  7.6120944e-07+5.8820729e-07j ...  1.4330460e-02-5.4974891e-03j
 -9.9899486e-02+2.7262993e-02j  4.3916423e-02+3.2991163e-02j]",True,0,0,0,0,0,UAV,35.727367,-78.696236,-0.036,0.0029653427191078663,0.0064585949294269085,0.00823999848216772,-0.08,-0.06,-0.21,0,0.23259406699226012,"                                  0
time     2023-12-15 16:20:17.691835
type                            UAV
lat                       35.727368
lon                      -78.696233
alt                          -0.036
pitch                      0.002965
yaw                        0.006459
roll                        0.00824
vel_x                         -0.08
vel_y                         -0.06
vel_z                         -0.21
heading                           0
speed                      0.232594",71.56535925071931,71.47331644969191
0,36.2,3620,33.266132,31.115105,11.768,ZC,True,[-0.89894612 -1.03431553 -1.26276436 -3.39890539],-1.6487329,[-7.1289446  -6.94828293 -7.07011184 -6.06110833],-6.802111923715106,-695.88495,[71.52725873 71.66262814 71.89107696 74.02721799],72.2770454551039,144.54279225,[ 269  670 1071 1472],[ 569  970 1371 1772],569,1.1640734971356097,0.4696701726694562,-1.977522375540787,-0.4696701726694562,Landing,"[ 4.8440603e-07-6.2280770e-07j -3.4600430e-07+2.7680343e-07j
 -3.1140385e-07-1.3840172e-07j ... -1.0520053e-02-1.2289069e-01j
  8.2004815e-02+9.2647910e-02j -3.9704822e-02-1.2115686e-02j]",True,0,0,0,0,0,UAV,35.727367,-78.696236,0.232,-0.021550044417381287,0.003198934718966484,0.008427736349403858,-0.14,0.08,-0.85,0,0.8651589449343976,"                                  0
time     2023-12-15 16:20:18.096927
type                            UAV
lat                       35.727368
lon                      -78.696233
alt                           0.232
pitch                      -0.02155
yaw                        0.003199
roll                       0.008428
vel_x                         -0.14
vel_y                          0.08
vel_z                         -0.85
heading                           0
speed                      0.865159",71.50758848470929,71.63407100308469
0,36.6,3620,33.1649,31.111677,11.488,ZC,True,[-0.59181849 -0.52161651 -2.83939894],-1.3176113,[-7.17813438 -6.97912105 -6.03129552],-6.729516980793345,-226.58452,[71.22013109 71.14992912 73.46771154],71.94592391772015,144.54279225,[ 269  670 1471],[ 569  970 1771],569,1.1628607998359686,0.4676279535439144,-1.9787350708021165,-0.4676279535439144,Landing,"[ 0.0000000e+00+6.2280770e-07j -1.3840172e-07-1.9030236e-07j
 -1.7300215e-07-9.6881206e-07j ... -5.8225196e-02+3.7104636e-02j
  3.7625510e-02+4.0364929e-02j -5.1580244e-03-5.0172500e-02j]",True,0,0,0,0,0,UAV,35.727367,-78.696236,0.512,-0.02698497660458088,0.0011934719514101744,-0.0023983451537787914,-0.11,0.12,-1.29,0,1.3002307487519282,"                                  0
time     2023-12-15 16:20:18.502132
type                            UAV
lat                       35.727368
lon                      -78.696233
alt                           0.512
pitch                     -0.026985
yaw                        0.001193
roll                      -0.002398
vel_x                         -0.11
vel_y                          0.12
vel_z                         -1.29
heading                           0
speed                      1.300231",71.4857151391538,71.69644430275214
0,37.0,3620,32.821827,31.071218,10.576,ZC,True,[-1.92027078 -1.87302268 -1.78136621 -3.85226532],-2.3567312,[-6.49200163 -6.96555746 -6.91672581 -6.13077896],-6.626265964684807,84.752045,[72.54858339 72.50133529 72.40967881 74.48057792],72.98504385105767,139.1893555,[ 268  669 1070 1471],[ 568  969 1370 1771],568,1.1607410151709665,0.4597482574032292,-1.9808548483330546,-0.4597482574032292,Landing,"[-6.4010794e-07+5.5360687e-07j  5.7090710e-07+1.2975161e-07j
 -7.6120944e-07-5.9685738e-07j ... -7.8348972e-02+4.2977512e-02j
  1.0496871e-02-6.7183655e-03j  3.8300280e-02+1.6022108e-02j]",True,0,0,0,0,0,UAV,35.727367,-78.696236,1.424,-0.030347753316164017,9.412841609446332e-05,-0.013821503147482872,-0.04,0.11,-1.97,0,1.9734740940787645,"                                  0
time     2023-12-15 16:20:18.907632
type                            UAV
lat                       35.727367
lon                      -78.696232
alt                           1.424
pitch                     -0.030348
yaw                        0.000094
roll                      -0.013822
vel_x                         -0.04
vel_y                          0.11
vel_z                         -1.97
heading                           0
speed                      1.973474",71.58836636161394,71.95417319295434
0,37.4,3620,32.61947,31.050758,9.994,ZC,True,[-1.78002725 -1.96395692 -1.91589427 -3.37595968],-2.2589595,[-4.92686032 -5.4201007  -5.44830276 -4.84116106],-5.159106211447737,313.3115,[72.40833985 72.59226952 72.54420688 74.00427229],72.887272133416,139.1893555,[ 268  669 1070 1471],[ 568  969 1370 1771],568,1.1600648309848658,0.4540529618607878,-1.9815310294617017,-0.4540529618607878,Landing,"[ 6.9200860e-07-6.4875803e-07j -1.5743195e-06-2.9410364e-07j
  1.7300215e-08+3.7195463e-07j ... -6.3965814e-03+2.2707224e-02j
 -5.5755530e-02+1.9649237e-02j  3.4517821e-02-7.8426721e-03j]",True,0,0,0,0,0,UAV,35.727367,-78.696236,2.006,-0.026637786999344826,0.0008575146202929318,-0.01892889104783535,-0.01,0.08,-2.22,0,2.221463481581455,"                                  0
time     2023-12-15 16:20:19.312852
type                            UAV
lat                       35.727367
lon                      -78.696232
alt                           2.006
pitch                     -0.026638
yaw                        0.000858
roll                      -0.018929
vel_x                         -0.01
vel_y                          0.08
vel_z                         -2.22
heading                           0
speed                      2.221463",71.83003567482292,72.14079818339212
