index,time,center_freq,dist,h_dist,v_dist,wav_type,detected,power,avgPower,snr,avgSnr,freq_offset,path_loss,avg_pl,est_dist,peaks,orig_peaks,start_point,aod_theta,aod_phi,aoa_theta,aoa_phi,stage,corr,save_corr,rsrp,shadowing,multipath,delay,doppler,type,lat,lon,alt,pitch,yaw,roll,vel_x,vel_y,vel_z,heading,speed,vehicle,avg_pl_rolling,avg_pl_ewma
0,41.0,3564,33.371258,31.076143,12.162,ZC,True,[-0.39694642 -0.38804014 -0.38200644 -3.08988413],-1.0642192,[-8.56573262 -8.04592152 -7.98186163 -6.99817948],-7.897923813145946,-192.90877,[71.02525902 71.01635274 71.01031905 73.71819673],71.69253188554403,0.0,[ 242  643 1044 1445],[ 542  943 1344 1745],542,1.1662537099336838,0.47237354565354844,-1.9753421617235905,-0.47237354565354844,Flight,"[-2.9410364e-07-2.4220301e-07j  8.6501075e-07+5.1900642e-08j
 -4.8440603e-07-1.4532180e-06j ... -7.2540246e-02+5.3712599e-02j
 -1.1872998e-02-1.9180471e-02j  2.9266808e-02+2.1455727e-04j]",True,0,0,0,0,0,UAV,35.727367,-78.696236,-0.162,-0.017265884205698967,-0.009333055466413498,-0.05993928387761116,0.0,0.0,0.0,0,0.0,"                                  0
time     2023-12-15 15:52:33.994266
type                            UAV
lat                       35.727369
lon                      -78.696233
alt                          -0.162
pitch                     -0.017266
yaw                       -0.009333
roll                      -0.059939
vel_x                           0.0
vel_y                           0.0
vel_z                           0.0
heading                           0
speed                           0.0",,71.69253188554403
0,41.4,3564,33.366886,31.076143,12.15,ZC,True,[-0.2549739  -0.2306807  -0.21495154 -2.95646284],-0.91426724,[-8.43630567 -7.92868455 -7.92831643 -6.75259157],-7.761474557074643,-41.005234,[70.8832865  70.85899331 70.84326414 73.58477544],71.54257984695111,0.0,[ 242  643 1044 1445],[ 542  943 1344 1745],542,1.1662537099336838,0.47226008273691933,-1.9753421617235905,-0.47226008273691933,Flight,"[-3.3735418e-07+5.5360687e-07j  8.6501075e-07-1.1937148e-06j
 -4.4980558e-07-5.1900645e-07j ... -6.4952269e-02-4.1131951e-02j
 -4.7643095e-02+1.0172362e-01j  3.5798710e-02-3.4485575e-02j]",True,0,0,0,0,0,UAV,35.727367,-78.696236,-0.15,-0.017360137775540352,-0.009293545968830585,-0.05982284992933273,0.0,0.0,0.0,0,0.0,"                                  0
time     2023-12-15 15:52:34.400119
type                            UAV
lat                       35.727369
lon                      -78.696233
alt                           -0.15
pitch                      -0.01736
yaw                       -0.009294
roll                      -0.059823
vel_x                           0.0
vel_y                           0.0
vel_z                           0.0
heading                           0
speed                           0.0",,71.60922519743684
0,41.8,3564,33.365067,31.076143,12.145,ZC,True,[-0.32516818 -0.31057445 -0.27801809 -3.01593138],-0.982423,[-8.67567962 -7.97481725 -8.03736899 -6.97857384],-7.916609927305435,-69.9058,[70.95348078 70.93888706 70.90633069 73.64424399],71.61073562942565,0.0,[ 242  643 1044 1445],[ 542  943 1344 1745],542,1.1662537099336838,0.47221278042967174,-1.9753421617235905,-0.47221278042967174,Flight,"[ 6.2280770e-07+4.67105792e-07j  5.7090710e-07-1.03801284e-07j
 -7.6120944e-07+1.36671690e-06j ... -3.0678021e-02+3.86134908e-02j
 -5.9594259e-02+9.21058580e-02j  3.9338335e-02-7.50147030e-02j]",True,0,0,0,0,0,UAV,35.727367,-78.696236,-0.145,-0.01737707294523716,-0.009330172091722488,-0.05982980877161026,0.0,0.0,0.0,0,0.0,"                                  0
time     2023-12-15 15:52:34.806691
type                            UAV
lat                       35.727369
lon                      -78.696233
alt                          -0.145
pitch                     -0.017377
yaw                        -0.00933
roll                       -0.05983
vel_x                           0.0
vel_y                           0.0
vel_z                           0.0
heading                           0
speed                           0.0",,71.60984422694045
0,42.2,3564,33.365795,31.076143,12.147,ZC,True,[-0.23936916 -0.23168352 -0.17657525 -2.9478892 ],-0.8988793,[-8.66022153 -8.02666551 -8.04127437 -6.94091083],-7.917268057144447,-165.1192,[70.86768176 70.85999612 70.80488785 73.5762018 ],71.52719188345569,0.0,[ 242  643 1044 1445],[ 542  943 1344 1745],542,1.1662537099336838,0.4722317031952677,-1.9753421617235905,-0.4722317031952677,Flight,"[-1.2110151e-07+0.0000000e+00j -1.2456154e-06-1.0380129e-06j
 -6.9200858e-08+1.0380129e-06j ...  7.6577708e-02+1.3274589e-01j
 -1.1068643e-01-1.3953678e-01j  3.0513599e-03+1.1199207e-02j]",True,0,0,0,0,0,UAV,35.727367,-78.696236,-0.147,-0.017395026981830597,-0.009249458089470863,-0.059673380106687546,0.0,0.0,0.0,0,0.0,"                                  0
time     2023-12-15 15:52:35.212639
type                            UAV
lat                       35.727369
lon                      -78.696233
alt                          -0.147
pitch                     -0.017395
yaw                       -0.009249
roll                      -0.059673
vel_x                           0.0
vel_y                           0.0
vel_z                           0.0
heading                           0
speed                           0.0",,71.58184546559737
0,42.6,3564,33.367615,31.076143,12.152,ZC,True,[-0.28675215 -0.23878141 -0.23568519 -2.98581079],-0.9367574,[-8.83695834 -7.98154084 -8.01611037 -6.9890938 ],-7.955925838230404,-700.94916,[70.91506475 70.86709401 70.8639978  73.61412339],71.56506998748401,0.0,[ 242  643 1044 1445],[ 542  943 1344 1745],542,1.1662537099336838,0.4722789993516547,-1.9753421617235905,-0.4722789993516547,Flight,"[-3.46004299e-07-3.46004299e-07j -2.42203015e-07+2.76803434e-07j
  3.63304508e-07+1.21101507e-07j ... -1.19079314e-01+4.41475511e-02j
  9.37895477e-02+1.08554125e-01j  1.19934082e-02-7.47707114e-02j]",True,0,0,0,0,0,UAV,35.727367,-78.696236,-0.152,-0.01758217252790928,-0.009384462609887123,-0.059678059071302414,0.0,0.0,0.0,0,0.0,"                                  0
time     2023-12-15 15:52:35.617728
type                            UAV
lat                       35.727369
lon                      -78.696233
alt                          -0.152
pitch                     -0.017582
yaw                       -0.009384
roll                      -0.059678
vel_x                           0.0
vel_y                           0.0
vel_z                           0.0
heading                           0
speed                           0.0",,71.57685514012337
0,43.0,3564,33.3698,31.076143,12.158,ZC,True,[-0.43409498 -0.3660154  -0.33020414 -3.02226262],-1.0381442,[-8.88291052 -8.02412956 -8.05698341 -7.04787473],-8.002974554594518,-321.48062,[71.06240758 70.99432801 70.95851674 73.65057523],71.66645688876595,0.0,[ 242  643 1044 1445],[ 542  943 1344 1745],542,1.1662537099336838,0.4723357344977011,-1.9753421617235905,-0.4723357344977011,Flight,"[ 0.0000000e+00+4.8440603e-07j -8.8231093e-07+1.3840172e-07j
  3.2870409e-07+7.2660902e-07j ... -9.9301413e-02-6.4629816e-02j
  4.1482732e-02+2.2557110e-02j  2.4434822e-04+3.0243266e-02j]",True,0,0,0,0,0,UAV,35.727367,-78.696236,-0.158,-0.0175920482724905,-0.009255507029592991,-0.059774454683065414,0.0,0.0,0.0,0,0.0,"                                  0
time     2023-12-15 15:52:36.022888
type                            UAV
lat                       35.727369
lon                      -78.696233
alt                          -0.158
pitch                     -0.017592
yaw                       -0.009256
roll                      -0.059774
vel_x                           0.0
vel_y                           0.0
vel_z                           0.0
heading                           0
speed                           0.0",,71.60114219576637
0,43.4,3564,33.37272,31.076143,12.166,ZC,True,[-0.22417822 -0.2389102  -0.19606054 -2.92834599],-0.8968737,[-8.59732696 -8.03697167 -8.07657661 -6.85905192],-7.892481789431024,-63.473534,[70.85249082 70.86722281 70.82437315 73.5566586 ],71.52518634286508,0.0,[ 242  643 1044 1445],[ 542  943 1344 1745],542,1.1662537099336838,0.47241134700164766,-1.9753421617235905,-0.47241134700164766,Flight,"[ 1.7300215e-07+3.6330451e-07j -3.4600430e-07-3.4600430e-07j
 -4.8440603e-07+7.9580985e-07j ...  1.7000617e-01-9.8895848e-02j
 -5.8114152e-02+1.5345135e-02j -3.9795961e-02+2.4262063e-02j]",True,0,0,0,0,0,UAV,35.727367,-78.696236,-0.166,-0.017669571563601494,-0.00929858349263668,-0.059627894312143326,0.0,0.0,0.0,0,0.0,"                                  0
time     2023-12-15 15:52:36.428007
type                            UAV
lat                       35.727369
lon                      -78.696233
alt                          -0.166
pitch                      -0.01767
yaw                       -0.009299
roll                      -0.059628
vel_x                           0.0
vel_y                           0.0
vel_z                           0.0
heading                           0
speed                           0.0",,71.58191979571481
0,43.8,3564,33.374905,31.076143,12.172,ZC,True,[-0.24615148 -0.21067283 -0.20085615 -2.92249472],-0.8950438,[-8.74185759 -8.05163562 -8.02461844 -6.87049769],-7.922152335879012,-237.3008,[70.87446409 70.83898543 70.82916875 73.55080732],71.52335639837219,0.0,[ 242  643 1044 1445],[ 542  943 1344 1745],542,1.1662537099336838,0.4724680306122526,-1.9753421617235905,-0.4724680306122526,Flight,"[ 9.8611224e-07-6.2280770e-07j -1.1418142e-06-1.1072137e-06j
  1.9030236e-07+7.6120944e-07j ... -1.2135284e-01+1.8454547e-01j
  1.4559036e-01+1.5297922e-01j -5.1209744e-02-1.6202281e-01j]",True,0,0,0,0,0,UAV,35.727367,-78.696236,-0.172,-0.017769111320376396,-0.0092897554859519,-0.059618011116981506,0.0,0.0,0.0,0,0.0,"                                  0
time     2023-12-15 15:52:36.833418
type                            UAV
lat                       35.727369
lon                      -78.696233
alt                          -0.172
pitch                     -0.017769
yaw                        -0.00929
roll                      -0.059618
vel_x                           0.0
vel_y                           0.0
vel_z                           0.0
heading                           0
speed                           0.0",,71.56784591004845
0,44.2,3564,33.376728,31.076143,12.177,ZC,True,[-0.33418799 -0.25238512 -0.19138578 -2.91496896],-0.92323196,[-8.70082852 -7.95730777 -7.95571105 -7.01425895],-7.907026571794026,-1.4462692,[70.96250059 70.88069772 70.81969838 73.54328156],71.5515445645114,0.0,[ 242  643 1044 1445],[ 542  943 1344 1745],542,1.1662537099336838,0.4725152500991284,-1.9753421617235905,-0.4725152500991284,Flight,"[-5.53606867e-07-1.1072137e-06j -1.24561541e-06+8.6501073e-09j
  2.42203015e-07+1.0899136e-06j ...  1.12215765e-01+1.2220735e-01j
 -4.85870317e-02+1.6484596e-03j -2.70701293e-02-2.7069991e-02j]",True,0,0,0,0,0,UAV,35.727367,-78.696236,-0.177,-0.01778418757021427,-0.009174543432891369,-0.0596013069152832,0.0,0.0,0.0,0,0.0,"                                  0
time     2023-12-15 15:52:37.238740
type                            UAV
lat                       35.727369
lon                      -78.696233
alt                          -0.177
pitch                     -0.017784
yaw                       -0.009175
roll                      -0.059601
vel_x                           0.0
vel_y                           0.0
vel_z                           0.0
heading                           0
speed                           0.0",,71.564080218358
0,44.6,3564,33.376728,31.076143,12.177,ZC,True,[-0.28892335 -0.23137388 -0.18579511 -2.92989819],-0.90899765,[-8.67561071 -8.05955617 -8.03719624 -7.04604594],-7.95460226525794,291.70697,[70.91723595 70.85968649 70.81410772 73.5582108 ],71.53731023805001,0.0,[ 242  643 1044 1445],[ 542  943 1344 1745],542,1.1662537099336838,0.4725152500991284,-1.9753421617235905,-0.4725152500991284,Flight,"[-1.1072137e-06+9.1691135e-07j  5.1900645e-07-3.8060472e-07j
  1.6608205e-06-1.1072137e-06j ... -7.9689495e-02-8.8747747e-02j
  6.9735266e-02-1.3099049e-01j -8.8202721e-03+1.0498442e-01j]",True,0,0,0,0,0,UAV,35.727367,-78.696236,-0.177,-0.01768523082137108,-0.00911624263972044,-0.059497084468603134,0.0,0.0,0.0,0,0.0,"                                  0
time     2023-12-15 15:52:37.643925
type                            UAV
lat                       35.727369
lon                      -78.696233
alt                          -0.177
pitch                     -0.017685
yaw                       -0.009116
roll                      -0.059497
vel_x                           0.0
vel_y                           0.0
vel_z                           0.0
heading                           0
speed                           0.0",71.57419636654251,71.5580821887738
0,45.0,3564,33.376728,31.076143,12.177,ZC,True,[-0.41785479 -0.33979675 -0.28695428 -3.04267975],-1.0218214,[-8.92130123 -8.13206241 -8.2169687  -7.11535925],-8.09642290020943,-347.32318,[71.0461674  70.96810935 70.91526689 73.67099236],71.65013399995414,0.0,[ 242  643 1044 1445],[ 542  943 1344 1745],542,1.1662537099336838,0.4725152500991284,-1.9753421617235905,-0.4725152500991284,Flight,"[ 0.0000000e+00+1.03801284e-07j  8.3041027e-07-8.65010747e-07j
  5.1900642e-08-3.80604718e-07j ... -1.6275834e-01+5.79481060e-03j
  2.0427221e-01+1.79043375e-02j -3.6315139e-02-2.50554513e-02j]",True,0,0,0,0,0,UAV,35.727367,-78.696236,-0.177,-0.01768523082137108,-0.00911624263972044,-0.059497084468603134,0.0,0.0,0.0,0,0.0,"                                  0
time     2023-12-15 15:52:37.846481
type                            UAV
lat                       35.727369
lon                      -78.696233
alt                          -0.177
pitch                     -0.017685
yaw                       -0.009116
roll                      -0.059497
vel_x                           0.0
vel_y                           0.0
vel_z                           0.0
heading                           0
speed                           0.0",71.56995657798352,71.5782225990819
0,45.4,3564,33.37527,31.076143,12.173,ZC,True,[-0.48487159 -0.35102524 -0.30707755 -3.05697607],-1.0499877,[-9.06741872 -8.24956477 -8.23365604 -7.23017024],-8.1952024413846,-29.990091,[71.11318419 70.97933785 70.93539016 73.68528868],71.67830021923484,0.0,[ 242  643 1044 1445],[ 542  943 1344 1745],542,1.1662537099336838,0.4724774757420403,-1.9753421617235905,-0.4724774757420403,Flight,"[-6.5740818e-07-1.3840172e-07j -4.8440603e-07-3.1140385e-07j
 -6.9200860e-07+6.9200860e-07j ... -2.3371936e-01-4.5690041e-02j
 -4.6051096e-02-5.0808221e-02j  5.8808964e-02+3.1159382e-02j]",True,0,0,0,0,0,UAV,35.727367,-78.696236,-0.173,-0.017581090331077576,-0.009095503948628902,-0.05944740027189255,0.0,0.0,0.0,0,0.0,"                                  0
time     2023-12-15 15:52:38.252301
type                            UAV
lat                       35.727369
lon                      -78.696233
alt                          -0.173
pitch                     -0.017581
yaw                       -0.009096
roll                      -0.059447
vel_x                           0.0
vel_y                           0.0
vel_z                           0.0
heading                           0
speed                           0.0",71.58352861521189,71.59971507479742
0,45.8,3564,33.377457,31.076143,12.179,ZC,True,[-0.34000253 -0.24310957 -0.25869819 -3.01418218],-0.96399814,[-8.80472071 -8.24358442 -8.26814615 -7.13347345],-8.112481182566992,39.863247,[70.96831513 70.87142218 70.8870108  73.64249478],71.59231072216664,0.0,[ 242  643 1044 1445],[ 542  943 1344 1745],542,1.1662537099336838,0.4725341335921426,-1.9753421617235905,-0.4725341335921426,Flight,"[ 7.8715976e-07-3.8060472e-07j -8.3041027e-07-3.4600429e-08j
 -6.9200860e-07+8.6501075e-07j ... -9.0686962e-02+9.1631830e-02j
 -3.5609569e-02+2.0043060e-02j  2.6459606e-02-4.3184310e-02j]",True,0,0,0,0,0,UAV,35.727367,-78.696236,-0.179,-0.017587406560778618,-0.009144941344857216,-0.05942599102854729,0.0,0.01,0.01,0,0.01414213562373095,"                                  0
time     2023-12-15 15:52:38.658724
type                            UAV
lat                       35.727369
lon                      -78.696233
alt                          -0.179
pitch                     -0.017587
yaw                       -0.009145
roll                      -0.059426
vel_x                           0.0
vel_y                          0.01
vel_z                          0.01
heading                           0
speed                      0.014142",71.581686124486,71.59814805653103
0,46.2,3564,33.370445,31.067825,12.181,ZC,True,[-0.35764886 -0.26806362 -0.27037847 -2.9988468 ],-0.97373444,[-8.91467987 -8.1478241  -8.29523803 -7.16826378],-8.131501444516948,-265.46643,[70.98596146 70.89637622 70.89869108 73.62715941],71.60204704104345,0.0,[ 242  643 1044 1445],[ 542  943 1344 1745],542,1.1661390888030367,0.472646977858804,-1.9754567818350874,-0.472646977858804,Flight,"[-3.4600430e-07-1.4532180e-06j -2.0760257e-07+6.2280770e-07j
  8.6501075e-08+4.1520514e-07j ...  1.6405366e-01+2.0484699e-01j
  6.4502121e-03-6.8955715e-03j -6.5645419e-02-8.3346568e-02j]",True,0,0,0,0,0,UAV,35.727367,-78.696236,-0.181,-0.017574556171894073,-0.009118901565670967,-0.059375517070293427,0.0,0.01,0.01,0,0.01414213562373095,"                                  0
time     2023-12-15 15:52:39.064749
type                            UAV
lat                       35.727369
lon                      -78.696233
alt                          -0.181
pitch                     -0.017575
yaw                       -0.009119
roll                      -0.059376
vel_x                           0.0
vel_y                          0.01
vel_z                          0.01
heading                           0
speed                      0.014142",71.58917164024476,71.59896372700011
0,46.6,3564,33.369713,31.067825,12.179,ZC,True,[-0.32877724 -0.26990694 -0.28441103 -2.98601386],-0.9672773,[-8.81485016 -8.06652878 -8.16877952 -7.06731378],-8.02936806108109,-407.16272,[70.95708985 70.89821955 70.91272363 73.61432646],71.5955898712061,0.0,[ 242  643 1044 1445],[ 542  943 1344 1745],542,1.1661390888030367,0.4726280983518632,-1.9754567818350874,-0.4726280983518632,Flight,"[-2.0760257e-07-9.6881206e-07j -1.3840172e-07+5.5360687e-07j
  1.0380129e-06+3.4600429e-08j ... -7.7673118e-03-1.3579409e-01j
 -6.7809679e-02-3.9196316e-02j  2.6001029e-02+1.5380167e-02j]",True,0,0,0,0,0,UAV,35.727367,-78.696236,-0.179,-0.01766178198158741,-0.009160955436527729,-0.05925167724490166,0.0,0.01,0.0,0,0.01,"                                  0
time     2023-12-15 15:52:39.470024
type                            UAV
lat                       35.727369
lon                      -78.696233
alt                          -0.179
pitch                     -0.017662
yaw                       -0.009161
roll                      -0.059252
vel_x                           0.0
vel_y                          0.01
vel_z                           0.0
heading                           0
speed                          0.01",71.59222362861698,71.59826434865333
0,47.0,3564,33.366745,31.06346,12.182,ZC,True,[-0.38327966 -0.37707533 -0.35346723 -2.99044586],-1.026067,[-8.88729545 -8.37996849 -8.42302387 -7.28315645],-8.243361067208385,-453.10635,[71.01159226 71.00538794 70.98177984 73.61875847],71.65437962646818,0.0,[ 242  643 1044 1445],[ 542  943 1344 1745],542,1.1664674260315895,0.4724915740907152,-1.9751284446065387,-0.4724915740907152,Flight,"[ 6.92008584e-08+6.22807704e-07j  1.76462186e-06+3.97904927e-07j
  1.03801284e-07-1.34941672e-06j ... -6.49958476e-02-5.39223813e-02j
 -1.20105013e-01-1.14791125e-01j  9.57046524e-02+6.45167232e-02j]",True,0,0,0,0,0,UAV,35.727367,-78.696236,-0.182,-0.017804283648729324,-0.00918299239128828,-0.05941800773143768,0.0,0.01,0.0,0,0.01,"                                  0
time     2023-12-15 15:52:39.875039
type                            UAV
lat                       35.727369
lon                      -78.696233
alt                          -0.182
pitch                     -0.017804
yaw                       -0.009183
roll                      -0.059418
vel_x                           0.0
vel_y                          0.01
vel_z                           0.0
heading                           0
speed                          0.01",71.5910159023872,71.6098124544987
0,47.4,3564,33.366745,31.06346,12.182,ZC,True,[-0.5002843  -0.43746421 -0.3369099  -3.06059283],-1.0838128,[-8.92785675 -8.46183622 -8.41592094 -7.32393844],-8.282388085417777,-116.26102,[71.12859691 71.06577681 70.96522251 73.68890544],71.71212541639224,0.0,[ 242  643 1044 1445],[ 542  943 1344 1745],542,1.1664674260315895,0.4724915740907152,-1.9751284446065387,-0.4724915740907152,Flight,"[ 4.1520514e-07-6.92008584e-08j -2.7680343e-07-1.10721373e-06j
 -6.9200858e-08+9.34211585e-07j ... -4.8682563e-02+1.12541355e-02j
 -1.5555817e-02+5.18737957e-02j  6.7139366e-03-1.27262110e-02j]",True,0,0,0,0,0,UAV,35.727367,-78.696236,-0.182,-0.017835307866334915,-0.009103088639676571,-0.05953177809715271,0.0,0.01,0.0,0,0.01,"                                  0
time     2023-12-15 15:52:40.280269
type                            UAV
lat                       35.727369
lon                      -78.696233
alt                          -0.182
pitch                     -0.017835
yaw                       -0.009103
roll                      -0.059532
vel_x                           0.0
vel_y                          0.01
vel_z                           0.0
heading                           0
speed                          0.01",71.60970980973993,71.63074643828531
0,47.8,3564,33.368256,31.067825,12.175,ZC,True,[-0.4147264  -0.40367017 -0.37395538 -3.05223325],-1.0611463,[-8.8123857  -8.50824348 -8.63490996 -7.44563788],-8.350294253454884,-179.66293,[71.043039   71.03198278 71.00226799 73.68054585],71.68945890583672,0.0,[ 242  643 1044 1445],[ 542  943 1344 1745],542,1.1661390888030367,0.47259033199454487,-1.9754567818350874,-0.47259033199454487,Flight,"[ 1.0380129e-06-1.3148164e-06j -1.2975161e-06+1.2110150e-06j
  7.6120944e-07+7.6120944e-07j ...  2.7642768e-02-6.4228892e-02j
  5.3175513e-02+7.5280048e-02j -4.7641054e-02-3.2777723e-02j]",True,0,0,0,0,0,UAV,35.727367,-78.696236,-0.175,-0.017642972990870476,-0.009108520112931728,-0.059600211679935455,0.0,0.01,0.0,0,0.01,"                                  0
time     2023-12-15 15:52:40.685366
type                            UAV
lat                       35.727369
lon                      -78.696233
alt                          -0.175
pitch                     -0.017643
yaw                       -0.009109
roll                        -0.0596
vel_x                           0.0
vel_y                          0.01
vel_z                           0.0
heading                           0
speed                          0.01",71.62632006048636,71.64270434631621
0,48.2,3564,33.36789,31.067825,12.174,ZC,True,[-0.58443664 -0.47059969 -0.41838942 -3.09067126],-1.1410242,[-8.78673301 -8.60090973 -8.62456349 -7.66717008],-8.419844078625282,-193.38399,[71.21274924 71.0989123  71.04670202 73.71898386],71.76933685663857,0.0,[ 242  643 1044 1445],[ 542  943 1344 1745],542,1.1661390888030367,0.472580888871164,-1.9754567818350874,-0.472580888871164,Flight,"[ 4.8440603e-07+9.6881206e-07j  5.8820729e-07-5.5360687e-07j
 -3.4600430e-07-1.5916197e-06j ... -1.2167166e-01-8.5474119e-02j
 -5.9279531e-02+4.1331943e-02j  4.0163349e-02+1.7212814e-02j]",True,0,0,0,0,0,UAV,35.727367,-78.696236,-0.174,-0.01755697838962078,-0.009086698293685913,-0.05958293378353119,0.0,0.01,0.0,0,0.01,"                                  0
time     2023-12-15 15:52:41.090475
type                            UAV
lat                       35.727369
lon                      -78.696233
alt                          -0.174
pitch                     -0.017557
yaw                       -0.009087
roll                      -0.059583
vel_x                           0.0
vel_y                          0.01
vel_z                           0.0
heading                           0
speed                          0.01",71.64809928969909,71.66840117876481
0,48.6,3564,33.363876,31.067825,12.163,ZC,True,[-0.45702855 -0.43480129 -0.39385093 -3.13728454],-1.1057414,[-8.72845749 -8.60548093 -8.77394112 -7.62626404],-8.433535895525038,-197.52817,[71.08534115 71.0631139  71.02216353 73.76559714],71.73405393130446,0.0,[ 242  643 1044 1445],[ 542  943 1344 1745],542,1.1661390888030367,0.4724769740203838,-1.9754567818350874,-0.4724769740203838,Flight,"[ 5.1900642e-08-4.8440603e-07j -6.9200860e-07-6.9200858e-08j
 -1.0380129e-06-2.7680343e-07j ...  2.2506196e-02+2.7535021e-01j
  5.7965405e-03+1.6004670e-02j -5.7680300e-03-9.7049639e-02j]",True,0,0,0,0,0,UAV,35.727367,-78.696236,-0.163,-0.01764739863574505,-0.009026280604302883,-0.05961534008383751,0.0,0.0,0.0,0,0.0,"                                  0
time     2023-12-15 15:52:41.495571
type                            UAV
lat                       35.727369
lon                      -78.696233
alt                          -0.163
pitch                     -0.017647
yaw                       -0.009026
roll                      -0.059615
vel_x                           0.0
vel_y                           0.0
vel_z                           0.0
heading                           0
speed                           0.0",71.66777365902453,71.68168487991996
0,49.0,3564,33.35987,31.067825,12.152,ZC,True,[-0.44432265 -0.33856602 -0.31392113 -2.95553072],-1.0130851,[-8.34528552 -8.71689661 -8.67445634 -7.45153407],-8.297043137884847,188.22992,[71.07263526 70.96687863 70.94223373 73.58384333],71.64139773613731,0.0,[ 242  643 1044 1445],[ 542  943 1344 1745],542,1.1661390888030367,0.4723729849179519,-1.9754567818350874,-0.4723729849179519,Flight,"[-2.9410364e-07-6.4010794e-07j  6.9200858e-08+3.4600430e-07j
  4.1520514e-07+7.9580985e-07j ... -9.5120937e-02-9.2154779e-03j
  1.1109727e-01+3.8868807e-02j -2.0966407e-02+2.6242004e-03j]",True,0,0,0,0,0,UAV,35.727367,-78.696236,-0.152,-0.017641117796301842,-0.009130509570240974,-0.05967777222394943,0.0,0.0,0.0,0,0.0,"                                  0
time     2023-12-15 15:52:41.900716
type                            UAV
lat                       35.727369
lon                      -78.696233
alt                          -0.152
pitch                     -0.017641
yaw                       -0.009131
roll                      -0.059678
vel_x                           0.0
vel_y                           0.0
vel_z                           0.0
heading                           0
speed                           0.0",71.66690003264286,71.6735524426691
0,49.4,3564,33.360962,31.067825,12.155,ZC,True,[-0.57959986 -0.52253727 -0.52873702 -3.13736309],-1.1920593,[-8.4194994  -8.49318407 -8.56908624 -7.36273282],-8.211125634158797,-233.41582,[71.20791246 71.15084988 71.15704963 73.7656757 ],71.82037191661153,0.0,[ 242  643 1044 1445],[ 542  943 1344 1745],542,1.1661390888030367,0.472401352953542,-1.9754567818350874,-0.472401352953542,Flight,"[ 1.0380129e-06+7.2660902e-07j  3.4600430e-07-1.1072137e-06j
 -1.0034124e-06-5.1900642e-08j ...  2.2505856e-01+1.8686162e-01j
  2.9679140e-02+2.7377936e-03j -1.1410772e-01-4.5319453e-02j]",True,0,0,0,0,0,UAV,35.727367,-78.696236,-0.155,-0.017617782577872276,-0.009145932272076607,-0.059601347893476486,0.0,0.0,0.0,0,0.0,"                                  0
time     2023-12-15 15:52:42.305824
type                            UAV
lat                       35.727369
lon                      -78.696233
alt                          -0.155
pitch                     -0.017618
yaw                       -0.009146
roll                      -0.059601
vel_x                           0.0
vel_y                           0.0
vel_z                           0.0
heading                           0
speed                           0.0",71.68110720238052,71.70313461536514
0,49.8,3564,33.3606,31.067825,12.154,ZC,True,[-0.58892596 -0.48269802 -0.44101728 -3.07132003],-1.1459904,[-7.98915024 -8.41595597 -8.40131702 -7.14905085],-7.988868516662748,-61.54508,[71.21723856 71.11101062 71.06932989 73.69963264],71.77430292672275,-10.706873499999999,[ 240  643 1044 1445],[ 540  943 1344 1745],540,1.1661390888030367,0.4723918975572966,-1.9754567818350874,-0.4723918975572966,Flight,"[-4.4980558e-07-2.0760257e-07j -8.6501075e-08+8.4771051e-07j
  8.9961117e-07-6.0550754e-08j ...  7.0667222e-02-3.5350911e-02j
  9.5247783e-02+3.9143465e-03j -7.2786413e-02-8.1164474e-03j]",True,0,0,0,0,0,UAV,35.727367,-78.696236,-0.154,-0.017737004905939102,-0.009160610847175121,-0.05973295122385025,0.0,0.0,0.0,0,0.0,"                                  0
time     2023-12-15 15:52:42.710971
type                            UAV
lat                       35.727369
lon                      -78.696233
alt                          -0.154
pitch                     -0.017737
yaw                       -0.009161
roll                      -0.059733
vel_x                           0.0
vel_y                           0.0
vel_z                           0.0
heading                           0
speed                           0.0",71.69930642283614,71.71745279726454
0,50.2,3564,33.358776,31.067825,12.149,ZC,True,[-0.6270295  -0.42552626 -0.43965138 -3.22523087],-1.1793596,[-8.18234455 -8.44145992 -8.50610796 -7.19665228],-8.081641175058122,16.145145,[71.2553421  71.05383887 71.06796398 73.85354348],71.80767210649108,0.0,[ 242  643 1044 1445],[ 542  943 1344 1745],542,1.1661390888030367,0.47234461136589384,-1.9754567818350874,-0.47234461136589384,Flight,"[ 5.1900645e-07-8.1311009e-07j -2.0587256e-06-5.0170621e-07j
 -4.8440603e-07+0.0000000e+00j ... -2.6825504e-02+1.1669003e-01j
 -6.7953184e-02-3.2834806e-02j  2.7619870e-02-2.0752991e-02j]",True,0,0,0,0,0,UAV,35.727367,-78.696236,-0.149,-0.017803212627768517,-0.0090350192040205,-0.059732548892498016,0.0,0.0,0.0,0,0.0,"                                  0
time     2023-12-15 15:52:43.116055
type                            UAV
lat                       35.727369
lon                      -78.696233
alt                          -0.149
pitch                     -0.017803
yaw                       -0.009035
roll                      -0.059733
vel_x                           0.0
vel_y                           0.0
vel_z                           0.0
heading                           0
speed                           0.0",71.7198689293809,71.73558227313907
0,50.6,3564,33.35441,31.067825,12.137,ZC,True,[-0.56858926 -0.51817067 -0.53529015 -3.09965413],-1.180426,[-7.85514445 -8.05138361 -8.07524764 -6.97226541],-7.738510277607277,-252.03333,[71.19690187 71.14648328 71.16360275 73.72796673],71.80873865612497,-10.706873499999999,[ 240  643 1044 1445],[ 540  943 1344 1745],540,1.1661390888030367,0.47223106188835917,-1.9754567818350874,-0.47223106188835917,Flight,"[-3.1140385e-07-8.99611166e-07j  1.5570193e-06-1.03801284e-07j
 -4.4980558e-07-1.00341242e-06j ...  4.7183912e-03-9.22103133e-03j
 -6.2057097e-02+1.16367266e-01j  1.9622751e-02-4.11695987e-02j]",True,0,0,0,0,0,UAV,35.727367,-78.696236,-0.137,-0.017821472138166428,-0.009023912250995636,-0.05971439927816391,0.0,0.0,0.0,0,0.0,"                                  0
time     2023-12-15 15:52:43.521318
type                            UAV
lat                       35.727369
lon                      -78.696233
alt                          -0.137
pitch                     -0.017821
yaw                       -0.009024
roll                      -0.059714
vel_x                           0.0
vel_y                           0.0
vel_z                           0.0
heading                           0
speed                           0.0",71.74118380787279,71.75026903475289
0,51.0,3564,33.35477,31.067825,12.138,ZC,True,[-0.66994381 -0.41371193 -0.4046463  -2.92071727],-1.1022549,[-7.62364059 -7.90870967 -7.87575054 -6.8315432 ],-7.559910997288936,-200.66707,[71.29825641 71.04202453 71.0329589  73.54902988],71.73056743151615,-10.706873499999999,[ 240  643 1044 1445],[ 540  943 1344 1745],540,1.1661390888030367,0.47224052772108444,-1.9754567818350874,-0.47224052772108444,Flight,"[ 2.7680343e-07-4.8440603e-07j -1.0380129e-06+3.7195463e-07j
  6.9200858e-08+5.6225696e-07j ... -9.9798240e-02+2.1551708e-02j
  4.1224994e-02-2.2265861e-02j  9.3088653e-03+4.7911908e-03j]",True,0,0,0,0,0,UAV,35.727367,-78.696236,-0.138,-0.01785661280155182,-0.009038346819579601,-0.05969862639904022,0.0,0.0,0.0,0,0.0,"                                  0
time     2023-12-15 15:52:43.926618
type                            UAV
lat                       35.727369
lon                      -78.696233
alt                          -0.138
pitch                     -0.017857
yaw                       -0.009038
roll                      -0.059699
vel_x                           0.0
vel_y                           0.0
vel_z                           0.0
heading                           0
speed                           0.0",71.74880258837757,71.7463167691156
0,51.4,3564,33.3555,31.067825,12.14,ZC,True,[-0.59559297 -0.53681611 -0.55819447 -2.99258196],-1.1707964,[-7.48051653 -7.68119132 -7.66386083 -6.6630112 ],-7.372144969838973,-158.83151,[71.22390557 71.16512871 71.18650707 73.62089456],71.79910897996129,5.353436749999999,[ 243  644 1045 1446],[ 543  944 1345 1746],543,1.1661390888030367,0.4722594575465079,-1.9754567818350874,-0.4722594575465079,Flight,"[-4.1520514e-07+8.6501075e-07j  5.0170621e-07-7.2660902e-07j
 -3.8060472e-07+3.8060472e-07j ...  5.8710769e-02-2.4751071e-02j
 -4.7930520e-02-2.7976764e-02j -1.4739506e-02+4.1109461e-02j]",True,0,0,0,0,0,UAV,35.727367,-78.696236,-0.14,-0.01780732534825802,-0.009045453742146492,-0.059775158762931824,0.0,0.0,0.0,0,0.0,"                                  0
time     2023-12-15 15:52:44.331873
type                            UAV
lat                       35.727369
lon                      -78.696233
alt                           -0.14
pitch                     -0.017807
yaw                       -0.009045
roll                      -0.059775
vel_x                           0.0
vel_y                           0.0
vel_z                           0.0
heading                           0
speed                           0.0",71.75750094473449,71.75690080190576
0,51.8,3564,33.35987,31.067825,12.152,ZC,True,[-0.62705001 -0.53316498 -0.52160757 -2.89305611],-1.1437197,[-7.36057089 -7.51782723 -7.53403313 -6.58269212],-7.248780841729898,-0.3709007,[71.25536261 71.16147759 71.14992017 73.52136871],71.77203227207451,5.353436749999999,[ 243  644 1045 1446],[ 543  944 1345 1746],543,1.1661390888030367,0.4723729849179519,-1.9754567818350874,-0.4723729849179519,Flight,"[-3.4600429e-08+4.8440603e-07j  5.1900645e-07+7.9580985e-07j
 -7.9580985e-07-8.8231093e-07j ...  1.2836683e-01+9.1269702e-02j
  3.4096994e-02-1.1111106e-01j -6.5340988e-02+6.4392090e-03j]",True,0,0,0,0,0,UAV,35.727367,-78.696236,-0.152,-0.01770801842212677,-0.009127074852585793,-0.05992039665579796,0.0,0.0,0.0,0,0.0,"                                  0
time     2023-12-15 15:52:44.737225
type                            UAV
lat                       35.727369
lon                      -78.696233
alt                          -0.152
pitch                     -0.017708
yaw                       -0.009127
roll                       -0.05992
vel_x                           0.0
vel_y                           0.0
vel_z                           0.0
heading                           0
speed                           0.0",71.76575828135826,71.75993296098815
0,52.2,3564,33.358414,31.067825,12.148,ZC,True,[-0.65583776 -0.56842399 -0.54945073 -3.03817117],-1.2029709,[-7.20754851 -7.35254264 -7.28842844 -6.34451437],-7.048258489700537,43.52178,[71.28415036 71.19673659 71.17776334 73.66648377],71.83128351636802,5.353436749999999,[ 243  644 1045 1446],[ 543  944 1345 1746],543,1.1661390888030367,0.47233515228634837,-1.9754567818350874,-0.47233515228634837,Flight,"[-3.9790493e-07+0.0000000e+00j  1.4878185e-06+1.2110151e-07j
 -1.3840172e-07-2.0760257e-07j ... -8.7511368e-02+6.7641638e-02j
 -9.6920922e-02-7.5910576e-03j  1.0223556e-01+2.6887024e-02j]",True,0,0,0,0,0,UAV,35.727367,-78.696236,-0.148,-0.017762169241905212,-0.009355781599879265,-0.05994310975074768,0.0,0.0,0.0,0,0.0,"                                  0
time     2023-12-15 15:52:45.142435
type                            UAV
lat                       35.727369
lon                      -78.696233
alt                          -0.148
pitch                     -0.017762
yaw                       -0.009356
roll                      -0.059943
vel_x                           0.0
vel_y                           0.0
vel_z                           0.0
heading                           0
speed                           0.0",71.77195294733122,71.77422518821454
0,52.6,3564,33.358414,31.067825,12.148,ZC,True,[-0.71387617 -0.59351364 -0.59079273 -3.12348333],-1.2554165,[-6.97708677 -7.25832744 -7.24526031 -6.2610281 ],-6.935425656244363,-85.49685,[71.34218877 71.22182624 71.21910534 73.75179593],71.88372907060018,5.353436749999999,[ 243  644 1045 1446],[ 543  944 1345 1746],543,1.1661390888030367,0.47233515228634837,-1.9754567818350874,-0.47233515228634837,Flight,"[ 2.0760257e-07+6.9200858e-08j -3.8060472e-07+1.2110150e-06j
  8.9961117e-07-7.9580985e-07j ...  5.8287191e-03+1.5716037e-01j
 -6.3455284e-02+7.8891732e-02j  3.5309184e-02-3.3966601e-02j]",True,0,0,0,0,0,UAV,35.727367,-78.696236,-0.148,-0.017783071845769882,-0.009356437250971794,-0.06010042876005173,0.0,0.0,0.0,0,0.0,"                                  0
time     2023-12-15 15:52:45.547528
type                            UAV
lat                       35.727369
lon                      -78.696233
alt                          -0.148
pitch                     -0.017783
yaw                       -0.009356
roll                        -0.0601
vel_x                           0.0
vel_y                           0.0
vel_z                           0.0
heading                           0
speed                           0.0",71.78692046126078,71.7961531101442
0,53.0,3564,33.358414,31.067825,12.148,ZC,True,[-0.7416799  -0.59415655 -0.59298364 -3.11376196],-1.2606455,[-6.80774551 -7.05217769 -7.06651407 -6.07020458],-6.749160461756191,218.5225,[71.36999251 71.22246916 71.22129624 73.74207456],71.88895811597577,5.353436749999999,[ 243  644 1045 1446],[ 543  944 1345 1746],543,1.1661390888030367,0.47233515228634837,-1.9754567818350874,-0.47233515228634837,Flight,"[-1.3840172e-07+1.03801284e-07j -6.9200860e-07+2.42203015e-07j
  6.9200860e-07-1.38401717e-07j ...  3.7985355e-02-6.20336570e-02j
 -1.9422881e-02+7.57089928e-02j -1.6480565e-02+1.33060971e-02j]",True,0,0,0,0,0,UAV,35.727367,-78.696236,-0.148,-0.01791924051940441,-0.009182281792163849,-0.06018085777759552,0.0,0.0,0.0,0,0.0,"                                  0
time     2023-12-15 15:52:45.952889
type                            UAV
lat                       35.727369
lon                      -78.696233
alt                          -0.148
pitch                     -0.017919
yaw                       -0.009182
roll                      -0.060181
vel_x                           0.0
vel_y                           0.0
vel_z                           0.0
heading                           0
speed                           0.0",71.81167649924463,71.81473251145836
0,53.4,3564,33.358414,31.067825,12.148,ZC,True,[-0.65989604 -0.4574518  -0.42221388 -3.0095213 ],-1.1372708,[-6.56979846 -6.82479968 -6.81345313 -5.8773891 ],-6.5213600911437535,-7.778601,[71.28820864 71.08576441 71.05052649 73.6378339 ],71.76558335935229,5.353436749999999,[ 243  644 1045 1446],[ 543  944 1345 1746],543,1.1661390888030367,0.47233515228634837,-1.9754567818350874,-0.47233515228634837,Flight,"[-5.7090710e-07+0.0000000e+00j  5.5360687e-07+7.6120944e-07j
  3.4600430e-07-7.6120944e-07j ... -4.6608612e-02-1.4836825e-01j
 -1.3448118e-01-8.6958215e-02j  8.0110684e-02+6.4638719e-02j]",True,0,0,0,0,0,UAV,35.727367,-78.696236,-0.148,-0.018003473058342934,-0.009212291799485683,-0.06008845940232277,0.0,0.0,0.0,0,0.0,"                                  0
time     2023-12-15 15:52:46.358060
type                            UAV
lat                       35.727369
lon                      -78.696233
alt                          -0.148
pitch                     -0.018003
yaw                       -0.009212
roll                      -0.060088
vel_x                           0.0
vel_y                           0.0
vel_z                           0.0
heading                           0
speed                           0.0",71.8061976435187,71.80489488686794
0,53.8,3564,33.35987,31.067825,12.152,ZC,True,[-0.63123547 -0.52926551 -0.52670029 -3.04558216],-1.1831958,[-6.49673277 -6.59149167 -6.62328914 -5.63662165],-6.337033807604181,-108.95833,[71.25954808 71.15757812 71.1550129  73.67389477],71.81150846514039,5.353436749999999,[ 243  644 1045 1446],[ 543  944 1345 1746],543,1.1661390888030367,0.4723729849179519,-1.9754567818350874,-0.4723729849179519,Flight,"[-1.5916197e-06+1.3840172e-07j  1.1677645e-06+1.3840172e-07j
 -5.0170621e-07-6.2280770e-07j ... -2.9754017e-02+1.0778864e-02j
 -7.7603087e-02+1.3731250e-01j  5.9754942e-02-3.1769421e-02j]",True,0,0,0,0,0,UAV,35.727367,-78.696236,-0.152,-0.017949046567082405,-0.009312856942415237,-0.060010623186826706,0.0,0.0,0.0,0,0.0,"                                  0
time     2023-12-15 15:52:46.763475
type                            UAV
lat                       35.727369
lon                      -78.696233
alt                          -0.152
pitch                     -0.017949
yaw                       -0.009313
roll                      -0.060011
vel_x                           0.0
vel_y                           0.0
vel_z                           0.0
heading                           0
speed                           0.0",71.80991819736046,71.80621844142479
0,54.2,3564,33.35987,31.067825,12.152,ZC,True,[-0.47928102 -0.35401106 -0.31029848 -2.6879537 ],-0.95788604,[-6.18986177 -6.34389685 -6.37436286 -5.51342391],-6.105386346409277,121.800354,[71.10759363 70.98232366 70.93861108 73.31626631],71.58619866909693,5.353436749999999,[ 243  644 1045 1446],[ 543  944 1345 1746],543,1.1661390888030367,0.4723729849179519,-1.9754567818350874,-0.4723729849179519,Flight,"[-1.1072137e-06+1.1418142e-06j  1.0034124e-06+1.3494167e-06j
  9.6881206e-07-5.1900645e-07j ...  8.4604435e-02-2.2298257e-01j
  1.5538892e-01-2.1442439e-02j -1.2369252e-01+1.3727367e-01j]",True,0,0,0,0,0,UAV,35.727367,-78.696236,-0.152,-0.017971022054553032,-0.0094465222209692,-0.06014380604028702,0.0,0.0,0.0,0,0.0,"                                  0
time     2023-12-15 15:52:47.168815
type                            UAV
lat                       35.727369
lon                      -78.696233
alt                          -0.152
pitch                     -0.017971
yaw                       -0.009447
roll                      -0.060144
vel_x                           0.0
vel_y                           0.0
vel_z                           0.0
heading                           0
speed                           0.0",71.78777085362105,71.76219216298391
0,54.6,3564,33.368343,31.076143,12.154,ZC,True,[-0.36907259 -0.21119446 -0.21227472 -2.43854933],-0.80777276,[-6.09466544 -6.38288434 -6.39439599 -5.57684081],-6.112196647293942,81.63426,[70.9973852  70.83950706 70.84058733 73.06686194],71.43608538035005,5.353436749999999,[ 243  644 1045 1446],[ 543  944 1345 1746],543,1.1662537099336838,0.4722979135258498,-1.9753421617235905,-0.4722979135258498,Flight,"[-5.53606867e-07+6.9200860e-07j  1.24561541e-06+2.7680343e-07j
  9.68812060e-07-1.8684232e-06j ...  1.24192044e-01-4.8753805e-02j
 -4.09267731e-02+1.8923182e-02j -6.18918650e-02-4.2879533e-02j]",True,0,0,0,0,0,UAV,35.727367,-78.696236,-0.154,-0.018080415204167366,-0.00955185852944851,-0.06013140827417374,0.0,0.0,0.0,0,0.0,"                                  0
time     2023-12-15 15:52:47.573741
type                            UAV
lat                       35.727369
lon                      -78.696233
alt                          -0.154
pitch                      -0.01808
yaw                       -0.009552
roll                      -0.060131
vel_x                           0.0
vel_y                           0.0
vel_z                           0.0
heading                           0
speed                           0.0",71.75050552604355,71.69694433879522
0,55.0,3564,33.363876,31.067825,12.163,ZC,True,[-0.7157028  -0.47307924 -0.4126931  -2.79407474],-1.0988874,[-6.01059701 -6.23723712 -6.2402746  -5.33070787],-5.954704147586979,-134.14915,[71.3440154  71.10139185 71.0410057  73.42238735],71.72720007532173,5.353436749999999,[ 243  644 1045 1446],[ 543  944 1345 1746],543,1.1661390888030367,0.4724769740203838,-1.9754567818350874,-0.4724769740203838,Flight,"[-1.3840172e-07+4.4980558e-07j  8.3041027e-07-1.7300215e-07j
 -2.2490279e-07-6.9200860e-07j ...  1.3309713e-01-8.7346705e-03j
 -1.5538554e-01-5.1534053e-02j  3.2471463e-02+2.9480916e-02j]",True,0,0,0,0,0,UAV,35.727367,-78.696236,-0.163,-0.018135899677872658,-0.009649434126913548,-0.060088977217674255,0.01,0.0,0.0,0,0.01,"                                  0
time     2023-12-15 15:52:47.979006
type                            UAV
lat                       35.727369
lon                      -78.696233
alt                          -0.163
pitch                     -0.018136
yaw                       -0.009649
roll                      -0.060089
vel_x                          0.01
vel_y                           0.0
vel_z                           0.0
heading                           0
speed                          0.01",71.75016879042411,71.70299745044757
0,55.4,3564,33.36169,31.067825,12.157,ZC,True,[-0.40330919 -0.29244266 -0.30747114 -2.57023848],-0.8933654,[-5.76988461 -5.88085752 -5.88226933 -5.08253948],-5.653887734261289,-23.840256,[71.0316218  70.92075527 70.93578375 73.19855108],71.52167797221499,5.353436749999999,[ 243  644 1045 1446],[ 543  944 1345 1746],543,1.1661390888030367,0.47242026189479736,-1.9754567818350874,-0.47242026189479736,Flight,"[ 8.9961117e-07-4.4980558e-07j -2.4220301e-07-8.3041027e-07j
 -7.6120944e-07+1.3840172e-07j ...  8.9629695e-02-1.3374180e-01j
 -1.0049303e-01-1.0163468e-01j  4.9409844e-02+6.9796123e-02j]",True,0,0,0,0,0,UAV,35.727367,-78.696236,-0.157,-0.018103884533047676,-0.009665270335972309,-0.06009168177843094,0.01,0.0,0.0,0,0.01,"                                  0
time     2023-12-15 15:52:48.383981
type                            UAV
lat                       35.727369
lon                      -78.696233
alt                          -0.157
pitch                     -0.018104
yaw                       -0.009665
roll                      -0.060092
vel_x                          0.01
vel_y                           0.0
vel_z                           0.0
heading                           0
speed                          0.01",71.72242568964948,71.66672413771067
0,55.8,3564,33.35987,31.067825,12.152,ZC,True,[-0.43963268 -0.28677582 -0.25781014 -2.49507343],-0.86982304,[-5.55828989 -5.784285   -5.74341252 -5.03609358],-5.530520249778529,137.61786,[71.06794528 70.91508843 70.88612274 73.12338604],71.49813562359557,5.353436749999999,[ 243  644 1045 1446],[ 543  944 1345 1746],543,1.1661390888030367,0.4723729849179519,-1.9754567818350874,-0.4723729849179519,Flight,"[-3.1140385e-07+3.8060472e-07j  6.2280770e-07+2.2144275e-06j
  1.0034124e-06-8.3041027e-07j ... -4.4381659e-02+1.7031372e-01j
 -2.0221615e-02+4.6033945e-02j -5.8293417e-03-1.0290860e-01j]",True,0,0,0,0,0,UAV,35.727367,-78.696236,-0.152,-0.018038304522633553,-0.009636582806706429,-0.06008221209049225,0.01,0.0,0.0,0,0.01,"                                  0
time     2023-12-15 15:52:48.789176
type                            UAV
lat                       35.727369
lon                      -78.696233
alt                          -0.152
pitch                     -0.018038
yaw                       -0.009637
roll                      -0.060082
vel_x                          0.01
vel_y                           0.0
vel_z                           0.0
heading                           0
speed                          0.01",71.69503602480158,71.63299943054001
0,56.2,3564,33.35471,31.06346,12.149,ZC,True,[-0.42319939 -0.1814049  -0.18238843 -2.40685694],-0.7984624,[-5.46406431 -5.62500817 -5.63792783 -4.88848881],-5.403872278385069,173.52867,[71.05151199 70.8097175  70.81070103 73.03516954],71.42677501860508,5.353436749999999,[ 243  644 1045 1446],[ 543  944 1345 1746],543,1.1664674260315895,0.4721796364369745,-1.9751284446065387,-0.4721796364369745,Flight,"[ 6.9200860e-07+2.76803434e-07j  4.1520514e-07-4.15205136e-07j
 -1.3840172e-07-1.59161971e-06j ...  4.6843342e-02+1.23874724e-01j
 -7.3927246e-02+2.82401778e-03j  2.9511398e-02-2.56351810e-02j]",True,0,0,0,0,0,UAV,35.727367,-78.696236,-0.149,-0.017959145829081535,-0.00971781462430954,-0.06018839776515961,0.01,0.0,0.0,0,0.01,"                                  0
time     2023-12-15 15:52:49.194394
type                            UAV
lat                       35.727369
lon                      -78.696233
alt                          -0.149
pitch                     -0.017959
yaw                       -0.009718
roll                      -0.060188
vel_x                          0.01
vel_y                           0.0
vel_z                           0.0
heading                           0
speed                          0.01",71.65458517502529,71.59174769403265
0,56.6,3564,33.35471,31.06346,12.149,ZC,True,[-0.30314624 -0.16881075 -0.11210113 -2.23420176],-0.704565,[-5.35661637 -5.4885986  -5.54860292 -4.84523996],-5.309764465726187,-157.69218,[70.93145884 70.79712336 70.74041374 72.86251436],71.33287757535477,5.353436749999999,[ 243  644 1045 1446],[ 543  944 1345 1746],543,1.1664674260315895,0.4721796364369745,-1.9751284446065387,-0.4721796364369745,Flight,"[ 3.46004292e-08-5.5360687e-07j -2.76803434e-07-5.1900645e-07j
 -1.10721373e-06-6.9200858e-08j ... -7.75286853e-02-1.8512994e-01j
 -1.02043584e-01-5.7523284e-02j  7.42820725e-02+6.9094285e-02j]",True,0,0,0,0,0,UAV,35.727367,-78.696236,-0.149,-0.017884857952594757,-0.009845160879194736,-0.060066208243370056,0.01,0.0,0.0,0,0.01,"                                  0
time     2023-12-15 15:52:49.599460
type                            UAV
lat                       35.727369
lon                      -78.696233
alt                          -0.149
pitch                     -0.017885
yaw                       -0.009845
roll                      -0.060066
vel_x                          0.01
vel_y                           0.0
vel_z                           0.0
heading                           0
speed                          0.01",71.59950002550076,71.539966787434
0,57.0,3564,33.35732,31.067825,12.145,ZC,True,[ 0.01565896  0.13334427  0.13249745 -2.04698605],-0.44137135,[-5.2347603  -5.50427466 -5.53080548 -4.74534698],-5.25379685313068,424.56216,[70.61265365 70.49496833 70.49581515 72.67529865],71.0696839471864,5.353436749999999,[ 243  644 1045 1446],[ 543  944 1345 1746],543,1.1661390888030367,0.47230677135899113,-1.9754567818350874,-0.47230677135899113,Flight,"[ 1.03801284e-07-2.7680343e-07j -1.45321803e-06+1.7300215e-08j
  0.00000000e+00+7.4390925e-07j ...  8.11834708e-02-2.4121135e-02j
  5.74574731e-02-1.3115701e-01j -4.54119220e-02+5.1637575e-02j]",True,0,0,0,0,0,UAV,35.727367,-78.696236,-0.145,-0.017780523747205734,-0.00998116098344326,-0.06012013554573059,0.0,0.0,0.0,0,0.0,"                                  0
time     2023-12-15 15:52:50.004632
type                            UAV
lat                       35.727369
lon                      -78.696233
alt                          -0.145
pitch                     -0.017781
yaw                       -0.009981
roll                       -0.06012
vel_x                           0.0
vel_y                           0.0
vel_z                           0.0
heading                           0
speed                           0.0",71.51757260862182,71.44590021651092
0,57.4,3564,33.35659,31.067825,12.143,ZC,True,[-0.08016766  0.14760988  0.15439259 -2.06305266],-0.46030447,[-5.12117621 -5.27746283 -5.26881958 -4.56957556],-5.059258542977053,65.96569,[70.70848026 70.48070273 70.47392002 72.69136527],71.08861706841108,5.353436749999999,[ 243  644 1045 1446],[ 543  944 1345 1746],543,1.1661390888030367,0.47228784768359705,-1.9754567818350874,-0.47228784768359705,Flight,"[-7.6120944e-07-1.3840172e-07j  2.0760257e-07+7.9580985e-07j
  8.9961117e-07+1.5570193e-07j ...  2.1658583e-01-5.1992387e-02j
  1.6221313e-02-1.0676938e-01j -9.1800615e-02+4.4251181e-02j]",True,0,0,0,0,0,UAV,35.727367,-78.696236,-0.143,-0.017750712111592293,-0.010078242048621178,-0.06018509715795517,0.0,0.0,0.0,0,0.0,"                                  0
time     2023-12-15 15:52:50.409858
type                            UAV
lat                       35.727369
lon                      -78.696233
alt                          -0.143
pitch                     -0.017751
yaw                       -0.010078
roll                      -0.060185
vel_x                           0.0
vel_y                           0.0
vel_z                           0.0
heading                           0
speed                           0.0",71.4498759795277,71.374437507516
0,57.8,3564,33.356228,31.067825,12.142,ZC,True,[ 0.05842056  0.18141991  0.19904587 -1.94188819],-0.37575045,[-5.13752766 -5.24177059 -5.31269851 -4.60934366],-5.075335105946382,-113.02485,[70.56989204 70.44689269 70.42926674 72.57020079],71.00406306610077,5.353436749999999,[ 243  644 1045 1446],[ 543  944 1345 1746],543,1.1661390888030367,0.4722783849130528,-1.9754567818350874,-0.4722783849130528,Flight,"[ 1.0380129e-06+2.7680343e-07j  4.4980558e-07-1.2456154e-06j
 -3.1140385e-07-3.1140385e-07j ... -1.0841604e-01-1.4563320e-02j
  6.6246674e-03-8.4965818e-02j  6.1952587e-02+5.0660081e-02j]",True,0,0,0,0,0,UAV,35.727367,-78.696236,-0.142,-0.017666500061750412,-0.010081778280436993,-0.06027642637491226,0.0,0.0,0.0,0,0.0,"                                  0
time     2023-12-15 15:52:50.814919
type                            UAV
lat                       35.727369
lon                      -78.696233
alt                          -0.142
pitch                     -0.017667
yaw                       -0.010082
roll                      -0.060276
vel_x                           0.0
vel_y                           0.0
vel_z                           0.0
heading                           0
speed                           0.0",71.36913143962374,71.30035757761418
0,58.2,3564,33.358047,31.067825,12.147,ZC,True,[ 0.18251252  0.40845336  0.46258157 -1.67940322],-0.15646395,[-5.04029096 -5.14600708 -5.19691058 -4.56299339],-4.986550505267671,-143.5126,[70.44580009 70.21985925 70.16573104 72.30771583],70.78477654954699,5.353436749999999,[ 243  644 1045 1446],[ 543  944 1345 1746],543,1.1661390888030367,0.47232569259427054,-1.9754567818350874,-0.47232569259427054,Flight,"[-8.3041027e-07+1.7300215e-07j  2.7680343e-07+4.4980558e-07j
  1.3926673e-06-1.7300215e-08j ...  2.1283194e-01-1.5539883e-02j
  1.3189729e-01-1.2235376e-01j -1.4120884e-01+8.5695922e-02j]",True,0,0,0,0,0,UAV,35.727367,-78.696236,-0.147,-0.017509931698441505,-0.010030193254351616,-0.060253944247961044,0.0,0.0,0.0,0,0.0,"                                  0
time     2023-12-15 15:52:51.220198
type                            UAV
lat                       35.727369
lon                      -78.696233
alt                          -0.147
pitch                      -0.01751
yaw                        -0.01003
roll                      -0.060254
vel_x                           0.0
vel_y                           0.0
vel_z                           0.0
heading                           0
speed                           0.0",71.28898922766874,71.19723575751482
0,58.6,3564,33.366524,31.076143,12.149,ZC,True,[ 0.24187757  0.22366537  0.25835949 -1.85846632],-0.28364098,[-5.03722616 -5.06076469 -5.07641723 -4.42178524],-4.899048330893506,-82.12727,[70.38643504 70.40464723 70.36995312 72.48677892],70.91195357744482,5.353436749999999,[ 243  644 1045 1446],[ 543  944 1345 1746],543,1.1662537099336838,0.4722506234980064,-1.9753421617235905,-0.4722506234980064,Flight,"[ 6.5740818e-07-6.9200858e-08j  1.2110150e-06-9.0826126e-07j
 -1.2283152e-06-6.9200860e-07j ... -4.8795255e-04-2.0910367e-01j
 -9.3525618e-02-1.9899581e-02j  3.0518478e-02+8.4140196e-02j]",True,0,0,0,0,0,UAV,35.727367,-78.696236,-0.149,-0.01756906695663929,-0.009986848570406437,-0.06043586507439613,0.0,0.0,0.0,0,0.0,"                                  0
time     2023-12-15 15:52:51.625219
type                            UAV
lat                       35.727369
lon                      -78.696233
alt                          -0.149
pitch                     -0.017569
yaw                       -0.009987
roll                      -0.060436
vel_x                           0.0
vel_y                           0.0
vel_z                           0.0
heading                           0
speed                           0.0",71.23657604737824,71.14017683623429
0,59.0,3564,33.367252,31.076143,12.151,ZC,True,[ 0.49658102  0.52037085  0.52297909 -1.6026117 ],-0.015670184,[-4.96241092 -5.00552528 -5.04121886 -4.31445385],-4.830902228433655,21.964706,[70.13173158 70.10794175 70.10533352 72.2309243 ],70.64398278906611,5.353436749999999,[ 243  644 1045 1446],[ 543  944 1345 1746],543,1.1662537099336838,0.47226954134822574,-1.9753421617235905,-0.47226954134822574,Flight,"[-6.9200858e-08-7.9580985e-07j -1.1937148e-06-1.3840172e-07j
  6.2280770e-07+6.9200858e-08j ... -1.2105223e-01+7.2528034e-02j
  8.8515997e-02+7.4854814e-02j -5.4878008e-04-6.0030498e-02j]",True,0,0,0,0,0,UAV,35.727367,-78.696236,-0.151,-0.017564842477440834,-0.010119719430804253,-0.06054568290710449,0.0,0.0,0.0,0,0.0,"                                  0
time     2023-12-15 15:52:52.030509
type                            UAV
lat                       35.727369
lon                      -78.696233
alt                          -0.151
pitch                     -0.017565
yaw                        -0.01012
roll                      -0.060546
vel_x                           0.0
vel_y                           0.0
vel_z                           0.0
heading                           0
speed                           0.0",71.12825431875265,71.04093456871234
0,59.4,3564,33.3698,31.076143,12.158,ZC,True,[ 0.47527821  0.49495532  0.50306681 -1.71661614],-0.06082895,[-5.01605545 -5.0074974  -5.0180776  -4.36312975],-4.851190050659148,-199.75003,[70.15303439 70.13335728 70.1252458  72.34492875],70.68914155541452,5.353436749999999,[ 243  644 1045 1446],[ 543  944 1345 1746],543,1.1662537099336838,0.4723357344977011,-1.9753421617235905,-0.4723357344977011,Flight,"[-5.1900645e-07-6.9200858e-08j  1.1764146e-06+8.3041027e-07j
  1.7300215e-06+5.5360687e-07j ...  8.3539829e-02+6.0735796e-02j
  6.4297058e-02+5.3105865e-02j -6.1495222e-02-1.0873773e-01j]",True,0,0,0,0,0,UAV,35.727367,-78.696236,-0.158,-0.01744956336915493,-0.0100814588367939,-0.06051846966147423,0.0,0.0,0.0,0,0.0,"                                  0
time     2023-12-15 15:52:52.435951
type                            UAV
lat                       35.727369
lon                      -78.696233
alt                          -0.158
pitch                      -0.01745
yaw                       -0.010081
roll                      -0.060518
vel_x                           0.0
vel_y                           0.0
vel_z                           0.0
heading                           0
speed                           0.0",71.04500067707261,70.97057400468651
