index,time,center_freq,dist,h_dist,v_dist,wav_type,detected,power,avgPower,snr,avgSnr,freq_offset,path_loss,avg_pl,est_dist,peaks,orig_peaks,start_point,aod_theta,aod_phi,aoa_theta,aoa_phi,stage,corr,save_corr,rsrp,shadowing,multipath,delay,doppler,type,lat,lon,alt,pitch,yaw,roll,vel_x,vel_y,vel_z,heading,speed,vehicle,avg_pl_rolling,avg_pl_ewma
0,23.0,3686,33.47214,31.072195,12.446,ZC,True,[-0.77690332 -0.69825636 -0.71984131 -3.00896357],-1.3009912,[-5.74207504 -5.57917233 -5.49016955 -4.71574802],-5.381791234347748,7.0531306,[71.40521593 71.32656897 71.34815392 73.63727618],71.9293037480276,155.24966575,[ 271  672 1073 1474],[ 571  972 1373 1774],571,1.1658108439463066,0.47529056256742047,-1.9757850266918138,-0.47529056256742047,Landing,"[-6.2280770e-07+2.7680343e-07j -9.6881206e-07-1.2110151e-07j
 -8.3041027e-07-1.7300215e-07j ...  6.6115089e-02-1.5562470e-01j
 -2.1332722e-02-4.4955231e-02j -2.3988096e-02+6.6072181e-02j]",True,0,0,0,0,0,UAV,35.727367,-78.696236,-0.446,-0.004411298781633377,0.11132598668336868,-0.08025931566953659,0.0,0.0,0.02,0,0.02,"                                  0
time     2023-12-15 16:43:06.909817
type                            UAV
lat                       35.727368
lon                      -78.696233
alt                          -0.446
pitch                     -0.004411
yaw                        0.111326
roll                      -0.080259
vel_x                           0.0
vel_y                           0.0
vel_z                          0.02
heading                           0
speed                          0.02",,71.9293037480276
0,23.4,3686,33.47735,31.072195,12.46,ZC,True,[-1.06743344 -1.01404991 -0.8924775  -3.51883831],-1.6231998,[-6.51923771 -6.29082851 -6.29640212 -5.33220574],-6.10966852105213,-349.5347,[71.69574604 71.64236251 71.52079011 74.14715091],72.25151239323043,155.24966575,[ 271  672 1073 1474],[ 571  972 1373 1774],571,1.1658108439463066,0.4754203302389561,-1.9757850266918138,-0.4754203302389561,Landing,"[ 4.1520514e-07-6.9200858e-08j  6.9200858e-08+2.0760257e-07j
 -1.3840172e-07+5.5360687e-07j ...  2.8822573e-02-2.7997077e-02j
 -7.1012363e-02-5.4935534e-03j  3.8758378e-02+7.2020795e-03j]",True,0,0,0,0,0,UAV,35.727367,-78.696236,-0.46,-0.004483146592974663,0.11124543845653534,-0.08013831079006195,0.0,0.0,0.02,0,0.02,"                                  0
time     2023-12-15 16:43:07.315026
type                            UAV
lat                       35.727368
lon                      -78.696233
alt                           -0.46
pitch                     -0.004483
yaw                        0.111245
roll                      -0.080138
vel_x                           0.0
vel_y                           0.0
vel_z                          0.02
heading                           0
speed                          0.02",,72.10830855091805
0,23.8,3686,33.47884,31.072195,12.464,ZC,True,[-1.29628554 -1.28338339 -1.3148674  -3.92168916],-1.9540564,[-7.96002964 -7.77170184 -7.87978795 -6.90200032],-7.628379939046466,-83.29162,[71.92459814 71.911696   71.94318    74.55000176],72.5823689767465,155.24966575,[ 271  672 1073 1474],[ 571  972 1373 1774],571,1.1658108439463066,0.4754573848478567,-1.9757850266918138,-0.4754573848478567,Landing,"[ 5.5360687e-07-7.9580985e-07j -2.7680343e-07-6.6605827e-07j
 -6.5740818e-07+7.6120944e-07j ... -9.0596378e-03-3.6668982e-02j
  5.4186001e-02-9.7914852e-02j -2.4903381e-02+1.7303502e-02j]",True,0,0,0,0,0,UAV,35.727367,-78.696236,-0.464,-0.004440010990947485,0.11118223518133163,-0.08009152859449387,0.0,0.0,0.02,0,0.02,"                                  0
time     2023-12-15 16:43:07.720106
type                            UAV
lat                       35.727368
lon                      -78.696233
alt                          -0.464
pitch                      -0.00444
yaw                        0.111182
roll                      -0.080092
vel_x                           0.0
vel_y                           0.0
vel_z                          0.02
heading                           0
speed                          0.02",,72.30259561068381
0,24.2,3686,33.47921,31.072195,12.465,ZC,True,[-1.59321058 -1.63886223 -1.64299668 -4.12584262],-2.250228,[-8.95970823 -9.52638634 -9.37915727 -8.21070687],-9.018989677464536,-478.84692,[72.22152319 72.26717483 72.27130928 74.75415523],72.8785406322643,165.95653925,[ 273  674 1075 1476],[ 573  974 1375 1776],573,1.1658108439463066,0.47546664699032787,-1.9757850266918138,-0.47546664699032787,Landing,"[-6.57408179e-07-2.0760257e-07j  1.03801284e-07-2.7680343e-07j
 -2.76803434e-07+9.6881206e-07j ... -1.98151991e-02-1.0413242e-02j
 -7.91890323e-02+6.2007446e-02j  8.88693333e-02-1.6205112e-02j]",True,0,0,0,0,0,UAV,35.727367,-78.696236,-0.465,-0.00452876091003418,0.11117880046367645,-0.08013390749692917,0.0,0.0,0.02,0,0.02,"                                  0
time     2023-12-15 16:43:08.125130
type                            UAV
lat                       35.727368
lon                      -78.696233
alt                          -0.465
pitch                     -0.004529
yaw                        0.111179
roll                      -0.080134
vel_x                           0.0
vel_y                           0.0
vel_z                          0.02
heading                           0
speed                          0.02",,72.49769893777747
0,24.6,3686,33.480328,31.072195,12.468,ZC,True,[-1.60668605 -1.62374627 -1.53766631 -3.89618451],-2.1660707,[-6.69548176 -6.76780012 -6.68239486 -5.79510254],-6.485194820244504,120.48825,[72.23499866 72.25205887 72.16597892 74.52449711],72.79438339099998,160.60310249999998,[ 272  673 1074 1475],[ 572  973 1374 1775],572,1.1658108439463066,0.4754944297567697,-1.9757850266918138,-0.4754944297567697,Landing,"[-3.4600430e-07+3.4600430e-07j -3.1140385e-07-6.5740818e-07j
  6.9200858e-08+6.9200860e-07j ...  5.6122243e-03+1.4749661e-02j
 -4.5765571e-02-5.3837091e-02j  6.5889113e-02+3.3753481e-02j]",True,0,0,0,0,0,UAV,35.727367,-78.696236,-0.468,-0.004486175253987312,0.1112404316663742,-0.07995560765266418,0.0,0.0,0.02,0,0.02,"                                  0
time     2023-12-15 16:43:08.530248
type                            UAV
lat                       35.727368
lon                      -78.696233
alt                          -0.468
pitch                     -0.004486
yaw                         0.11124
roll                      -0.079956
vel_x                           0.0
vel_y                           0.0
vel_z                          0.02
heading                           0
speed                          0.02",,72.58595585508544
0,25.0,3686,33.476234,31.072195,12.457,ZC,True,[-1.35250971 -1.12696188 -1.03082922 -3.31911006],-1.7073528,[-5.86773575 -5.79712365 -5.6892724  -4.88307909],-5.55930272585252,126.06096,[71.98082232 71.75527449 71.65914182 73.94742267],72.33566532282087,160.60310249999998,[ 272  673 1074 1475],[ 572  973 1374 1775],572,1.1658108439463066,0.4753925329130743,-1.9757850266918138,-0.4753925329130743,Landing,"[-5.5360687e-07+5.1900645e-07j  1.7300215e-08-9.3421158e-07j
 -1.1418142e-06+2.9410364e-07j ... -1.5626329e-01+9.4550364e-02j
 -5.5649253e-03+9.3584679e-02j  2.5666270e-02-7.6388426e-02j]",True,0,0,0,0,0,UAV,35.727367,-78.696236,-0.457,-0.004453347064554691,0.11124563217163086,-0.08005518466234207,0.0,0.0,0.02,0,0.02,"                                  0
time     2023-12-15 16:43:08.935370
type                            UAV
lat                       35.727368
lon                      -78.696233
alt                          -0.457
pitch                     -0.004453
yaw                        0.111246
roll                      -0.080055
vel_x                           0.0
vel_y                           0.0
vel_z                          0.02
heading                           0
speed                          0.02",,72.51811320495736
0,25.4,3686,33.47735,31.072195,12.46,ZC,True,[-0.95030236 -0.86133489 -0.71795257 -2.97993512],-1.3773812,[-5.61403247 -5.5980365  -5.56659831 -4.77395111],-5.388154596525594,190.65282,[71.57861496 71.48964749 71.34626518 73.60824773],72.00569383944011,160.60310249999998,[ 272  673 1074 1475],[ 572  973 1374 1775],572,1.1658108439463066,0.4754203302389561,-1.9757850266918138,-0.4754203302389561,Flight,"[-8.3041027e-07-3.4600429e-08j  4.8440603e-07-2.7680343e-07j
  2.7680343e-07-9.0826126e-07j ... -4.3650430e-02+6.3866131e-02j
  5.0900016e-02-1.0447530e-02j -2.4750017e-02+4.6077045e-03j]",True,0,0,0,0,0,UAV,35.727367,-78.696236,-0.46,-0.0045397523790597916,0.11127359420061111,-0.08009245991706848,0.0,0.0,0.01,0,0.01,"                                  0
time     2023-12-15 16:43:09.340639
type                            UAV
lat                       35.727368
lon                      -78.696233
alt                           -0.46
pitch                      -0.00454
yaw                        0.111274
roll                      -0.080092
vel_x                           0.0
vel_y                           0.0
vel_z                          0.01
heading                           0
speed                          0.01",,72.38843353364969
0,25.8,3686,33.476234,31.072195,12.457,ZC,True,[-0.81892213 -0.78290594 -0.72484999 -3.1900107 ],-1.3791722,[-6.27169163 -6.14800506 -6.13173272 -5.24453282],-5.948990558025804,18.429735,[71.44723473 71.41121855 71.3531626  73.8183233 ],72.00748479589546,160.60310249999998,[ 272  673 1074 1475],[ 572  973 1374 1775],572,1.1658108439463066,0.4753925329130743,-1.9757850266918138,-0.4753925329130743,Flight,"[-5.1900642e-08-3.460043e-07j  8.6501075e-08+3.460043e-08j
  3.4600430e-07-9.688121e-07j ...  1.3311788e-02-1.794756e-01j
  1.0246723e-01+7.624011e-02j -5.4230500e-02+3.277524e-02j]",True,0,0,0,0,0,UAV,35.727367,-78.696236,-0.457,-0.004489572253078222,0.11113026738166809,-0.08002589643001556,0.0,0.0,0.01,0,0.01,"                                  0
time     2023-12-15 16:43:09.745795
type                            UAV
lat                       35.727368
lon                      -78.696233
alt                          -0.457
pitch                      -0.00449
yaw                         0.11113
roll                      -0.080026
vel_x                           0.0
vel_y                           0.0
vel_z                          0.01
heading                           0
speed                          0.01",,72.29688438822475
0,26.2,3686,33.475487,31.072195,12.455,ZC,True,[-1.30603742 -1.36893305 -1.36366595 -3.9809186 ],-2.0048888,[-7.80561637 -7.70424088 -7.73888197 -6.62663318],-7.468843099828995,49.944313,[71.93435002 71.99724566 71.99197855 74.60923121],72.633201359273,160.60310249999998,[ 272  673 1074 1475],[ 572  973 1374 1775],572,1.1658108439463066,0.475373998312632,-1.9757850266918138,-0.475373998312632,Flight,"[-6.4010794e-07+5.5360687e-07j  2.7680343e-07+3.4600430e-07j
 -3.4600429e-08+3.8060472e-07j ... -6.1358999e-02-1.3121624e-01j
 -9.2668049e-02+1.0442126e-01j  3.3417787e-02-9.7359037e-03j]",True,0,0,0,0,0,UAV,35.727367,-78.696236,-0.455,-0.004369119647890329,0.1111641451716423,-0.07993000000715256,0.0,0.0,0.01,0,0.01,"                                  0
time     2023-12-15 16:43:10.151028
type                            UAV
lat                       35.727368
lon                      -78.696233
alt                          -0.455
pitch                     -0.004369
yaw                        0.111164
roll                       -0.07993
vel_x                           0.0
vel_y                           0.0
vel_z                          0.01
heading                           0
speed                          0.01",,72.37457527701399
0,26.6,3686,33.473255,31.072195,12.449,ZC,True,[-1.86881621 -1.81867817 -1.79121511 -4.57527321],-2.5134957,[-8.66841777 -9.53628852 -9.58678412 -8.16593304],-8.989355863195573,-80.52569,[72.49712881 72.44699077 72.41952771 75.20358582],73.1418082784015,171.30997599999998,[ 274  675 1076 1477],[ 574  975 1376 1777],574,1.1658108439463066,0.47531837994292625,-1.9757850266918138,-0.47531837994292625,Flight,"[-5.5360687e-07-1.3840172e-07j  1.3840172e-07-5.5360687e-07j
  1.7300215e-07-6.9200860e-07j ... -5.8534931e-02+1.8552074e-01j
 -4.5561429e-02-1.1120287e-01j  3.5889778e-02-7.8433640e-03j]",True,0,0,0,0,0,UAV,35.727367,-78.696236,-0.449,-0.0042730458080768585,0.11123467236757278,-0.07987888157367706,0.0,0.0,0.01,0,0.01,"                                  0
time     2023-12-15 16:43:10.556283
type                            UAV
lat                       35.727368
lon                      -78.696233
alt                          -0.449
pitch                     -0.004273
yaw                        0.111235
roll                      -0.079879
vel_x                           0.0
vel_y                           0.0
vel_z                          0.01
heading                           0
speed                          0.01",72.45599627370999,72.54648000713941
0,27.0,3686,33.47363,31.072195,12.45,ZC,True,[-1.9140023  -1.80022667 -1.74487699 -4.11932864],-2.3946087,[-6.85049372 -7.0099865  -6.8830674  -5.98838977],-6.682984346540923,356.64752,[72.5423149  72.42853928 72.3731896  74.74764124],73.02292125459877,165.95653925,[ 273  674 1075 1476],[ 573  974 1375 1776],573,1.1658108439463066,0.4753276511976547,-1.9757850266918138,-0.4753276511976547,Flight,"[-2.0760257e-07-8.8231093e-07j -1.4705182e-07-4.1520514e-07j
  3.1140385e-07+5.5360687e-07j ... -1.4375880e-01+3.1206300e-02j
 -9.1160573e-02-3.5096321e-02j  1.0928724e-01-1.8737897e-02j]",True,0,0,0,0,0,UAV,35.727367,-78.696236,-0.45,-0.004116356838494539,0.11111173033714294,-0.07984796911478043,0.0,0.0,0.01,0,0.01,"                                  0
time     2023-12-15 16:43:10.961456
type                            UAV
lat                       35.727368
lon                      -78.696233
alt                           -0.45
pitch                     -0.004116
yaw                        0.111112
roll                      -0.079848
vel_x                           0.0
vel_y                           0.0
vel_z                          0.01
heading                           0
speed                          0.01",72.5653580243671,72.65072262972869
0,27.4,3686,33.473255,31.072195,12.449,ZC,True,[-1.34480573 -1.05790618 -1.05914964 -3.28587404],-1.6869339,[-5.84918302 -5.73645453 -5.63566102 -4.90390845],-5.531301756966904,-115.12165,[71.97311833 71.68621878 71.68746225 73.91418664],72.31524650143618,165.95653925,[ 273  674 1075 1476],[ 573  974 1375 1776],573,1.1658108439463066,0.47531837994292625,-1.9757850266918138,-0.47531837994292625,Flight,"[-3.4600430e-07-6.9200860e-07j  4.1520514e-07+0.0000000e+00j
 -3.4600429e-08+1.3840172e-07j ... -1.6044391e-02-6.1993685e-02j
  6.9481120e-02-6.9225669e-02j -4.8249815e-02+3.6011260e-02j]",True,0,0,0,0,0,UAV,35.727367,-78.696236,-0.449,-0.004035181365907192,0.11133566498756409,-0.07971663773059845,0.0,0.0,0.01,0,0.01,"                                  0
time     2023-12-15 16:43:11.366668
type                            UAV
lat                       35.727368
lon                      -78.696233
alt                          -0.449
pitch                     -0.004035
yaw                        0.111336
roll                      -0.079717
vel_x                           0.0
vel_y                           0.0
vel_z                          0.01
heading                           0
speed                          0.01",72.57173143518767,72.57867642669704
0,27.8,3686,33.47251,31.072195,12.447,ZC,True,[-0.84214177 -0.7485661  -0.64412458 -3.1075665 ],-1.3355998,[-5.66650839 -5.54982104 -5.59488674 -4.7336785 ],-5.386223667887182,72.81551,[71.47045438 71.37687871 71.27243718 73.73587911],71.9639123431511,165.95653925,[ 273  674 1075 1476],[ 573  974 1375 1776],573,1.1658108439463066,0.4752998356288718,-1.9757850266918138,-0.4752998356288718,Flight,"[ 4.1520514e-07+2.2490279e-07j -1.0034124e-06-5.8388224e-07j
  2.0760257e-07-1.5224189e-06j ...  7.3658261e-03+1.9004476e-01j
 -2.3716735e-02+7.6625869e-02j -3.1433970e-02-1.2799504e-01j]",True,0,0,0,0,0,UAV,35.727367,-78.696236,-0.447,-0.0040076738223433495,0.11156032234430313,-0.07954435795545578,0.0,0.0,0.01,0,0.01,"                                  0
time     2023-12-15 16:43:11.771958
type                            UAV
lat                       35.727368
lon                      -78.696233
alt                          -0.447
pitch                     -0.004008
yaw                         0.11156
roll                      -0.079544
vel_x                           0.0
vel_y                           0.0
vel_z                          0.01
heading                           0
speed                          0.01",72.50988577182812,72.44857098784512
0,28.2,3686,33.477318,31.076569,12.449,ZC,True,[-1.01652623 -0.99015728 -0.95791239 -3.52957932],-1.6235439,[-6.48486478 -6.16154237 -6.28886938 -5.37024132],-6.076379463972306,-323.24985,[71.64483884 71.61846988 71.586225   74.15789192],72.25185641109164,165.95653925,[ 273  674 1075 1476],[ 573  974 1375 1776],573,1.1654826914722338,0.4754819461257555,-1.9761131791658828,-0.4754819461257555,Flight,"[-2.2490279e-07+4.4980558e-07j  2.7680343e-07+0.0000000e+00j
 -1.1764146e-06-2.0760257e-07j ...  7.8754313e-02-4.2856436e-02j
  4.4483729e-02-6.1488771e-03j -6.0488299e-02+3.6377110e-02j]",True,0,0,0,0,0,UAV,35.727367,-78.696236,-0.449,-0.003977244719862938,0.11154472082853317,-0.07959970831871033,-0.01,0.0,0.01,0,0.01414213562373095,"                                  0
time     2023-12-15 16:43:12.177074
type                            UAV
lat                       35.727368
lon                      -78.696233
alt                          -0.449
pitch                     -0.003977
yaw                        0.111545
roll                        -0.0796
vel_x                         -0.01
vel_y                           0.0
vel_z                          0.01
heading                           0
speed                      0.014142",72.44721734971085,72.40741815161644
0,28.6,3686,33.474743,31.072195,12.453,ZC,True,[-1.38639356 -1.52574272 -1.4989143  -4.08865765],-2.124927,[-7.94366844 -7.83508596 -7.89696798 -6.79717695],-7.618224831762749,-136.51917,[72.01470617 72.15405532 72.12722691 74.71697026],72.75323966438512,165.95653925,[ 273  674 1075 1476],[ 573  974 1375 1776],573,1.1658108439463066,0.4753554612807423,-1.9757850266918138,-0.4753554612807423,Flight,"[ 5.6225696e-07+3.46004299e-07j  3.1140385e-07-5.19006448e-07j
  6.2280770e-07+3.46004299e-07j ...  6.6176020e-02-1.59249112e-01j
 -4.6145902e-03+1.01907775e-02j -2.0173607e-02+6.30521551e-02j]",True,0,0,0,0,0,UAV,35.727367,-78.696236,-0.453,-0.003960808739066124,0.11148720979690552,-0.07955298572778702,0.0,0.0,0.0,0,0.0,"                                  0
time     2023-12-15 16:43:12.582548
type                            UAV
lat                       35.727368
lon                      -78.696233
alt                          -0.453
pitch                     -0.003961
yaw                        0.111487
roll                      -0.079553
vel_x                           0.0
vel_y                           0.0
vel_z                           0.0
heading                           0
speed                           0.0",72.44310297704938,72.47910470037547
0,29.0,3686,33.474373,31.072195,12.452,ZC,True,[-1.86957399 -1.84880486 -1.78372968 -4.43464362],-2.484188,[-8.63452341 -9.41864633 -9.20382696 -8.17078175],-8.856944611704042,-236.64215,[72.49788659 72.47711747 72.41204229 75.06295623],73.11250064390765,176.66341275,[ 275  676 1077 1478],[ 575  976 1377 1778],575,1.1658108439463066,0.4753461918573947,-1.9757850266918138,-0.4753461918573947,Flight,"[-3.4600430e-07-8.6501075e-07j -8.9961117e-07-6.9200860e-07j
  3.8060472e-07+2.0760257e-07j ... -1.5152082e-02-4.5802180e-02j
  9.8030694e-02-3.7388634e-02j  1.1016811e-02+6.1678171e-02j]",True,0,0,0,0,0,UAV,35.727367,-78.696236,-0.452,-0.004008898977190256,0.11162394285202026,-0.07954257726669312,0.0,0.0,0.0,0,0.0,"                                  0
time     2023-12-15 16:43:12.987714
type                            UAV
lat                       35.727368
lon                      -78.696233
alt                          -0.452
pitch                     -0.004009
yaw                        0.111624
roll                      -0.079543
vel_x                           0.0
vel_y                           0.0
vel_z                           0.0
heading                           0
speed                           0.0",72.52078650915806,72.60945286370567
0,29.4,3686,33.474,31.072195,12.451,ZC,True,[-1.90531193 -1.79307369 -1.7604249  -3.90604011],-2.3412127,[-6.58596914 -6.53520556 -6.48636899 -5.68031148],-6.321963793745986,-164.43436,[72.53362453 72.4213863  72.3887375  74.53435272],72.96952526311428,171.30997599999998,[ 274  675 1076 1477],[ 574  975 1376 1777],574,1.1658108439463066,0.4753369218352057,-1.9757850266918138,-0.4753369218352057,Flight,"[ 2.7680343e-07+7.6120944e-07j  8.6501075e-07-2.7680343e-07j
 -2.7680343e-07+1.5051187e-06j ... -6.1092041e-02-1.3773172e-01j
  4.4150077e-02-8.4301040e-02j -5.4012998e-03+1.0266321e-01j]",True,0,0,0,0,0,UAV,35.727367,-78.696236,-0.451,-0.004008655436336994,0.11155685782432556,-0.07952538877725601,0.0,0.0,0.0,0,0.0,"                                  0
time     2023-12-15 16:43:13.392902
type                            UAV
lat                       35.727368
lon                      -78.696233
alt                          -0.451
pitch                     -0.004009
yaw                        0.111557
roll                      -0.079525
vel_x                           0.0
vel_y                           0.0
vel_z                           0.0
heading                           0
speed                           0.0",72.61716965152547,72.68312632239285
0,29.8,3686,33.46768,31.072195,12.434,ZC,True,[-1.25077696 -0.85988346 -0.7674925  -3.16123086],-1.509846,[-5.75960908 -5.66274669 -5.64249429 -4.82901422],-5.4734660723040385,220.50424,[71.87908956 71.48819606 71.3958051  73.78954346],72.13815854714558,171.30997599999998,[ 274  675 1076 1477],[ 574  975 1376 1777],574,1.1658108439463066,0.4751792383248217,-1.9757850266918138,-0.4751792383248217,Flight,"[-6.9200858e-08+0.0000000e+00j  1.3840172e-07+5.5360687e-07j
 -3.4600430e-07-7.9580985e-07j ... -4.6995617e-02-1.4626985e-02j
 -5.1144071e-02-1.3039933e-02j  1.8433586e-02-4.4254120e-03j]",True,0,0,0,0,0,UAV,35.727367,-78.696236,-0.434,-0.004133973736315966,0.11151828616857529,-0.07951749116182327,0.0,0.0,0.0,0,0.0,"                                  0
time     2023-12-15 16:43:13.798040
type                            UAV
lat                       35.727368
lon                      -78.696233
alt                          -0.434
pitch                     -0.004134
yaw                        0.111518
roll                      -0.079517
vel_x                           0.0
vel_y                           0.0
vel_z                           0.0
heading                           0
speed                           0.0",72.63023702665048,72.57213329471097
0,30.2,3686,33.46545,31.072195,12.428,ZC,True,[-0.93045386 -0.74807299 -0.70578333 -3.0161598 ],-1.3501174,[-5.83486758 -5.71800291 -5.68667246 -4.89942468],-5.5347419068512185,309.97974,[71.55876646 71.37638559 71.33409594 73.6444724 ],71.97843009899448,171.30997599999998,[ 274  675 1076 1477],[ 574  975 1376 1777],574,1.1658108439463066,0.47512354338594637,-1.9757850266918138,-0.47512354338594637,Flight,"[ 5.5360687e-07-7.9580985e-07j  4.1520514e-07-2.7680343e-07j
  6.9200860e-07+2.0760257e-07j ... -1.4358683e-01+1.2606159e-01j
 -7.1534380e-02-2.4391399e-03j  4.7212042e-02-3.8940169e-02j]",True,0,0,0,0,0,UAV,35.727367,-78.696236,-0.428,-0.004158280789852142,0.1114891991019249,-0.07949213683605194,0.0,0.0,0.0,0,0.0,"                                  0
time     2023-12-15 16:43:14.204144
type                            UAV
lat                       35.727368
lon                      -78.696233
alt                          -0.428
pitch                     -0.004158
yaw                        0.111489
roll                      -0.079492
vel_x                           0.0
vel_y                           0.0
vel_z                           0.0
heading                           0
speed                           0.0",72.56475990062263,72.45165640054145
0,30.6,3686,33.46545,31.072195,12.428,ZC,True,[-1.12523018 -1.09990479 -1.06562879 -3.64433075],-1.7337736,[-6.68325767 -6.47942189 -6.5997178  -5.5340281 ],-6.324106362859215,-44.000122,[71.75354279 71.7282174  71.69394139 74.27264336],72.36208623416503,171.30997599999998,[ 274  675 1076 1477],[ 574  975 1376 1777],574,1.1658108439463066,0.47512354338594637,-1.9757850266918138,-0.47512354338594637,Flight,"[-2.6815331e-07+1.3840172e-07j -3.5465439e-07-6.9200858e-08j
 -3.4600430e-07+4.4980558e-07j ...  2.1363260e-01+2.0124066e-01j
 -1.5512189e-01+1.6075394e-01j  1.7670300e-02-1.1715927e-01j]",True,0,0,0,0,0,UAV,35.727367,-78.696236,-0.428,-0.0043145110830664635,0.1114536002278328,-0.07949407398700714,0.0,0.0,0.0,0,0.0,"                                  0
time     2023-12-15 16:43:14.610610
type                            UAV
lat                       35.727368
lon                      -78.696233
alt                          -0.428
pitch                     -0.004315
yaw                        0.111454
roll                      -0.079494
vel_x                           0.0
vel_y                           0.0
vel_z                           0.0
heading                           0
speed                           0.0",72.48678769619899,72.43353342356734
0,31.0,3686,33.303116,31.072195,11.984,ZC,True,[-1.46421    -1.62155471 -1.58636185 -3.8926169 ],-2.1411858,[-8.48552901 -8.35688585 -8.36334943 -7.50435847],-8.177530689446375,-33.269295,[72.0925226  72.24986732 72.21467445 74.5209295 ],72.76949846820054,171.30997599999998,[ 274  675 1076 1477],[ 574  975 1376 1777],574,1.1658108439463066,0.4709410735592867,-1.9757850266918138,-0.4709410735592867,Flight,"[ 1.03801284e-07+6.2280770e-07j -6.92008584e-08-1.0899136e-06j
 -6.92008584e-08+6.2280770e-07j ... -1.20549694e-01-5.4027256e-02j
  9.86231938e-02-6.8720400e-02j -3.17465863e-03+6.0120944e-02j]",True,0,0,0,0,0,UAV,35.727367,-78.696236,0.016,-0.004270118195563555,0.11153935641050339,-0.07947631180286407,0.0,0.0,0.0,0,0.0,"                                  0
time     2023-12-15 16:43:15.016103
type                            UAV
lat                       35.727368
lon                      -78.696233
alt                           0.016
pitch                      -0.00427
yaw                        0.111539
roll                      -0.079476
vel_x                           0.0
vel_y                           0.0
vel_z                           0.0
heading                           0
speed                           0.0",72.46144541755916,72.50135194797559
0,31.4,3686,33.301678,31.072195,11.98,ZC,True,[-1.96447797 -1.90510481 -4.25772322],-2.709102,[-8.31080851 -8.19427907 -7.25015415],-7.918413907407758,-43.208725,[72.59279057 72.53341742 74.88603583],73.33741460584405,182.01684949999998,[ 276 1077 1478],[ 576 1377 1778],576,1.1658108439463066,0.4709028434024202,-1.9757850266918138,-0.4709028434024202,Flight,"[-4.1520514e-07-6.9200860e-07j  5.8820729e-07+4.8440603e-07j
 -2.0760257e-07-5.5360687e-07j ... -3.7933316e-02-5.4356582e-03j
 -2.3129418e-02-8.8545959e-03j  3.4241866e-02+5.4200809e-02j]",True,0,0,0,0,0,UAV,35.727367,-78.696236,0.02,-0.004113985691219568,0.11151327192783356,-0.07946838438510895,0.0,0.0,0.0,0,0.0,"                                  0
time     2023-12-15 16:43:15.421153
type                            UAV
lat                       35.727368
lon                      -78.696233
alt                            0.02
pitch                     -0.004114
yaw                        0.111513
roll                      -0.079468
vel_x                           0.0
vel_y                           0.0
vel_z                           0.0
heading                           0
speed                           0.0",72.56366222799996,72.6698074618502
0,31.8,3686,33.302036,31.072195,11.981,ZC,True,[-1.48636032 -1.46948498 -1.40484274 -3.6417011 ],-2.0005972,[-6.17539853 -6.07930704 -6.11120833 -5.21193771],-5.894462904255679,-176.7347,[72.11467293 72.09779758 72.03315534 74.27001371],72.628909890514,176.66341275,[ 275  676 1077 1478],[ 575  976 1377 1778],575,1.1658108439463066,0.4709124018585716,-1.9757850266918138,-0.4709124018585716,Flight,"[ 6.0550754e-08+7.6120944e-07j -5.5360687e-07-6.5740818e-07j
 -1.3840172e-07-8.9961117e-07j ... -3.9772086e-02+6.5018013e-02j
 -1.4858808e-02-1.0130566e-01j  3.3082578e-02+3.0762343e-02j]",True,0,0,0,0,0,UAV,35.727367,-78.696236,0.019,-0.004045209381729364,0.11160696297883987,-0.07939869910478592,0.0,0.0,0.0,0,0.0,"                                  0
time     2023-12-15 16:43:15.826333
type                            UAV
lat                       35.727368
lon                      -78.696233
alt                           0.019
pitch                     -0.004045
yaw                        0.111607
roll                      -0.079399
vel_x                           0.0
vel_y                           0.0
vel_z                           0.0
heading                           0
speed                           0.0",72.63016198273624,72.66157937754603
0,32.2,3686,33.30132,31.072195,11.979,ZC,True,[-0.92628479 -0.74781804 -0.71329969 -3.11250683],-1.3749774,[-5.77702988 -5.62151799 -5.54187226 -4.75443696],-5.423714272138531,399.37326,[71.5545974  71.37613064 71.34161229 73.74081943],72.00328994183332,176.66341275,[ 275  676 1077 1478],[ 575  976 1377 1778],575,1.1658108439463066,0.4708932843210752,-1.9757850266918138,-0.4708932843210752,Flight,"[-6.9200858e-08-3.8060472e-07j -1.9030236e-07-4.8440603e-07j
  0.0000000e+00-4.9305612e-07j ...  1.3207373e-01-1.7852286e-01j
  1.5544201e-01+5.8631916e-02j -1.1630517e-01+6.4302027e-02j]",True,0,0,0,0,0,UAV,35.727367,-78.696236,0.021,-0.0040972670540213585,0.11163268238306046,-0.07939622551202774,0.0,0.0,0.0,0,0.0,"                                  0
time     2023-12-15 16:43:16.231374
type                            UAV
lat                       35.727368
lon                      -78.696233
alt                           0.021
pitch                     -0.004097
yaw                        0.111633
roll                      -0.079396
vel_x                           0.0
vel_y                           0.0
vel_z                           0.0
heading                           0
speed                           0.0",72.6053053358104,72.52929680361007
0,32.6,3686,33.2988,31.072195,11.972,ZC,True,[-0.99793132 -0.90184474 -0.81925288 -3.20533544],-1.4810911,[-6.14379103 -5.88020284 -5.89261914 -5.06013804],-5.744187762479866,127.22714,[71.62624392 71.53015734 71.44756549 73.83364804],72.10940369844852,176.66341275,[ 275  676 1077 1478],[ 575  976 1377 1778],575,1.1658108439463066,0.47082635345731405,-1.9757850266918138,-0.47082635345731405,Flight,"[-8.3041027e-07-1.3840172e-07j  0.0000000e+00-1.0380129e-06j
  2.0760257e-07-7.6120944e-07j ... -3.0558823e-02+1.0926802e-01j
 -1.7146900e-02-8.1349760e-02j  2.1058097e-02+1.8920725e-02j]",True,0,0,0,0,0,UAV,35.727367,-78.696236,0.028,-0.004195624031126499,0.11158284544944763,-0.07935570180416107,0.0,0.0,0.0,0,0.0,"                                  0
time     2023-12-15 16:43:16.636407
type                            UAV
lat                       35.727368
lon                      -78.696233
alt                           0.028
pitch                     -0.004196
yaw                        0.111583
roll                      -0.079356
vel_x                           0.0
vel_y                           0.0
vel_z                           0.0
heading                           0
speed                           0.0",72.54092173921674,72.44499971718933
0,33.0,3686,33.295567,31.072195,11.963,ZC,True,[-1.36067639 -1.30906017 -1.37188749 -3.84496989],-1.9716485,[-7.47780702 -7.26097975 -7.15746384 -6.21966388],-7.028978620924914,387.36566,[71.988989   71.93737277 72.0002001  74.4732825 ],72.59996109066904,176.66341275,[ 275  676 1077 1478],[ 575  976 1377 1778],575,1.1658108439463066,0.47074025505672545,-1.9757850266918138,-0.47074025505672545,Flight,"[-3.6330451e-07-6.7470836e-07j -8.6501075e-07-5.7090710e-07j
  1.1764146e-06-7.9580985e-07j ... -8.8585332e-02+7.1142949e-02j
  3.3803366e-02-3.3534896e-02j  1.6205635e-02-1.4129864e-02j]",True,0,0,0,0,0,UAV,35.727367,-78.696236,0.037,-0.004092806484550238,0.11187224835157394,-0.07935099303722382,0.0,0.0,0.0,0,0.0,"                                  0
time     2023-12-15 16:43:17.041492
type                            UAV
lat                       35.727368
lon                      -78.696233
alt                           0.037
pitch                     -0.004093
yaw                        0.111872
roll                      -0.079351
vel_x                           0.0
vel_y                           0.0
vel_z                           0.0
heading                           0
speed                           0.0",72.48966778389288,72.47608594424156
0,33.4,3686,33.295567,31.072195,11.963,ZC,True,[-1.28839582 -1.43440398 -1.47403224 -4.00693803],-2.0509424,[-8.72648721 -9.6635133  -9.62393959 -8.53507218],-9.137253069358517,-115.73387,[71.91670843 72.06271658 72.10234484 74.63525064],72.67925512267776,187.37028625,[ 277  678 1079 1480],[ 577  978 1379 1780],577,1.1658108439463066,0.47074025505672545,-1.9757850266918138,-0.47074025505672545,Flight,"[ 1.5570193e-07-2.7680343e-07j -4.1520514e-07-5.8820729e-07j
  8.3041027e-07+0.0000000e+00j ...  1.5022381e-01-1.2963508e-01j
  5.7382219e-02+2.4281379e-02j -5.9815906e-02-9.0637207e-03j]",True,0,0,0,0,0,UAV,35.727367,-78.696236,0.037,-0.00407541636377573,0.11180704832077026,-0.07934296876192093,0.0,0.0,0.0,0,0.0,"                                  0
time     2023-12-15 16:43:17.446521
type                            UAV
lat                       35.727368
lon                      -78.696233
alt                           0.037
pitch                     -0.004075
yaw                        0.111807
roll                      -0.079343
vel_x                           0.0
vel_y                           0.0
vel_z                           0.0
heading                           0
speed                           0.0",72.46064076984922,72.51681826463643
0,33.8,3686,33.2988,31.072195,11.972,ZC,True,[-1.69381534 -1.67013229 -1.63591042 -4.11526665],-2.2787812,[-7.31730597 -7.40537624 -7.30524536 -6.34066251],-7.092147518637744,306.1644,[72.32212795 72.29844489 72.26422303 74.74357925],72.90709378027499,182.01684949999998,[ 276  677 1078 1479],[ 576  977 1378 1779],576,1.1658108439463066,0.47082635345731405,-1.9757850266918138,-0.47082635345731405,Flight,"[ 5.8820729e-07-7.0930878e-07j  2.0760257e-07-2.0760257e-07j
  8.1311009e-07+4.8440603e-07j ...  9.5049039e-02-8.2605928e-02j
  3.2762453e-02-3.7443120e-02j -5.0384972e-02+4.8280124e-02j]",True,0,0,0,0,0,UAV,35.727367,-78.696236,0.028,-0.004119797144085169,0.11164978891611099,-0.07954062521457672,0.0,0.0,0.0,0,0.0,"                                  0
time     2023-12-15 16:43:17.851687
type                            UAV
lat                       35.727368
lon                      -78.696233
alt                           0.028
pitch                      -0.00412
yaw                         0.11165
roll                      -0.079541
vel_x                           0.0
vel_y                           0.0
vel_z                           0.0
heading                           0
speed                           0.0",72.53753429316217,72.59502464089617
0,34.2,3686,33.303116,31.072195,11.984,ZC,True,[-0.16693597  0.07441936  0.13393331 -2.21793891],-0.54413056,[-5.28606479 -5.10312285 -5.10958721 -4.35650062],-4.9638188656196185,383.204,[70.79524858 70.55389325 70.4943793  72.84625151],71.17244315836828,182.01684949999998,[ 276  677 1078 1479],[ 576  977 1378 1779],576,1.1658108439463066,0.4709410735592867,-1.9757850266918138,-0.4709410735592867,Flight,"[ 7.6120944e-07+2.2490279e-07j  1.7300215e-07+4.1520514e-07j
 -1.1072137e-06+6.2280770e-07j ... -8.8728994e-02-1.3426939e-02j
  2.3997404e-02-4.5730001e-03j  4.5781559e-04+3.3661686e-02j]",True,0,0,0,0,0,UAV,35.727367,-78.696236,0.016,-0.003980587236583233,0.11154402792453766,-0.07964395731687546,0.0,0.0,0.0,0,0.0,"                                  0
time     2023-12-15 16:43:18.256859
type                            UAV
lat                       35.727368
lon                      -78.696233
alt                           0.016
pitch                     -0.003981
yaw                        0.111544
roll                      -0.079644
vel_x                           0.0
vel_y                           0.0
vel_z                           0.0
heading                           0
speed                           0.0",72.45693559909955,72.31006739440946
0,34.6,3686,33.305275,31.072195,11.99,ZC,True,[-0.2701622  -0.18498615 -0.11867015 -2.70359983],-0.8193546,[-5.74394879 -5.48891743 -5.44809988 -4.58506281],-5.316507228031273,-35.6587,[70.89847481 70.81329876 70.74698275 73.33191244],71.44766718833495,182.01684949999998,[ 276  677 1078 1479],[ 576  977 1378 1779],576,1.1658108439463066,0.47099840029039647,-1.9757850266918138,-0.47099840029039647,Flight,"[-6.2280770e-07-6.2280770e-07j -4.4980558e-07+7.0930878e-07j
 -1.5570193e-07-2.4220301e-07j ... -4.6043776e-02+8.8017680e-02j
  7.1763068e-02+2.1843944e-02j -8.6070122e-03-4.4678912e-02j]",True,0,0,0,0,0,UAV,35.727367,-78.696236,0.01,-0.003926042001694441,0.11158343404531479,-0.07960864156484604,0.0,0.0,0.0,0,0.0,"                                  0
time     2023-12-15 16:43:18.661890
type                            UAV
lat                       35.727368
lon                      -78.696233
alt                            0.01
pitch                     -0.003926
yaw                        0.111583
roll                      -0.079609
vel_x                           0.0
vel_y                           0.0
vel_z                           0.0
heading                           0
speed                           0.0",72.36549369451654,72.13737356859305
0,35.0,3686,33.306717,31.072195,11.994,ZC,True,[-0.97511761 -1.04542588 -0.97650908 -3.51631659],-1.6283423,[-6.70488259 -6.55461223 -6.65655936 -5.59968528],-6.378934864506301,-167.8939,[71.60343022 71.67373848 71.60482169 74.14462919],72.25665489612582,182.01684949999998,[ 276  677 1078 1479],[ 576  977 1378 1779],576,1.1658108439463066,0.47103660576656076,-1.9757850266918138,-0.47103660576656076,Flight,"[-2.24902792e-07-1.3840172e-07j -5.88207286e-07+1.5570193e-07j
  1.03801284e-07-3.4600430e-07j ...  5.23746014e-02+7.6526459e-03j
  1.14546522e-01+3.1024249e-02j -4.85248193e-02+1.0163374e-02j]",True,0,0,0,0,0,UAV,35.727367,-78.696236,0.006,-0.004040602594614029,0.11164844781160355,-0.07973118126392365,0.0,0.0,0.0,0,0.0,"                                  0
time     2023-12-15 16:43:19.066934
type                            UAV
lat                       35.727368
lon                      -78.696233
alt                           0.006
pitch                     -0.004041
yaw                        0.111648
roll                      -0.079731
vel_x                           0.0
vel_y                           0.0
vel_z                           0.0
heading                           0
speed                           0.0",72.31420933730907,72.16125348362196
0,35.4,3686,33.30924,31.072195,12.001,ZC,True,[-1.35584296 -1.42686253 -1.40609129 -3.82817388],-2.0042427,[-8.8691832  -8.73564957 -8.72471036 -7.74934255],-8.519721417628038,-411.10226,[71.98415557 72.05517514 72.0344039  74.45648648],72.63255527147086,182.01684949999998,[ 276  677 1078 1479],[ 576  977 1378 1779],576,1.1658108439463066,0.471103441610894,-1.9757850266918138,-0.471103441610894,Flight,"[ 1.73002146e-08+3.4600430e-07j  1.03801284e-07+9.3421158e-07j
  8.65010747e-07-9.6016186e-07j ... -6.25575776e-05-3.0676914e-02j
  2.56560799e-02-2.5550826e-02j -5.13310507e-02-2.9297567e-03j]",True,0,0,0,0,0,UAV,35.727367,-78.696236,-0.001,-0.004205650649964809,0.11168258637189865,-0.07971584051847458,0.0,0.0,0.0,0,0.0,"                                  0
time     2023-12-15 16:43:19.471973
type                            UAV
lat                       35.727368
lon                      -78.696233
alt                          -0.001
pitch                     -0.004206
yaw                        0.111683
roll                      -0.079716
vel_x                           0.0
vel_y                           0.0
vel_z                           0.0
heading                           0
speed                           0.0",72.24372340387175,72.2555885811561
0,35.8,3686,33.31068,31.072195,12.005,ZC,True,[-1.53332705 -1.30612626 -1.32895218 -3.76268665],-1.9827731,[-7.71084095 -7.53226008 -7.545994   -6.53722892],-7.331580985537493,220.44221,[72.16163965 71.93443886 71.95726479 74.39099925],72.61108563774572,187.37028625,[ 277  678 1079 1480],[ 577  978 1379 1780],577,1.1658108439463066,0.4711416199483725,-1.9757850266918138,-0.4711416199483725,Flight,"[ 5.1900645e-07+6.92008584e-08j  1.2110151e-07+1.03801284e-07j
 -5.5360687e-07+7.09308779e-07j ... -9.2598431e-02+1.63446963e-01j
 -1.2337267e-02-8.76458436e-02j  3.9490577e-02-5.33775128e-02j]",True,0,0,0,0,0,UAV,35.727367,-78.696236,-0.005,-0.00424980977550149,0.11163638532161713,-0.07981117069721222,0.0,0.0,0.0,0,0.0,"                                  0
time     2023-12-15 16:43:19.876948
type                            UAV
lat                       35.727368
lon                      -78.696233
alt                          -0.005
pitch                      -0.00425
yaw                        0.111636
roll                      -0.079811
vel_x                           0.0
vel_y                           0.0
vel_z                           0.0
heading                           0
speed                           0.0",72.24194097859493,72.32673308566095
0,36.2,3686,33.3114,31.072195,12.007,ZC,True,[-1.5295735  -1.27015559 -1.27712962 -3.61097853],-1.9219593,[-6.13847671 -6.17091093 -6.13614891 -5.28797989],-5.933379108678,-374.56024,[72.1578861  71.8984682  71.90544223 74.23929113],72.55027191512511,187.37028625,[ 277  678 1079 1480],[ 577  978 1379 1780],577,1.1658108439463066,0.4711607054177332,-1.9757850266918138,-0.4711607054177332,Flight,"[ 3.1140385e-07-5.0170621e-07j -1.4705182e-07+3.8060472e-07j
  3.4600429e-08+8.0446000e-07j ... -8.1356540e-02+1.3522460e-01j
  5.6777403e-02-5.3060304e-02j -2.5605235e-02-2.5146415e-02j]",True,0,0,0,0,0,UAV,35.727367,-78.696236,-0.007,-0.0040700240060687065,0.11169629544019699,-0.07962273806333542,0.0,0.0,0.0,0,0.0,"                                  0
time     2023-12-15 16:43:20.282103
type                            UAV
lat                       35.727368
lon                      -78.696233
alt                          -0.007
pitch                      -0.00407
yaw                        0.111696
roll                      -0.079623
vel_x                           0.0
vel_y                           0.0
vel_z                           0.0
heading                           0
speed                           0.0",72.29663917592411,72.37146353258494
0,36.6,3686,33.314285,31.072195,12.015,ZC,True,[-0.72229858 -0.45815743 -0.37672952 -2.87594375],-1.1082823,[-5.66983368 -5.4900887  -5.43842133 -4.59506686],-5.2983526434364245,-83.068985,[71.35061119 71.08647003 71.00504213 73.50425636],71.73659492510733,187.37028625,[ 277  678 1079 1480],[ 577  978 1379 1780],577,1.1658108439463066,0.47123702264022793,-1.9757850266918138,-0.47123702264022793,Flight,"[-2.2490279e-07+6.9200858e-08j  2.7680343e-07+1.3840172e-06j
 -1.7300215e-07-1.2456154e-06j ...  1.6450359e-02-4.4343192e-02j
 -5.0319351e-02-1.6713111e-01j  4.4861462e-02+8.5116677e-02j]",True,0,0,0,0,0,UAV,35.727367,-78.696236,-0.015,-0.0041110944002866745,0.11162877082824707,-0.07948347181081772,0.0,0.0,0.0,0,0.0,"                                  0
time     2023-12-15 16:43:20.687260
type                            UAV
lat                       35.727368
lon                      -78.696233
alt                          -0.015
pitch                     -0.004111
yaw                        0.111629
roll                      -0.079483
vel_x                           0.0
vel_y                           0.0
vel_z                           0.0
heading                           0
speed                           0.0",72.25935829858999,72.24443828352679
0,37.0,3686,33.318974,31.072195,12.028,ZC,True,[-0.39518811 -0.47591854 -0.500117   -3.09253258],-1.115939,[-6.56416924 -6.35751947 -6.40749903 -5.44133065],-6.19262959663154,-75.85206,[71.02350071 71.10423115 71.12842961 73.72084518],71.7442516628135,187.37028625,[ 277  678 1079 1480],[ 577  978 1379 1780],577,1.1658108439463066,0.47136095398095923,-1.9757850266918138,-0.47136095398095923,Flight,"[ 5.5360687e-07-4.32505374e-07j  2.0760257e-07-4.84406030e-07j
 -1.4445679e-06+1.03801284e-07j ...  6.5185659e-02+1.00612856e-01j
 -1.3900051e-01-5.14114611e-02j  3.2807156e-02-1.31536648e-02j]",True,0,0,0,0,0,UAV,35.727367,-78.696236,-0.028,-0.004183335695415735,0.11141470819711685,-0.07971785962581635,0.0,0.0,0.0,0,0.0,"                                  0
time     2023-12-15 16:43:21.092494
type                            UAV
lat                       35.727368
lon                      -78.696233
alt                          -0.028
pitch                     -0.004183
yaw                        0.111415
roll                      -0.079718
vel_x                           0.0
vel_y                           0.0
vel_z                           0.0
heading                           0
speed                           0.0",72.17378735580444,72.14436848487782
0,37.4,3686,33.32078,31.072195,12.033,ZC,True,[-1.09628617 -1.19296056 -1.20558305 -3.81175121],-1.8266453,[-8.63898201 -8.64258604 -8.4717264  -7.46696005],-8.305063626329336,-98.25507,[71.72459878 71.82127316 71.83389565 74.44006382],72.45495785222411,187.37028625,[ 277  678 1079 1480],[ 577  978 1379 1780],577,1.1658108439463066,0.471408592149341,-1.9757850266918138,-0.471408592149341,Flight,"[ 3.1140385e-07-6.9200858e-08j  7.6120944e-07-4.1520514e-07j
 -7.0065869e-07-1.7300215e-07j ... -2.6913460e-02+9.1680765e-02j
 -4.6814520e-02+8.7118819e-02j  4.5564335e-02-6.2318020e-02j]",True,0,0,0,0,0,UAV,35.727367,-78.696236,-0.033,-0.004101728554815054,0.11132629215717316,-0.079819455742836,0.0,0.0,0.01,0,0.01,"                                  0
time     2023-12-15 16:43:21.295176
type                            UAV
lat                       35.727368
lon                      -78.696233
alt                          -0.033
pitch                     -0.004102
yaw                        0.111326
roll                      -0.079819
vel_x                           0.0
vel_y                           0.0
vel_z                          0.01
heading                           0
speed                          0.01",72.15135762875907,72.20650248925688
0,37.8,3686,33.32114,31.072195,12.034,ZC,True,[-1.95657857 -2.02587755 -1.98397811 -4.45725237],-2.6059217,[-8.14687424 -7.96729932 -7.96771574 -7.05361072],-7.783875003077226,-136.80759,[72.58489118 72.65419015 72.61229071 75.08556498],73.23423425505558,192.72372299999998,[ 278  679 1080 1481],[ 578  979 1380 1781],578,1.1658108439463066,0.471418117942141,-1.9757850266918138,-0.471418117942141,Flight,"[ 4.1520514e-07+6.7470836e-07j  5.8820729e-07-3.2870409e-07j
 -2.0760257e-07-3.1140385e-07j ... -2.5197668e-02-1.3659834e-02j
 -1.0667287e-02+3.7477594e-02j  1.1779682e-02+2.1061627e-03j]",True,0,0,0,0,0,UAV,35.727367,-78.696236,-0.034,-0.004181290976703167,0.11114121973514557,-0.07964789122343063,0.0,0.0,0.01,0,0.01,"                                  0
time     2023-12-15 16:43:21.700430
type                            UAV
lat                       35.727368
lon                      -78.696233
alt                          -0.034
pitch                     -0.004181
yaw                        0.111141
roll                      -0.079648
vel_x                           0.0
vel_y                           0.0
vel_z                          0.01
heading                           0
speed                          0.01",72.18407167623712,72.41209154159225
0,38.2,3686,33.32403,31.072195,12.042,ZC,True,[-0.8139937  -0.62282301 -0.68935866 -3.06488003],-1.2977638,[-5.80042128 -5.77780944 -5.76478349 -5.00405381],-5.586767003808372,-75.869286,[71.4423063  71.25113561 71.31767127 73.69319264],71.92607645441227,192.72372299999998,[ 278  679 1080 1481],[ 578  979 1380 1781],578,1.1658108439463066,0.4714943020542685,-1.9757850266918138,-0.4714943020542685,Flight,"[ 9.6881206e-07+2.07602568e-07j -5.8820729e-07-1.38401717e-07j
  7.6120944e-07-4.32505374e-07j ... -5.9449989e-02+1.24008685e-01j
 -6.3124888e-02-1.45761296e-01j  4.1993175e-02+5.24925888e-02j]",True,0,0,0,0,0,UAV,35.727367,-78.696236,-0.042,-0.004283570218831301,0.11094511300325394,-0.07962353527545929,0.0,0.0,0.01,0,0.01,"                                  0
time     2023-12-15 16:43:22.105966
type                            UAV
lat                       35.727368
lon                      -78.696233
alt                          -0.042
pitch                     -0.004284
yaw                        0.110945
roll                      -0.079624
vel_x                           0.0
vel_y                           0.0
vel_z                          0.01
heading                           0
speed                          0.01",72.25943500584152,72.31487237085082
0,38.6,3686,33.328007,31.072195,12.053,ZC,True,[-1.2550058  -0.91040256 -0.8344811  -3.06694944],-1.5167097,[-5.92836085 -5.91246433 -5.83145791 -5.07172709],-5.686002545811993,311.92105,[71.88331841 71.53871516 71.46279371 73.69526204],72.14502233056686,192.72372299999998,[ 278  679 1080 1481],[ 578  979 1380 1781],578,1.1658108439463066,0.471598990846638,-1.9757850266918138,-0.471598990846638,Flight,"[ 1.7300215e-07+1.03801284e-07j -4.1520514e-07-1.73002149e-07j
  3.8060472e-07+7.09308779e-07j ...  2.5195306e-02-6.23239540e-02j
  7.2219536e-02-1.41019002e-01j -3.8148288e-02+4.89211306e-02j]",True,0,0,0,0,0,UAV,35.727367,-78.696236,-0.053,-0.004328377079218626,0.1109035462141037,-0.08003693073987961,0.0,0.0,0.01,0,0.01,"                                  0
time     2023-12-15 16:43:22.511173
type                            UAV
lat                       35.727368
lon                      -78.696233
alt                          -0.053
pitch                     -0.004328
yaw                        0.110904
roll                      -0.080037
vel_x                           0.0
vel_y                           0.0
vel_z                          0.01
heading                           0
speed                          0.01",72.32917052006472,72.28089784680517
0,39.0,3686,33.329456,31.072195,12.057,ZC,True,[-1.06735104 -0.9116968  -0.81875892 -3.21116752],-1.5022435,[-6.23755945 -6.10146193 -6.10079667 -5.21929798],-5.914779006988423,-142.28384,[71.69566364 71.5400094  71.44707153 73.83948012],72.13055617542834,192.72372299999998,[ 278  679 1080 1481],[ 578  979 1380 1781],578,1.1658108439463066,0.47163704102131876,-1.9757850266918138,-0.47163704102131876,Flight,"[ 6.5740818e-07-2.7680343e-07j  4.1520514e-07+2.7680343e-07j
 -2.0760257e-07+2.0760257e-07j ... -6.1712824e-02-3.4858931e-02j
  3.4440957e-02-1.1891759e-01j  2.1026820e-02+3.6957894e-02j]",True,0,0,0,0,0,UAV,35.727367,-78.696236,-0.057,-0.004290204029530287,0.11097037047147751,-0.07999037206172943,0.0,0.0,0.01,0,0.01,"                                  0
time     2023-12-15 16:43:22.916335
type                            UAV
lat                       35.727368
lon                      -78.696233
alt                          -0.057
pitch                      -0.00429
yaw                         0.11097
roll                       -0.07999
vel_x                           0.0
vel_y                           0.0
vel_z                          0.01
heading                           0
speed                          0.01",72.31656064799498,72.25082631477603
0,39.4,3686,33.329094,31.072195,12.056,ZC,True,[-1.01312017 -0.93694054 -1.0056631  -3.63917605],-1.6487249,[-8.22698652 -8.28544751 -8.20505491 -7.24149091],-7.9897449607125175,-182.67851,[71.64143277 71.56525315 71.6339757  74.26748865],72.27703756901751,192.72372299999998,[ 278  679 1080 1481],[ 578  979 1380 1781],578,1.1658108439463066,0.4716275294011534,-1.9757850266918138,-0.4716275294011534,Flight,"[-1.03801284e-07+7.6120944e-07j  1.21101507e-07-1.2110151e-07j
  2.07602568e-07-2.9410364e-07j ... -5.63310198e-02-8.3906770e-02j
 -1.39775695e-02+3.9768866e-03j  1.68464985e-02-7.8125689e-03j]",True,0,0,0,0,0,UAV,35.727367,-78.696236,-0.056,-0.004109365865588188,0.11104356497526169,-0.0797576829791069,0.0,0.0,0.0,0,0.0,"                                  0
time     2023-12-15 16:43:23.321803
type                            UAV
lat                       35.727368
lon                      -78.696233
alt                          -0.056
pitch                     -0.004109
yaw                        0.111044
roll                      -0.079758
vel_x                           0.0
vel_y                           0.0
vel_z                           0.0
heading                           0
speed                           0.0",72.28100887774963,72.25606901162365
0,39.8,3686,33.335762,31.080511,12.053,ZC,True,[-2.53949717 -2.45291637 -2.56385511 -4.73109393],-3.0718408,[-8.28562333 -8.4545402  -8.46357366 -7.62150487],-8.20631051526044,162.66925,[73.16780978 73.08122898 73.19216772 75.35940653],73.70015325083914,192.72372299999998,[ 278  679 1080 1481],[ 578  979 1380 1781],578,1.1659255367918202,0.4715049310836222,-1.9756703348654499,-0.4715049310836222,Landing,"[ 8.3041027e-07+3.8060472e-07j -9.6881206e-07-4.1520514e-07j
 -1.2456154e-06-4.1520514e-07j ... -2.7235049e-01-3.4454986e-02j
 -3.3031225e-02-7.0701361e-02j  1.4142247e-01+2.9175220e-02j]",True,0,0,0,0,0,UAV,35.727367,-78.696236,-0.053,0.00857580080628395,0.09996594488620758,-0.06145655736327171,-0.03,-0.05,-0.05,0,0.07681145747868609,"                                  0
time     2023-12-15 16:43:23.727088
type                            UAV
lat                       35.727368
lon                      -78.696233
alt                          -0.053
pitch                      0.008576
yaw                        0.099966
roll                      -0.061457
vel_x                         -0.03
vel_y                         -0.05
vel_z                         -0.05
heading                           0
speed                      0.076811",72.38991563905897,72.54490551666066
0,40.2,3686,33.344517,31.101515,12.023,ZC,True,[-3.43462374 -2.16737042 -2.03951353 -5.07699392],-3.1796255,[-6.14771515 -5.38878873 -5.43672235 -4.43722526],-5.352612870442455,-379.8289,[74.06293635 72.79568303 72.66782613 75.70530653],73.80793800897501,198.07715975,[ 279  680 1081 1482],[ 579  980 1381 1782],579,1.1658268008393966,0.471196403620859,-1.9757690728561694,-0.471196403620859,Landing,"[ 0.0000000e+00+3.4600430e-07j -8.3041027e-07+3.4600430e-07j
 -8.1311009e-07-1.3840172e-07j ... -9.0767376e-02+9.3162479e-03j
  1.3110172e-02+2.8237799e-02j -2.2369316e-02-1.4007465e-02j]",True,0,0,0,0,0,UAV,35.727367,-78.696236,-0.023,0.0006013936945237219,0.08558156341314316,0.0017637237906455994,-0.05,-0.09,-0.22,0,0.24289915602982237,"                                  0
time     2023-12-15 16:43:24.132369
type                            UAV
lat                       35.727368
lon                      -78.696234
alt                          -0.023
pitch                      0.000601
yaw                        0.085582
roll                       0.001764
vel_x                         -0.05
vel_y                         -0.09
vel_z                         -0.22
heading                           0
speed                      0.242899",72.51568224844395,72.7975257690783
0,40.6,3686,33.264286,31.114643,11.764,ZC,True,[-9.02928352 -8.63033784 -8.66138674 -9.5400306 ],-8.96526,[-5.84282173 -6.19337886 -6.23001755 -5.94884882],-6.0537667392068775,327.93665,[79.65759612 79.25865044 79.28969934 80.1683432 ],79.59357227698948,198.07715975,[ 279  680 1081 1482],[ 579  980 1381 1782],579,1.164843541114382,0.46920562974101715,-1.9767523325811724,-0.46920562974101715,Landing,"[-7.61209435e-07+1.3840172e-07j  4.32505374e-07+1.5570193e-07j
  4.67105792e-07+4.1520514e-07j ...  1.20148264e-01-8.6265787e-02j
  1.04795359e-02+8.1172609e-04j -4.45265323e-02+2.9572191e-02j]",True,0,0,0,0,0,UAV,35.727367,-78.696236,0.236,-0.00812281109392643,0.09171147644519806,0.01794041506946087,-0.1,0.06,-0.95,0,0.9571311299921239,"                                  0
time     2023-12-15 16:43:24.537628
type                            UAV
lat                       35.727368
lon                      -78.696234
alt                           0.236
pitch                     -0.008123
yaw                        0.091711
roll                        0.01794
vel_x                          -0.1
vel_y                          0.06
vel_z                         -0.95
heading                           0
speed                      0.957131",73.30137998363219,74.15679427515393
0,41.0,3686,33.149223,31.111187,11.444,ZC,True,[ 0.69379793  0.6974232   0.75769343 -1.36777446],0.19528502,[-6.93439713 -6.96431549 -6.92213343 -6.06958575],-6.722607948036561,-902.62634,[69.93451467 69.93088941 69.87061918 71.99608707],70.43302758104093,198.07715975,[ 279  680 1081 1482],[ 579  980 1381 1782],579,1.1636309104653264,0.4667668405774352,-1.9779649611919166,-0.4667668405774352,Landing,"[ 3.4600430e-07+2.76803434e-07j -2.7680343e-07-7.61209435e-07j
  1.3840172e-07-1.07261326e-06j ...  5.3710178e-02-1.13911085e-01j
  9.6201167e-02-3.31099294e-02j -7.3915996e-02+6.11580573e-02j]",True,0,0,0,0,0,UAV,35.727367,-78.696236,0.556,-0.017385127022862434,0.09271623939275742,-0.0015425682067871094,-0.12,0.08,-1.41,0,1.4173566946961516,"                                  0
time     2023-12-15 16:43:24.942788
type                            UAV
lat                       35.727368
lon                      -78.696233
alt                           0.556
pitch                     -0.017385
yaw                        0.092716
roll                      -0.001543
vel_x                         -0.12
vel_y                          0.08
vel_z                         -1.41
heading                           0
speed                      1.417357",73.17025757545494,73.41201498456071
0,41.4,3686,32.793404,31.095581,10.415,ZC,True,[ 1.95775467  1.96023449  1.97970072 -0.31878193],1.394727,[-5.55214631 -5.30623081 -5.28916877 -4.52495392],-5.168124954105767,-341.31253,[68.67055794 68.66807812 68.64861189 70.94709454],69.23358562065857,203.43059649999998,[ 280  681 1082 1483],[ 580  981 1382 1783],580,1.1618594513320384,0.4573461620365578,-1.9797364162485898,-0.4573461620365578,Landing,"[-2.76803434e-07-4.1520514e-07j  6.22807704e-07-1.3840172e-07j
 -4.49805583e-07-4.8440603e-07j ... -1.20672666e-01+6.0223620e-02j
  1.48783578e-03-4.1362979e-02j  2.20028274e-02+3.5982095e-02j]",True,0,0,0,0,0,UAV,35.727367,-78.696236,1.585,-0.026239315047860146,0.0944599136710167,-0.0071250759065151215,-0.1,0.07,-2.1,0,2.1035446275275453,"                                  0
time     2023-12-15 16:43:25.348014
type                            UAV
lat                       35.727367
lon                      -78.696233
alt                           1.585
pitch                     -0.026239
yaw                         0.09446
roll                      -0.007125
vel_x                          -0.1
vel_y                          0.07
vel_z                          -2.1
heading                           0
speed                      2.103545",72.84812035229837,72.57630581560873
