index,time,center_freq,dist,h_dist,v_dist,wav_type,detected,power,avgPower,snr,avgSnr,freq_offset,path_loss,avg_pl,est_dist,peaks,orig_peaks,start_point,aod_theta,aod_phi,aoa_theta,aoa_phi,stage,corr,save_corr,rsrp,shadowing,multipath,delay,doppler,type,lat,lon,alt,pitch,yaw,roll,vel_x,vel_y,vel_z,heading,speed,vehicle,avg_pl_rolling,avg_pl_ewma
0,147.8,3686,83.92496,31.042059,77.973,ZC,True,[-0.87307504 -0.49408336 -1.01361675 -1.33754057],-0.9295789,[-8.4751731  -7.08522518 -7.29546828 -7.38356653],-7.559858270950919,-295.04495,[71.50138764 71.12239596 71.64192935 71.96585318],71.55789153327206,198.07715975,[ 279  680 1081 1482],"[  579   980  1381  1782  6095 24257 26407 29017 29472 30063 31461 41387
 42683 47212 48089 49593]",579,1.167338596275513,-0.4014026672326551,-1.974257273343477,0.4014026672326551,Landing,"[-1.1072137e-06-5.5360687e-07j  3.4600430e-07+0.0000000e+00j
  2.2144275e-06+1.7992223e-06j ...  6.1200494e-01-1.0744137e+00j
 -2.2516036e-01+3.7337849e-01j  5.5785581e-02+2.4539760e-01j]",True,0,0,0,0,0,UAV,35.727367,-78.696236,89.973,-0.1410624533891677,-0.005168913397938,-0.1292096227407455,0.21,-0.2,-0.04,0,0.2927456233660889,"                                  0
time     2023-12-15 16:56:25.745279
type                            UAV
lat                       35.727369
lon                      -78.696233
alt                          89.973
pitch                     -0.141062
yaw                       -0.005169
roll                       -0.12921
vel_x                          0.21
vel_y                          -0.2
vel_z                         -0.04
heading                           0
speed                      0.292746",72.55203823277728,72.36385255943249
0,148.2,3686,83.98532,31.222378,77.966,ZC,True,[-0.61000249 -0.51741632 -0.92033961 -1.41539635],-0.8657887,[-8.73269606 -8.53727118 -8.44195084 -8.07176828],-8.44592159104618,-118.04639,[71.23831509 71.14572892 71.54865221 72.04370895],71.49410129464354,198.07715975,[ 279  680 1081 1482],"[  579   980  1381  1782  6515  7516 11296 12579 15047 15997 17396 18158
 18697 19765 20338 22313 22961 24712 25803 29096 30005 30490 31003 32679
 33754 34390 35600 36449 37176 38894 39651 42312 42779 43322 43932 44366
 44789 45506 46012 47111 47998 48940 49819 50671 51123 53360 53815]",579,1.1805858516823464,-0.4036508139914484,-1.961010054626148,0.4036508139914484,Takeoff,"[ 1.9376241e-06-1.1072137e-06j  4.4288549e-06-1.3840172e-06j
  1.9376241e-06+5.5360687e-07j ... -1.4827585e-01+3.3303770e-01j
  5.7971859e-01-5.9746277e-01j -2.5821561e-01+2.9239687e-01j]",True,0,0,0,0,0,UAV,35.72737,-78.696236,89.966,-0.2256310880184173,0.0092199193313717,-0.2075506001710891,1.09,-1.05,0.03,0,1.5137701278595772,"                                  0
time     2023-12-15 16:56:26.148096
type                            UAV
lat                       35.727372
lon                      -78.696237
alt                          89.966
pitch                     -0.225631
yaw                         0.00922
roll                      -0.207551
vel_x                          1.09
vel_y                         -1.05
vel_z                          0.03
heading                           0
speed                       1.51377",72.33978612613105,72.1899023064747
0,148.6,3686,84.043274,31.412703,77.952,ZC,True,[-0.24268691 -0.34775505 -0.55191443 -0.75193577],-0.47357303,[-8.50818189 -8.51390915 -8.11483693 -8.63282717],-8.442438785368651,-495.32776,[70.87099951 70.97606765 71.18022704 71.38024838],71.1018856448662,203.4305965,[ 280  681 1082 1483],"[  580   981  1382  1783  2475  4399  5815  7382  7906  8715 10136 11633
 12858 15019 16810 17772 18187 19113 20902 21353 22100 22798 23605 25608
 26328 26772 28800 29330 30174 42944 44915 46964]",580,1.194876002249739,-0.4061327177388177,-1.9467199427865736,0.4061327177388177,Takeoff,"[-5.5360687e-07+5.5360687e-07j -2.7680343e-07+5.5360687e-07j
  2.2144275e-06+3.5984447e-06j ...  9.0416348e-01+5.9895504e-01j
 -9.4831139e-01+6.3865530e-01j  2.4585792e-01-3.8334730e-01j]",True,0,0,0,0,0,UAV,35.727375,-78.69624,89.952,-0.2230551093816757,0.0091745723038911,-0.206240102648735,1.57,-1.51,0.03,0,2.178508664201269,"                                  0
time     2023-12-15 16:56:26.550855
type                            UAV
lat                       35.727375
lon                      -78.696241
alt                          89.952
pitch                     -0.223055
yaw                        0.009175
roll                       -0.20624
vel_x                          1.57
vel_y                         -1.51
vel_z                          0.03
heading                           0
speed                      2.178509",72.2956872323332,71.972298974153
0,149.0,3686,84.268936,32.03832,77.941,ZC,True,[ 0.31059372  0.40696029  0.50451675 -0.44975998],0.1930777,[-10.49212823 -11.81693824 -11.54646983 -10.52677886],-11.09557878895735,-204.89163,[70.31771888 70.22135231 70.12379586 71.07807258],70.4352349077949,224.8443435,[ 284  685 1086 1487],"[  584   985  1386  1787  2233 17254 28080 35017 39324 40125 43015 46377
 48101 49738 50546 51713 52126 54323]",584,1.2368729160585514,-0.4134803009777134,-1.9047231471995347,0.4134803009777134,Landing,"[ 0.0000000e+00+8.3041027e-07j  1.1072137e-06+3.8752482e-06j
 -1.6608205e-06+3.5984447e-06j ... -3.9010903e-01+9.4192225e-01j
 -9.4310915e-01-9.1447276e-01j  6.1091459e-01+4.7318959e-01j]",True,0,0,0,0,0,UAV,35.727383,-78.69625,89.941,-0.222045287489891,0.0091661429032683,-0.2009006142616272,2.52,-2.43,0.02,0,3.5008141910132853,"                                  0
time     2023-12-15 16:56:26.953517
type                            UAV
lat                       35.727384
lon                      -78.696252
alt                          89.941
pitch                     -0.222045
yaw                        0.009166
roll                      -0.200901
vel_x                          2.52
vel_y                         -2.43
vel_z                          0.02
heading                           0
speed                      3.500814",72.00027818937693,71.66488616088138
0,149.4,3686,84.4528,32.494865,77.951,ZC,True,[-1.62054892 -1.75964923 -1.72350237 -3.31759528],-2.105324,[-11.93652337 -14.21533853 -12.92480888 -11.59973016],-12.669100236156162,2653.2488,[72.24886152 72.38796183 72.35181497 73.94590789],72.73363655353585,203.4305965,[ 280  681 1082 1483],"[  580   981  1382  1783  5858  7539  9764 10588 13726 14263 15088 15670
 16938 18194 18779 19185 19971 20582 21663 22638 23055 25784 27668 29478
 30322 33718 35203 37505 39328 40007 40443 42599 43748 44774 45557 46105
 49013 49925 50942 51598 54632]",580,1.2636719549649675,-0.4181948371901572,-1.8779241877870785,0.4181948371901572,Flight,"[ 5.5360687e-07-3.1832394e-06j -2.7680343e-07+1.1072137e-06j
  5.5360687e-07-3.0448377e-06j ...  6.7206806e-01-1.5332251e+00j
  1.6924362e+00+6.0227334e-01j -9.7466695e-01-4.6992365e-02j]",True,0,0,0,0,0,UAV,35.72739,-78.69626,89.951,-0.202039897441864,0.0033580434974282,-0.1833692491054535,2.94,-2.84,0.0,0,4.087688833558641,"                                  0
time     2023-12-15 16:56:27.355999
type                            UAV
lat                        35.72739
lon                       -78.69626
alt                          89.951
pitch                      -0.20204
yaw                        0.003358
roll                      -0.183369
vel_x                          2.94
vel_y                         -2.84
vel_z                           0.0
heading                           0
speed                      4.087689",72.02497758183512,71.87863623941227
0,149.8,3686,84.949295,33.630028,78.009,ZC,True,[-2.24753715 -2.51853333 -2.22511389 -2.61156912],-2.4006884,[-11.71699949 -10.7503985  -11.59694434 -10.2709817 ],-11.083831007035904,-1718.1381,[72.87584976 73.14684593 72.85342649 73.23988172],73.02900097660769,230.19778025,[ 285  686 1087 1488],"[  585   986  1387  1788  5650  8861 12209 13098 14864 19357 19942 20616
 21335 21839 23450 33405 34483 37345 42720 48590]",585,1.323003636519495,-0.4289074242549519,-1.8185926896802,0.4289074242549519,Landing,"[ 2.7680344e-06+0.0000000e+00j  0.0000000e+00+5.5360687e-07j
  0.0000000e+00+5.5360687e-07j ... -7.6027465e-01+5.0274533e-01j
  2.4029306e-01-5.6028336e-02j  7.1719773e-02-2.2461767e-01j]",True,0,0,0,0,0,UAV,35.727406,-78.69628,90.009,-0.1014060750603675,-0.0095788305625319,-0.0773284286260604,3.37,-3.28,-0.08,0,4.703371131433283,"                                  0
time     2023-12-15 16:56:27.758558
type                            UAV
lat                       35.727404
lon                      -78.696278
alt                          90.009
pitch                     -0.101406
yaw                       -0.009579
roll                      -0.077328
vel_x                          3.37
vel_y                         -3.28
vel_z                         -0.08
heading                           0
speed                      4.703371",72.15556365216368,72.10870918685136
0,150.2,3686,85.5479,34.956493,78.08,ZC,True,[-4.48761173 -4.18886525 -6.37168903 -5.70120155],-5.1873417,[-13.94434294 -14.46915165 -12.11839229 -11.23068217],-12.940642263207389,3670.3872,[75.11592433 74.81717786 77.00000164 76.32951415],75.81565449505588,208.78403325,[ 281  682 1083 1484],"[  581   982  1383  1784  4641  7157  9074  9889 17805 18943 29171 35930
 40380 42550 43363 43786 45875 47810 50795 52449 55032]",581,1.3813178479854291,-0.4396978263886386,-1.7602786728726705,0.4396978263886386,Flight,"[-4.9824616e-06+9.6881206e-07j  3.3216411e-06+1.3840172e-06j
 -1.3840172e-06-2.2144275e-06j ... -6.6011530e-01+6.8375540e-01j
 -3.9630473e-01+9.5933288e-02j  4.5866799e-01-2.2928570e-01j]",True,0,0,0,0,0,UAV,35.72742,-78.6963,90.08,-0.0783215537667274,-0.0067661735229194,-0.0478404909372329,3.45,-3.39,0.01,0,4.836806797878121,"                                  0
time     2023-12-15 16:56:28.161171
type                            UAV
lat                        35.72742
lon                      -78.696297
alt                           90.08
pitch                     -0.078322
yaw                       -0.006766
roll                       -0.04784
vel_x                          3.45
vel_y                         -3.39
vel_z                          0.01
heading                           0
speed                      4.836807",72.3507565139389,72.85009824849226
0,150.6,3686,85.846725,35.66624,78.087,ZC,True,[-4.46084174 -4.2923897  -4.22565467 -5.47543507],-4.61358,[-11.67377939 -11.68321335 -11.70619706 -11.81358481],-11.71919365320908,444.2838,[75.08915435 74.9207023  74.85396728 76.10374768],75.24189290067444,230.19778025,[ 285  686 1087 1488],"[  585   986  1387  1788  3336  3913  4675  5193  5607  6377  6871  7563
  7966  8475  8971  9509 10006 10776 11431 11982 12481 12933 13530 14023
 14563 15124 15846 16303 16767 17208 17822 18321 19123 19898 20493 20971
 21749 22425 23061 23572 24338 24771 25347 25942 26637 27158 27892 28384
 28843 29291 30403 30871 36461 42149 44153 47362]",585,1.4088221303675317,-0.4448407026334764,-1.732774488329372,0.4448407026334764,Takeoff,"[-2.7680344e-06+2.2144275e-06j  5.5360687e-07-6.6432822e-06j
  5.5360687e-07+3.8752482e-06j ... -9.8419327e-01-2.7765599e-01j
 -2.0863782e-01-9.2951977e-01j  5.4955006e-01+4.4419423e-01j]",True,0,0,0,0,0,UAV,35.72743,-78.696304,90.087,-0.0792785733938217,-0.0056003974750638,-0.0436620488762855,3.48,-3.4,0.07,0,4.86572707824843,"                                  0
time     2023-12-15 16:56:28.564083
type                            UAV
lat                       35.727427
lon                      -78.696307
alt                          90.087
pitch                     -0.079279
yaw                         -0.0056
roll                      -0.043662
vel_x                          3.48
vel_y                          -3.4
vel_z                          0.07
heading                           0
speed                      4.865727",72.60748747846172,73.3284571789287
0,151.0,3686,86.453545,37.14931,78.065,ZC,True,[-5.15312721 -4.4614056  -5.51405004 -5.41918709],-5.1369424,[-11.77244737 -13.90607143 -12.97534583 -13.1087272 ],-12.940647957690718,2745.7153,[75.78143982 75.0897182  76.14236265 76.04749969],75.76525509013774,240.90465375,[ 287  688 1089 1490],"[  587   988  1389  1790  4425  5365  6297 14948 16395 18626 19057 20071
 21014 22182 23683 24591 26125 26864 27693 28590 29771 30984 31635 33880
 34718 35376 38937 39553 40862 43207 44784 45434 46470 47552 48586 49630
 50551 54131]",587,1.461446470661008,-0.4549602172091708,-1.680150342694422,0.4549602172091708,Takeoff,"[-5.5360687e-07+2.76803439e-06j -1.9376241e-06-3.32164109e-06j
  1.1072137e-06-3.87524824e-06j ...  8.7257303e-02-1.00750864e+00j
  3.1443208e-02-1.14007585e-01j  2.1738508e-01+4.86831367e-01j]",True,0,0,0,0,0,UAV,35.727444,-78.69633,90.065,-0.08274607360363,-0.004295861814171,-0.0403746850788593,3.53,-3.37,0.11,0,4.881587856425407,"                                  0
time     2023-12-15 16:56:28.966902
type                            UAV
lat                       35.727442
lon                      -78.696326
alt                          90.065
pitch                     -0.082746
yaw                       -0.004296
roll                      -0.040375
vel_x                          3.53
vel_y                         -3.37
vel_z                          0.11
heading                           0
speed                      4.881588",72.95060245412745,73.81581676117051
0,151.4,3686,86.78084,37.921223,78.057,ZC,True,[-3.09693099 -2.57055081 -2.60711509 -3.5506289 ],-2.9563065,[-10.51750438 -11.31630037 -11.31457076 -10.26790293],-10.8540696095579,1947.5452,[73.72524359 73.19886341 73.23542769 74.1789415 ],73.58461904915973,214.13747,[ 282  683 1084 1485],"[  582   983  1384  1785  6183 11588 13133 17173 18600 21767 23671 24433
 25742 27329 29577]",582,1.4866084742248042,-0.4599621204312918,-1.654988435950348,0.4599621204312918,Takeoff,"[ 5.5360687e-07-3.5984447e-06j  2.7680343e-07-1.7992223e-06j
  3.5984447e-06-6.9200858e-08j ... -7.8531206e-01+1.0756853e+00j
 -3.8076666e-01-7.1532947e-01j  4.6519473e-01+3.2749444e-01j]",True,0,0,0,0,0,UAV,35.72745,-78.696335,90.057,-0.0855558067560195,-0.0047846133820712,-0.0448643751442432,3.57,-3.4,0.13,0,4.931713698097244,"                                  0
time     2023-12-15 16:56:29.369772
type                            UAV
lat                        35.72745
lon                      -78.696335
alt                          90.057
pitch                     -0.085556
yaw                       -0.004785
roll                      -0.044864
vel_x                          3.57
vel_y                          -3.4
vel_z                          0.13
heading                           0
speed                      4.931714",73.07591724457481,73.76957721876836
0,151.8,3686,87.45694,39.51309,78.022,ZC,True,[-4.03734863 -3.5741466  -3.569247  ],-3.7269142,[-13.06826515 -11.38764954 -13.63968598],-12.698533556268965,1964.2294,[74.66566124 74.20245921 74.1975596 ],74.3552266838769,235.551217,[ 286  687 1488],[  586   987  1788  5618 18291 19776 20411 21504 27002 29707 31571 47424],586,1.535016606455111,-0.4699086601069509,-1.6065804953212608,0.4699086601069509,Takeoff,"[ 1.6608205e-06+2.7680344e-06j -4.1520514e-07-1.6608205e-06j
  3.0448377e-06+5.5360688e-06j ... -2.7498373e-01+1.9416834e+00j
 -8.9447427e-01+5.9927665e-02j  3.9503184e-01-8.1908906e-01j]",True,0,0,0,0,0,UAV,35.727467,-78.69636,90.022,-0.0839380100369453,-0.0057628965005278,-0.0452279075980186,3.66,-3.39,0.13,0,4.9904508814334605,"                                  0
time     2023-12-15 16:56:29.772512
type                            UAV
lat                       35.727466
lon                      -78.696354
alt                          90.022
pitch                     -0.083938
yaw                       -0.005763
roll                      -0.045228
vel_x                          3.66
vel_y                         -3.39
vel_z                          0.13
heading                           0
speed                      4.990451",73.35565075963528,73.88670711179007
0,152.2,3686,88.18975,41.181637,77.984,ZC,True,[-4.25252501 -5.4681433  -5.85602251 -7.52952439],-5.7765536,[-12.02277364 -11.41858774 -11.67628057 -12.34985401],-11.86687398880482,3547.6155,[74.88083761 76.09645591 76.48433512 78.15783699],76.40486640768648,235.551217,[ 286  687 1088 1490],"[  586   987  1388  1790  5692 13374 14535 17587 17994 19108 19597 20545
 21252 23065 23840 25578 27409 27945 28806 29254 29772 32550 33337 34568
 36040 39700 40170 41294 42848 46278 46912 48525 49781 53832 54717 55486]",586,1.5806597907147486,-0.4796483207227928,-1.5609375016437887,0.4796483207227928,Takeoff,"[-3.3216411e-06+5.5360687e-07j  2.2144275e-06+0.0000000e+00j
  2.2144275e-06+0.0000000e+00j ...  1.1720182e+00+1.3990840e+00j
 -1.7279817e+00+1.1939207e+00j  7.4450159e-01-8.5488361e-01j]",True,0,0,0,0,0,UAV,35.72748,-78.69637,89.984,-0.0837273076176643,-0.0064077354036271,-0.0489371977746486,3.72,-3.38,0.03,0,5.026300826651744,"                                  0
time     2023-12-15 16:56:30.175195
type                            UAV
lat                       35.727483
lon                      -78.696373
alt                          89.984
pitch                     -0.083727
yaw                       -0.006408
roll                      -0.048937
vel_x                          3.72
vel_y                         -3.38
vel_z                          0.03
heading                           0
speed                      5.026301",73.84672727093957,74.39033897096935
0,152.6,3686,88.594765,42.041977,77.984,ZC,True,[-5.85965009 -3.65196019 -3.33074338],-4.2807846,[-13.79689741 -15.66338031 -14.64385715],-14.701378292736402,643.95,[76.48796269 74.2802728  73.95905598],74.90909715823628,219.49090675,[ 283  685 1089],"[  583   985  1389  2300  3268  3739  4591  5010  5656  6124  6621  7310
  7995  8559  8968  9547 10124 10936 11802 12393 13001 13796 14413 14912
 15770 16683 17417 17914 18806 19384 19814 20598 21331 21853 22762 23421
 23848 25009 25415 26366 26951 27770 28420 28941 29420 33986 34773 36126
 36637 37264 38309 39919 40324 40759 41441 43020 43511 45540 45960 46780
 47830 48289 49086 50148 50673 51680 52799 53233 54652 55552 56032]",583,1.6023678504514935,-0.4844197396204812,-1.5392295366885849,0.4844197396204812,Flight,"[ 3.2386000e-05+1.6608205e-06j -3.4877234e-05-1.3840172e-06j
 -2.8233950e-05+3.8060473e-06j ...  6.0721093e-01+1.3512622e+00j
 -1.0380760e+00+4.0899757e-01j  4.4843927e-01-6.0680103e-01j]",True,0,0,0,0,0,UAV,35.72749,-78.69638,89.984,-0.0827599912881851,-0.0063089565373957,-0.0510051809251308,3.76,-3.39,0.0,0,5.062578394454746,"                                  0
time     2023-12-15 16:56:30.578032
type                            UAV
lat                       35.727491
lon                      -78.696382
alt                          89.984
pitch                      -0.08276
yaw                       -0.006309
roll                      -0.051005
vel_x                          3.76
vel_y                         -3.39
vel_z                           0.0
heading                           0
speed                      5.062578",74.2274484222766,74.49409060842275
0,153.0,3686,89.46628,43.83983,77.989,ZC,True,[-4.07643976 -3.13755795 -4.26054565 -4.47482913],-3.987343,[-11.44610266 -11.88344345 -11.43420118 -11.26969753],-11.508361204887438,5549.065,[74.70475237 73.76587055 74.88885826 75.10314174],74.61565572895847,224.8443435,[ 284  685 1086 1487],"[  584   985  1386  1787  4462  4934  5547  6009  6796  8143  8589  9120
 10446 11074 11670 12841 14572 15275 16140 16736 17637 18301 18717 19469
 20125 20610 21458 22124 22552 23308 24079 25260 25927 26725 28212 29116
 29924 33683 35128 36259 39854 42239 43137 43692 45324 46367 47280 47849
 51241 53287 54340 54885]",584,1.6441592610548137,-0.4938139573939481,-1.4974383176867316,0.4938139573939481,Takeoff,"[ 2.3528291e-06-1.9376241e-06j -2.6296327e-06-2.3528291e-06j
  2.7680344e-06-1.1072137e-06j ...  2.2771013e-01+4.8701322e-01j
  5.1494849e-01+2.4315521e-02j -5.2211219e-01-2.6828840e-01j]",True,0,0,0,0,0,UAV,35.72751,-78.6964,89.989,-0.0759185329079628,-0.006987081374973,-0.051554225385189,3.83,-3.42,0.03,0,5.13480281997274,"                                  0
time     2023-12-15 16:56:30.980704
type                            UAV
lat                       35.727508
lon                      -78.696401
alt                          89.989
pitch                     -0.075919
yaw                       -0.006987
roll                      -0.051554
vel_x                          3.83
vel_y                         -3.42
vel_z                          0.03
heading                           0
speed                      5.134803",74.64549050439295,74.5184036325299
0,153.4,3686,90.37481,45.702885,77.967,ZC,True,[-3.28992217 -3.7492186  -5.5702524 ],-4.203131,[-10.27900059  -9.75884436  -9.77954057],-9.939128504696754,1240.0258,[73.91823478 74.3775312  76.19856501],74.83144366112614,2371.57248025,[ 685 1086 1487],"[  985  1386  1787  4043  4574  5186  6973  7747  8839 11336 13832 15880
 16424 17223 17757 20817 22646 23672 24232 26379 27739 29498 33065 36558
 38299 39582 41110 45266 53537 54208 55124]",985,1.6833427930105456,-0.5028580699650512,-1.4582549763134125,0.5028580699650512,Takeoff,"[-1.1072137e-06+0.0000000e+00j  2.2144275e-06+4.7056583e-06j
 -2.3528291e-06+1.1072137e-06j ... -3.3106992e-01-1.2783433e-01j
 -1.4293714e-02-8.1412786e-01j -2.7406447e-02+4.9623907e-01j]",True,0,0,0,0,0,UAV,35.727524,-78.69642,89.967,-0.0681491270661354,-0.0084891505539417,-0.0566125772893428,3.82,-3.44,0.04,0,5.140778151214074,"                                  0
time     2023-12-15 16:56:31.383253
type                            UAV
lat                       35.727525
lon                       -78.69642
alt                          89.967
pitch                     -0.068149
yaw                       -0.008489
roll                      -0.056613
vel_x                          3.82
vel_y                         -3.44
vel_z                          0.04
heading                           0
speed                      5.140778",74.85527121515197,74.58101163824915
0,153.8,3686,90.85806,46.662903,77.96,ZC,True,[-2.4336024  -1.70488706 -1.46679643 -1.71607867],-1.8303411,[-9.02489223 -9.91664614 -9.94537688 -8.98148436],-9.467099900894135,-1819.8708,[73.06191501 72.33319967 72.09510904 72.34439127],72.45865374577555,224.8443435,[ 284  685 1086 1488],[  584   985  1386  1788  2194 26607 43080 45738],584,1.7016165576390474,-0.5071255930235105,-1.4399813074857193,0.5071255930235105,Takeoff,"[-1.1072137e-06+1.6608205e-06j -1.1072137e-06+2.2144275e-06j
  8.3041027e-07+1.1072137e-06j ... -6.7938995e-01-2.4379905e-01j
  7.0704508e-01-3.6792713e-03j -2.7112371e-01+2.7225278e-02j]",True,0,0,0,0,0,UAV,35.727535,-78.69643,89.96,-0.0657712519168853,-0.0087088858708739,-0.05695241689682,3.85,-3.47,0.04,0,5.183145762951299,"                                  0
time     2023-12-15 16:56:31.785809
type                            UAV
lat                       35.727534
lon                      -78.696429
alt                           89.96
pitch                     -0.065771
yaw                       -0.008709
roll                      -0.056952
vel_x                          3.85
vel_y                         -3.47
vel_z                          0.04
heading                           0
speed                      5.183146",74.79823649206875,74.15654005975443
0,154.2,3686,91.89466,48.65366,77.958,ZC,True,[-1.6427644  -0.90696372 -1.9881863  -3.36634249],-1.9760642,[-9.57612918 -8.97420458 -7.77972938 -7.23878317],-8.392211577983383,-486.25787,[72.271077   71.53527632 72.6164989  73.99465509],72.60437683051065,230.19778025,[ 285  686 1087 1488],"[  585   986  1387  1788  6536  8766 14448 14965 17944 19335 19958 21473
 23824 31057 39463]",585,1.735879562652792,-0.5151972501195983,-1.4057184971311083,0.5151972501195983,Landing,"[-1.6608205e-06-4.1520516e-06j  3.3216411e-06+8.3041027e-07j
 -1.9376241e-06+3.0448377e-06j ...  5.0489557e-01+1.5939255e+00j
 -1.0401437e+00+1.8340844e-01j  4.3733281e-01-4.1368037e-01j]",True,0,0,0,0,0,UAV,35.72755,-78.69645,89.958,-0.0622109919786453,-0.0090851793065667,-0.0558891370892524,3.8,-3.46,-0.03,0,5.139309292113095,"                                  0
time     2023-12-15 16:56:32.188269
type                            UAV
lat                       35.727551
lon                      -78.696448
alt                          89.958
pitch                     -0.062211
yaw                       -0.009085
roll                      -0.055889
vel_x                           3.8
vel_y                         -3.46
vel_z                         -0.03
heading                           0
speed                      5.139309",74.47710872561423,73.84610741390568
0,154.6,3686,92.4421,49.673615,77.962,ZC,True,[-3.36560856 -2.87853315 -2.91363761 -3.94142403],-3.2748008,[-11.32262616 -11.21861458 -10.5893464  -10.69644594],-10.956758269716934,-1968.0925,[73.99392116 73.50684575 73.54195022 74.56973664],73.903113442553,230.19778025,[ 285  686 1087 1488],"[  585   986  1387  1788 17389 21392 30558 33240 34330 35787 37550 38557
 42556 43309 44180 45079 46363 47534 48758 50326 53144 53583 54844]",585,1.7519553090354707,-0.519026194788065,-1.3896428485876036,0.519026194788065,Landing,"[ 2.7680343e-07+4.4288549e-06j -5.5360687e-07+2.7680344e-06j
  8.3041027e-07+2.7680344e-06j ... -1.2237906e+00-2.9107265e-02j
  3.9469403e-01-1.0255440e+00j -4.5988124e-02+6.6612345e-01j]",True,0,0,0,0,0,UAV,35.72756,-78.69646,89.962,-0.0600146763026714,-0.0088879643008112,-0.0575149394571781,3.77,-3.48,-0.02,0,5.130662725223711,"                                  0
time     2023-12-15 16:56:32.590916
type                            UAV
lat                       35.727559
lon                      -78.696458
alt                          89.962
pitch                     -0.060015
yaw                       -0.008888
roll                      -0.057515
vel_x                          3.77
vel_y                         -3.48
vel_z                         -0.02
heading                           0
speed                      5.130663",74.3432307798021,73.85750861963515
0,155.0,3686,93.57724,51.753937,77.963,ZC,True,[-3.06122437 -2.87234353 -3.29437394 -3.45763778],-3.1713948,[-10.92840024 -10.79813073  -9.97760408 -10.05498066],-10.439778927363632,-615.37604,[73.68953698 73.50065613 73.92268655 74.08595039],73.79970751035304,235.551217,[ 286  687 1088 1489],"[  586   987  1388  1789  3686  4408  4876  5759  6307  6996  8230  8855
 10274 10802 11236 12082 13311 13882 15085 16115 17679 18351 19635 20677
 21346 22067 22683 23501 24070 24524 25113 26062 26497 27048 27576 28205
 29047 29498 36611 39947 40405 41665 45424 47695 49810 54164]",586,1.7817306454104054,-0.5261369015056078,-1.359867708910216,0.5261369015056078,Flight,"[ 5.5360687e-07+2.2144275e-06j  1.1072137e-06-2.7680344e-06j
 -1.6608205e-06-1.6608205e-06j ...  1.1682688e+00+7.2486795e-02j
 -1.2076104e-01+4.1477999e-01j -3.3716983e-01-2.7011919e-01j]",True,0,0,0,0,0,UAV,35.727577,-78.69648,89.963,-0.057827603071928,-0.0090798903256654,-0.0574749484658241,3.72,-3.52,0.0,0,5.121406056933974,"                                  0
time     2023-12-15 16:56:32.993490
type                            UAV
lat                       35.727576
lon                      -78.696477
alt                          89.963
pitch                     -0.057828
yaw                        -0.00908
roll                      -0.057475
vel_x                          3.72
vel_y                         -3.52
vel_z                           0.0
heading                           0
speed                      5.121406",74.14667602182362,73.84594839777874
0,155.4,3686,94.75895,53.871338,77.956,ZC,True,[-3.49344313 -2.97503562 -3.48324008 -4.16128419],-3.5282507,[-7.29342899 -7.42577379 -6.91357801 -6.96976897],-7.150637442320068,-1083.5908,[74.12175574 73.60334822 74.11155269 74.7895968 ],74.15656336221811,235.551217,[ 286  687 1088 1489],"[  586   987  1388  1789  4998  5456  6309  6776 10892 11685 12123 13597
 14533 15860 18668 19562 21244 22055 23117 25227 26169 26675 27597 28444
 30051]",586,1.808782308938397,-0.532627492309456,-1.3328162420798384,0.532627492309456,Flight,"[ 1.2456154e-06-3.0448377e-06j  3.8752482e-06+1.3840172e-06j
 -2.2144275e-06-2.7680343e-07j ...  2.1600135e-01+6.8074018e-01j
 -1.2843624e-01-2.9679197e-01j  1.5588614e-01-7.9592615e-02j]",True,0,0,0,0,0,UAV,35.727592,-78.696495,89.956,-0.0536048486828804,-0.0088370172306895,-0.0495699010789394,3.68,-3.53,0.0,0,5.099343094948603,"                                  0
time     2023-12-15 16:56:33.396363
type                            UAV
lat                       35.727593
lon                      -78.696496
alt                          89.956
pitch                     -0.053605
yaw                       -0.008837
roll                       -0.04957
vel_x                          3.68
vel_y                         -3.53
vel_z                           0.0
heading                           0
speed                      5.099343",74.20387045312947,73.90807139066662
0,155.8,3686,95.38194,54.945595,77.966,ZC,True,[-1.78987117 -1.67119032 -1.80283698 -3.09287779],-2.089194,[-10.24174263  -8.57374089  -8.31673375  -8.10972539],-8.810485664326878,-787.24005,[72.41818377 72.29950292 72.43114959 73.72119039],72.71750666844727,240.90465375,[ 287  688 1089 1490],"[  587   988  1389  1790  7899 11807 12897 15127 16253 17211 17629 18204
 19542 20606 21458 22573 22994 29720 30345]",587,1.8213055828363969,-0.5356375185555409,-1.3202930670402448,0.5356375185555409,Flight,"[-1.38401720e-06-8.3041027e-07j -8.30410272e-07+1.1072137e-06j
 -1.10721373e-06-3.3216411e-06j ... -6.98624730e-01-9.9630344e-01j
  5.46390891e-01+1.3046563e-01j -1.10262156e-01+3.2871687e-01j]",True,0,0,0,0,0,UAV,35.7276,-78.6965,89.966,-0.0548122636973857,-0.0080287000164389,-0.054205659776926,3.63,-3.53,-0.01,0,5.063388193690071,"                                  0
time     2023-12-15 16:56:33.798841
type                            UAV
lat                       35.727602
lon                      -78.696506
alt                          89.966
pitch                     -0.054812
yaw                       -0.008029
roll                      -0.054206
vel_x                          3.63
vel_y                         -3.53
vel_z                         -0.01
heading                           0
speed                      5.063388",74.04009845158649,73.66995844622275
0,156.2,3686,96.6587,57.115494,77.979,ZC,True,[-1.55120875 -2.26737038 -1.68993138 -2.47554669],-1.9960144,[-11.16138597 -11.21786094 -10.85390971 -10.34742737],-10.895145996010374,67.815155,[72.17952136 72.89568299 72.31824398 73.10385929],72.62432690374592,240.90465375,[ 287  688 1089 1490],"[  587   988  1389  1790  2414  4254  6232  6783  7465  7898 10412 14642
 17687 18204 20043 22704 23420 24325 24831 26312 27592 28599 30822 31880]",587,1.8447428239814143,-0.5412694740116523,-1.2968560236120918,0.5412694740116523,Flight,"[ 1.6608205e-06+2.2144275e-06j  2.7680343e-07+0.0000000e+00j
 -1.6608205e-06+1.6608205e-06j ...  9.5408165e-01+1.0458582e-01j
 -1.2131076e-01+1.3309766e+00j -2.2992878e-01-9.2821878e-01j]",True,0,0,0,0,0,UAV,35.72762,-78.696526,89.979,-0.056968618184328,-0.007941878400743,-0.04867460206151,3.58,-3.51,-0.01,0,5.013641391244491,"                                  0
time     2023-12-15 16:56:34.201618
type                            UAV
lat                       35.727618
lon                      -78.696525
alt                          89.979
pitch                     -0.056969
yaw                       -0.007942
roll                      -0.048675
vel_x                          3.58
vel_y                         -3.51
vel_z                         -0.01
heading                           0
speed                      5.013641",73.66204450119245,73.46083213772738
0,156.6,3686,97.30838,58.20687,77.98,ZC,True,[-2.47698106 -2.04459815 -2.05757781 -3.06495364],-2.4110277,[-12.87219106 -11.07507881 -10.91363861 -11.52155814],-11.595616652527076,4783.6577,[73.10529367 72.67291076 72.68589041 73.69326624],73.03934026838763,262.31840075,[ 291  692 1093 1494],"[  591   992  1393  1794  7109  7810 14850 15627 16097 17184 17974 19232
 19726 21481 23625 24358 27013 32258 33344 34091 34800 36045 36678 37308
 39037 39724 40415 41507 42937 43474 44220 44879 45460 46092 46971 48207
 49181 49715 50138 50541 51100 52004 52491 53128 53784 54979 55389 55986]",591,1.8555287925477384,-0.543838616513233,-1.286070153904218,0.543838616513233,Takeoff,"[ 2.7680344e-06-2.2144275e-06j -3.5984447e-06-2.7680343e-07j
  2.2144275e-06-2.2144275e-06j ... -3.5741746e-01-1.6202968e+00j
  5.6364572e-01-8.4364593e-01j -1.5503733e-01+1.0000024e+00j]",True,0,0,0,0,0,UAV,35.727627,-78.69653,89.98,-0.0598192363977432,-0.0090733785182237,-0.0534837879240512,3.57,-3.54,0.04,0,5.027733087585299,"                                  0
time     2023-12-15 16:56:34.604064
type                            UAV
lat                       35.727626
lon                      -78.696535
alt                           89.98
pitch                     -0.059819
yaw                       -0.009073
roll                      -0.053484
vel_x                          3.57
vel_y                         -3.54
vel_z                          0.04
heading                           0
speed                      5.027733",73.47506881220758,73.37653376385943
0,157.0,3686,98.62758,60.39158,77.976,ZC,True,[-1.69558014 -2.49803049 -2.02987612 -2.61236149],-2.208962,[-12.70120792 -14.14286462 -12.03991067 -12.88154701],-12.941382557815135,13083.404,[72.32389274 73.12634309 72.65818872 73.2406741 ],72.83727466269164,246.2580905,[ 288  689 1090 1491],"[  588   989  1390  1791  3592  4507  4933  5996  6696  7451  7873  8728
  9643 10267 10671 11549 12906 13847 14431 14833 15440 15931 16700 18417
 18903 19305 20513 21514 22210 22644 23058 24004 25386 26044 26461 26997
 27676 28903 29535 30084 31452 31892 35881 38133 42064 44508 47182 50317]",588,1.8760157144474827,-0.5487364872538664,-1.2655834276831266,0.5487364872538664,Takeoff,"[ 5.5360688e-06+5.2592654e-06j -3.3216411e-06+1.5224189e-06j
 -5.5360687e-07-5.3976669e-06j ... -1.3027810e-01-6.5312099e-01j
 -7.0090395e-01+9.9530004e-02j  6.9716597e-01+9.0519153e-02j]",True,0,0,0,0,0,UAV,35.727642,-78.696556,89.976,-0.0650188699364662,-0.009337424300611,-0.0519146844744682,3.53,-3.55,0.06,0,5.006695517005203,"                                  0
time     2023-12-15 16:56:35.006802
type                            UAV
lat                       35.727642
lon                      -78.696554
alt                          89.976
pitch                     -0.065019
yaw                       -0.009337
roll                      -0.051915
vel_x                          3.53
vel_y                         -3.55
vel_z                          0.06
heading                           0
speed                      5.006696",73.2972307055809,73.26868194362588
0,157.4,3686,99.96939,62.596325,77.946,ZC,True,[-2.01411483 -2.07997162 -1.35969855 -3.14386426],-2.1494124,[-9.97898108 -9.4064913  -9.52519608 -8.81451701],-9.431296367848388,377.39536,[72.64242743 72.70828423 71.98801115 73.77217686],72.7777249192554,246.2580905,[ 288  689 1090 1491],"[  588   989  1390  1791  2673  4874  5480  6274  8659  9347 10654 11354
 12018 12585 13814 14325 14983 16094 16943 17552 18300 19252 20267 20924
 21428 22307 23027 23723 25098 25543 26787 27356 28045 29406 29862 33974
 35322 36143 37104 37532 38489 40218 41286 44670 46870 47507 48111 48981
 49810 50801 51267 54981 55739]",588,1.894896765626134,-0.5532002939029619,-1.2467025721831972,0.5532002939029619,Takeoff,"[-4.9824616e-06-1.1072137e-06j  2.2144275e-06-5.5360687e-07j
  1.1072137e-06+6.9200860e-07j ...  4.6740696e-01+2.1856706e+00j
 -1.8231564e+00+8.2370615e-01j  8.3098602e-01-1.0000285e+00j]",True,0,0,0,0,0,UAV,35.727657,-78.69657,89.946,-0.0636230930685997,-0.009668905287981,-0.0557719953358173,3.51,-3.52,0.05,0,4.971217154782116,"                                  0
time     2023-12-15 16:56:35.409196
type                            UAV
lat                       35.727658
lon                      -78.696573
alt                          89.946
pitch                     -0.063623
yaw                       -0.009669
roll                      -0.055772
vel_x                          3.51
vel_y                         -3.52
vel_z                          0.05
heading                           0
speed                      4.971217",73.09185883139382,73.17049053875178
0,157.8,3686,100.65943,63.713364,77.929,ZC,True,[-2.77383072 -3.13809364 -3.10626658 -5.2807897 ],-3.5747452,[-8.54779078 -7.69302025 -7.99627798 -7.09905406],-7.834035766284706,-1287.848,[73.40214333 73.76640624 73.73457918 75.9091023 ],74.20305776437291,251.61152725,[ 289  690 1091 1492],"[  589   990  1391  1792  5640  6421  8344  9413 18647 19970 22863 26842
 29032 30600 31412 32481 33444 33870 35099 35858 37000 37509 38319 38903
 39923 40497 41660 42353 43284 43700 44234 44726 45655 46290 46894 47530
 48108 48535 49643 50505 51532 52504 53258 53994 54410 55139 55853]",589,1.903716922601916,-0.55525257367457,-1.2378825140659535,0.55525257367457,Flight,"[ 3.3216411e-06+1.6608205e-06j -5.5360687e-07-3.8752482e-06j
 -1.1072137e-06+2.2144275e-06j ... -7.0217669e-01+1.6247150e+00j
 -1.1893998e+00-1.1179136e+00j  7.8389776e-01+1.3587229e-01j]",True,0,0,0,0,0,UAV,35.727665,-78.69659,89.929,-0.0639531835913658,-0.0094328969717025,-0.0514618009328842,3.53,-3.5,0.01,0,4.97101599273227,"                                  0
time     2023-12-15 16:56:35.811770
type                            UAV
lat                       35.727666
lon                      -78.696583
alt                          89.929
pitch                     -0.063953
yaw                       -0.009433
roll                      -0.051462
vel_x                          3.53
vel_y                          -3.5
vel_z                          0.01
heading                           0
speed                      4.971016",73.26629923325356,73.37700398387601
0,158.2,3686,102.092896,65.96067,77.924,ZC,True,[ 0.38577902 -0.92938868 -1.14606209 -2.39348896],-1.0207902,[-18.25746    -12.14043557 -11.68588344 -10.05959234],-13.035842835762844,1815.4163,[70.24253358 71.55770128 71.77437469 73.02180157],71.64910277992556,251.61152725,[ 289  690 1091 1492],"[  589   990  1391  1792  2232  3724 15807 16264 17370 18333 19440 20168
 25077 27451 27951 28369 30123]",589,1.920820887083566,-0.5592694781611213,-1.2207787462823023,0.5592694781611213,Landing,"[-3.3216411e-06+1.9376241e-06j  5.5360687e-07-4.1520516e-06j
 -5.5360687e-07+1.1072137e-06j ... -1.9885518e-01-2.7558163e-01j
 -3.5535127e-02-5.3275251e-01j  3.9124783e-02+2.9420218e-01j]",True,0,0,0,0,0,UAV,35.727684,-78.6966,89.924,-0.0637516379356384,-0.007758698426187,-0.0558415055274963,3.52,-3.53,-0.02,0,4.985147941636236,"                                  0
time     2023-12-15 16:56:36.215852
type                            UAV
lat                       35.727683
lon                      -78.696602
alt                          89.924
pitch                     -0.063752
yaw                       -0.007759
roll                      -0.055842
vel_x                          3.52
vel_y                         -3.53
vel_z                         -0.02
heading                           0
speed                      4.985148",73.17077182819506,73.03142374308592
0,158.6,3686,102.82845,67.08307,77.933,ZC,True,[-0.96423438 -1.03267817 -1.14942958 -3.69935119],-1.7114233,[-13.57669494 -15.13596548 -13.02888535 -11.52133654],-13.315720577102654,-4770.4033,[71.59254698 71.66099077 71.77774218 74.3276638 ],72.33973593499454,256.964964,[ 290  691 1092 1494],"[  590   991  1392  1794  6034  6499  7748  8312  9309 10424 17378 18534
 20949 26243 28660 30091 31963 32626 36838 39625 43600 47513 50385 55887]",590,1.928810734947001,-0.561129908090958,-1.21278899625831,0.561129908090958,Landing,"[-6.9200860e-07-1.1072137e-06j -1.7992223e-06-1.6608205e-06j
  2.2144275e-06-5.5360687e-07j ... -6.2049145e-01+7.2842610e-01j
 -6.4113545e-01-1.6207608e+00j  5.9950727e-01+6.7219996e-01j]",True,0,0,0,0,0,UAV,35.72769,-78.69661,89.933,-0.0652590617537498,-0.0080614602193236,-0.0537773482501506,3.52,-3.54,-0.02,0,4.992233968876058,"                                  0
time     2023-12-15 16:56:36.619796
type                            UAV
lat                       35.727691
lon                      -78.696612
alt                          89.933
pitch                     -0.065259
yaw                       -0.008061
roll                      -0.053777
vel_x                          3.52
vel_y                         -3.54
vel_z                         -0.02
heading                           0
speed                      4.992234",73.0144340774392,72.89308618146765
0,159.0,3686,104.345085,69.35289,77.962,ZC,True,[-1.35144261 -1.74433586 -1.19410441 -1.93725435],-1.5567843,[-8.31600192 -7.4231361  -7.37519816 -7.23404373],-7.587094976620062,-1505.9967,[71.97975522 72.37264847 71.82241701 72.56556696],72.18509691330952,256.964964,[ 290  691 1092 1493],"[  590   991  1392  1793  2990  5207  7336  8074  8696  9543 10178 11557
 13179 14676 16564 17388 18009 18908 19609 20088 20983 22017 22816 23608
 24352 25802 26452 26959 27442 28716 29206 29919 31881 36310 36932 38616
 40578 41664 42357 43744 45178 50394 53326 55523]",590,1.943767962022432,-0.5645442496355848,-1.1978319669001212,0.5645442496355848,Landing,"[ 3.3216411e-06-1.6608205e-06j -1.6608205e-06-1.1072137e-06j
  2.7680344e-06+8.3041027e-07j ...  7.0804328e-01+1.7706504e+00j
 -1.3889939e+00-2.0432578e-01j  6.4696157e-01-2.8492126e-01j]",True,0,0,0,0,0,UAV,35.727707,-78.69663,89.962,-0.0641439855098724,-0.0067012915387749,-0.0532505437731742,3.52,-3.55,0.02,0,4.999329955103984,"                                  0
time     2023-12-15 16:56:37.022619
type                            UAV
lat                       35.727707
lon                      -78.696631
alt                          89.962
pitch                     -0.064144
yaw                       -0.006701
roll                      -0.053251
vel_x                          3.52
vel_y                         -3.55
vel_z                          0.02
heading                           0
speed                       4.99933",72.85297301773485,72.75148832783603
0,159.4,3686,105.88144,71.641426,77.964,ZC,True,[-1.09597735 -1.32910043 -2.42641381],-1.6171639,[-12.48636883 -11.56867248 -10.67692048],-11.577320594452967,-2958.935,[71.72428996 71.95741303 73.05472642],72.24547646899093,262.31840075,[ 291 1092 1493],"[  591  1392  1793 29058 32124 32702 33357 34157 34819 35239 35797 36517
 36958 37614 38218 38935 39563 40023 40565 40975 41415 42007 42486 42990
 43640 44279 44802 45770 46503 47045 47516 48170 48794 49585 50066 50518
 51246 51707 52477 53124 54312 55697 56131]",591,1.9579176830632663,-0.5677166051802677,-1.1836824435766136,0.5677166051802677,Flight,"[ 2.7680343e-07+2.7680344e-06j -1.1072137e-06-1.6608205e-06j
  3.3216411e-06-5.5360687e-07j ...  1.5758281e+00-8.9519501e-01j
 -6.8258673e-01+2.0003765e+00j  5.2067835e-02-9.9999779e-01j]",True,0,0,0,0,0,UAV,35.727722,-78.69665,89.964,-0.0645335093140602,-0.0075465780682861,-0.0486549660563468,3.52,-3.51,0.0,0,4.970965700947855,"                                  0
time     2023-12-15 16:56:37.425248
type                            UAV
lat                       35.727723
lon                      -78.696651
alt                          89.964
pitch                     -0.064534
yaw                       -0.007547
roll                      -0.048655
vel_x                          3.52
vel_y                         -3.51
vel_z                           0.0
heading                           0
speed                      4.970966",72.66186432841212,72.65028595606701
0,159.8,3686,106.66382,72.79918,77.958,ZC,True,[-1.58786479 -1.69825972 -1.89946504 -4.04376645],-2.307339,[-10.10438631 -10.32854793  -9.7139419   -7.47229066],-9.404791700012051,-1108.0247,[72.2161774  72.32657233 72.52777764 74.67207905],72.93565160517225,262.31840075,[ 291  692 1093 1494],"[  591   992  1393  1794  4116  4547  5272  5773  6567  7407  8163  9542
 10543 11492 12486 13353 13772 14331 15140 15802 16517 17283 18417 19885
 20709 21172 21585 22257 22815 23720 24268 24964 25754 26430 27900 28345
 28765 29312 34579 37138 38371 44884 45671 46739 47545 49200 49725 51624
 52047 53066 53738 54251 54884 55382]",591,1.9646105332829564,-0.5691761342335234,-1.17698969323477,0.5691761342335234,Takeoff,"[-1.3840172e-06+3.3216411e-06j -8.3041027e-07-1.3840172e-06j
  3.3216411e-06+0.0000000e+00j ...  9.7726002e-02+1.2523003e+00j
 -8.0403203e-01+5.0343070e-02j  4.4810295e-01-3.7736225e-01j]",True,0,0,0,0,0,UAV,35.72773,-78.69666,89.958,-0.0676405727863311,-0.0074801906011998,-0.051946859806776,3.51,-3.52,0.03,0,4.971056225793468,"                                  0
time     2023-12-15 16:56:37.827904
type                            UAV
lat                       35.727731
lon                      -78.696661
alt                          89.958
pitch                     -0.067641
yaw                        -0.00748
roll                      -0.051947
vel_x                          3.51
vel_y                         -3.52
vel_z                          0.03
heading                           0
speed                      4.971056",72.68367882208463,72.70735908588806
0,160.2,3686,108.26011,75.11131,77.965,ZC,True,[-0.7772329  -0.82504558 -0.22544602 -1.37145972],-0.79979604,[-6.72122138 -7.00775854 -6.80766551 -6.76438414],-6.825257393879221,-318.44968,[71.40554551 71.45335818 70.85375862 71.99977232],71.42810865871303,267.6718375,[ 292  693 1094 1495],"[  592   993  1394  1795  4102  4947  5475  6128  6800  7610  8363  8783
  9234  9803 11587 12037 13262 13821 14768 15579 16273 17097 17734 18863
 19459 20584 21369 22047 22873 23313 23832 24501 25654 26075 26771 27651
 28387 28795 29706 30192 32596 33248 34163 34564 35219 35762 36455 37156
 37664 38402 38904 39438 40044 40594 41216 41978 42604 43338 43825 44459
 45239 46020 46630 47154 47620 48179 48856 49660 50213 50861 51274 52322
 53082 53844 54375 55271 56226]",592,1.977287916832771,-0.5719047751737462,-1.1643125084215429,0.5719047751737462,Flight,"[-3.32164109e-06+3.04483774e-06j -2.90643607e-06-1.38401717e-07j
  2.76803439e-06+5.53606867e-07j ... -2.86713266e+00+1.14559531e+00j
 -1.12985075e-01-8.84349346e-01j  9.96091008e-01-1.07880265e-01j]",True,0,0,0,0,0,UAV,35.727745,-78.69668,89.965,-0.0673813000321388,-0.0073959790170192,-0.0508439727127552,3.54,-3.51,0.0,0,4.985147941636236,"                                  0
time     2023-12-15 16:56:38.230342
type                            UAV
lat                       35.727747
lon                       -78.69668
alt                          89.965
pitch                     -0.067381
yaw                       -0.007396
roll                      -0.050844
vel_x                          3.54
vel_y                         -3.51
vel_z                           0.0
heading                           0
speed                      4.985148",72.56405699758133,72.45150900045306
0,160.6,3686,109.88672,77.41826,77.984,ZC,True,[-1.55559245 -1.40776891 -1.24131459 -2.89440624],-1.7747705,[-8.58514812 -8.25619202 -8.89956027 -7.62377   ],-8.341167603536077,-733.406,[72.18390506 72.03608152 71.8696272  73.52271884],72.40308315361264,267.6718375,[ 292  693 1094 1495],"[  592   993  1394  1795  5091  5873  7217  9982 11664 12274 12690 13547
 14218 14890 16832 17375 18415 19874 21317 22581 23677 24184 24687 25308
 26439 27135 27602 28615 30507]",592,1.9893013052165696,-0.5744636905086781,-1.152299316736099,0.5744636905086781,Flight,"[-1.10721373e-06-1.3840172e-06j  1.66082054e-06+1.5224189e-06j
  2.90643607e-06+0.0000000e+00j ... -1.07392535e-01+3.8425964e-01j
 -4.67609584e-01-2.7795631e-01j  2.69386619e-01-1.8404108e-02j]",True,0,0,0,0,0,UAV,35.727764,-78.6967,89.984,-0.0678777620196342,-0.0075266039930284,-0.0506995022296905,3.53,-3.47,-0.01,0,4.9499393935683695,"                                  0
time     2023-12-15 16:56:38.632911
type                            UAV
lat                       35.727762
lon                      -78.696699
alt                          89.984
pitch                     -0.067878
yaw                       -0.007527
roll                        -0.0507
vel_x                          3.53
vel_y                         -3.47
vel_z                         -0.01
heading                           0
speed                      4.949939",72.50043128610385,72.44182383108499
0,161.0,3686,110.71007,78.577576,77.989,ZC,True,[ 0.16175859 -1.11495138 -0.91086273 -1.2901999 ],-0.78856385,[-13.27972216  -9.15672577  -8.68400897  -8.82621249],-9.986667347781088,1656.3331,[70.46655401 71.74326399 71.53917534 71.91851251],71.41687646093843,273.02527425,[ 293  694 1095 1496],"[  593   994  1395  1796  2242  5678 13126 15587 16781 17683 18457 19923
 24375 28824 29716 30938 31451 32351 33052 33979 34422 35073 35487 35951
 36827 37459 38146 38577 39454 40049 40543 41237 41675 42548 43684 44220
 44692 45110 45632 46243 46726 47713 48812 49335 50323 50819 51439 52436
 53378 53791 54205 54665 55340 55977]",593,1.9949550190482568,-0.5756250045695352,-1.1466457017631904,0.5756250045695352,Takeoff,"[-3.0448377e-06-1.6608205e-06j  5.5360688e-06+1.6608205e-06j
  3.8752482e-06+0.0000000e+00j ... -6.6879585e-02+5.5738968e-01j
 -1.1034935e-01-2.5671220e-01j -8.4447742e-02-5.1303580e-02j]",True,0,0,0,0,0,UAV,35.72777,-78.69671,89.989,-0.0702514424920082,-0.0071517475880682,-0.0500426217913627,3.54,-3.5,0.03,0,4.978202486842013,"                                  0
time     2023-12-15 16:56:39.035244
type                            UAV
lat                        35.72777
lon                      -78.696709
alt                          89.989
pitch                     -0.070251
yaw                       -0.007152
roll                      -0.050043
vel_x                          3.54
vel_y                          -3.5
vel_z                          0.03
heading                           0
speed                      4.978202",72.35839146592852,72.23683435705568
0,161.4,3686,112.388115,80.909256,78.005,ZC,True,[-0.40799541 -0.29412725 -0.64899641 -1.57739508],-0.73212856,[-9.47735928 -8.59970646 -8.008174   -7.08863782],-8.293469389172776,-1749.8865,[71.03630802 70.92243985 71.27730901 72.20570769],71.36044114154552,273.02527425,[ 293  694 1095 1496],"[  593   994  1395  1796  3909  4320  4765  5232  6362  6982  7458  7932
  9145  9727 10655 11089 11590 12451 13896 14340 14753 15211 15738 16560
 17458 18045 18726 19837 20524 21514 22189 23078 24062 24572 25177 26016
 26573 27098 28203 28634 29104 29747 30648]",593,2.0061957152150818,-0.5779544565803674,-1.135405202294854,0.5779544565803674,Takeoff,"[-2.7680344e-06-2.2144275e-06j  4.4288549e-06-1.1072137e-06j
 -2.2144275e-06+2.7680344e-06j ... -2.1890999e-01+3.0395895e-01j
  4.9936447e-02+6.5119669e-02j  1.4002158e-01-1.5677150e-01j]",True,0,0,0,0,0,UAV,35.727787,-78.69673,90.005,-0.0700276419520378,-0.0066542928107082,-0.0520915836095809,3.56,-3.48,0.03,0,4.978443531868169,"                                  0
time     2023-12-15 16:56:39.437933
type                            UAV
lat                       35.727786
lon                      -78.696728
alt                          90.005
pitch                     -0.070028
yaw                       -0.006654
roll                      -0.052092
vel_x                          3.56
vel_y                         -3.48
vel_z                          0.03
heading                           0
speed                      4.978444",72.21666308815753,72.06155571395367
0,161.8,3686,113.24041,82.08048,78.014,ZC,True,[0.54914078 0.78953451 0.65707083 0.47926211],0.61875206,[-6.69458646 -7.69752297 -7.20283539 -6.98056935],-7.14387854146179,-2330.491,[70.07917182 69.8387781  69.97124178 70.14905049],70.00956054591866,278.378711,[ 294  695 1096 1497],"[  594   995  1396  1797  2472  5440  5860  6558  6991  8567 11139 12113
 13155 13587 15018 15841 16300 16972 18254 18994 19529 19979 21852 22641
 23455 23912 24467 24961 25380 26720 27696 28581 29096 30227 32163 32598
 33722 34212 34615 35039 35680 36230 36725 37130 37540 37978 38785 39424
 39892 40788 41798 42252 42708 43378 43884 44347 44920 45437 46426 47008
 47747 48297 48843 49452 50904 51772 52354 53125 53912 54477 55350 55995]",594,2.011491593537752,-0.5790126545811178,-1.1301094228310289,0.5790126545811178,Takeoff,"[ 1.1072137e-06-1.9376241e-06j  3.3216411e-06-8.3041027e-07j
 -5.5360687e-07-7.1968893e-06j ... -1.2715315e+00+4.2383200e-01j
  4.2007190e-01-1.1519440e+00j -2.3526769e-02+3.4089339e-01j]",True,0,0,0,0,0,UAV,35.727795,-78.69674,90.014,-0.0715029835700988,-0.0073744845576584,-0.0468282587826252,3.55,-3.51,0.05,0,4.992504381570436,"                                  0
time     2023-12-15 16:56:39.840306
type                            UAV
lat                       35.727794
lon                      -78.696738
alt                          90.014
pitch                     -0.071503
yaw                       -0.007374
roll                      -0.046828
vel_x                          3.55
vel_y                         -3.51
vel_z                          0.05
heading                           0
speed                      4.992504",71.79731336631211,71.65115668034666
0,162.2,3686,114.94855,84.4344,78.0,ZC,True,[ 0.09076304 -0.09922031 -0.06668617  0.14714228],0.017999709,[-7.16438622 -7.65544798 -8.10717128 -8.10795985],-7.758741334145289,1262.6056,[70.53754957 70.72753291 70.69499878 70.48117032],70.61031289558974,283.73214775,[ 295  696 1097 1498],"[  595   996  1397  1798  2524  5572  7063 10097 12701 15407 16588 17170
 17803 18855 19916 20634 21163 22904 24002 24542 25267 26694 28630 29096
 29815 34558 41835 43125 44763 48230 54217]",595,2.021760134617699,-0.5810046788910913,-1.1198410794688414,0.5810046788910913,Takeoff,"[-1.1072137e-06-1.9376241e-06j  2.2144275e-06-1.1072137e-06j
 -2.2144275e-06-1.9376241e-06j ...  1.1882701e+00+1.2154593e+00j
 -1.4542433e+00+3.0468971e-01j  4.5701686e-01-3.5566238e-01j]",True,0,0,0,0,0,UAV,35.72781,-78.696754,90.0,-0.0716809853911399,-0.0088117411360144,-0.0426487848162651,3.58,-3.47,0.07,0,4.986200958645771,"                                  0
time     2023-12-15 16:56:40.242989
type                            UAV
lat                        35.72781
lon                      -78.696758
alt                            90.0
pitch                     -0.071681
yaw                       -0.008812
roll                      -0.042649
vel_x                          3.58
vel_y                         -3.47
vel_z                          0.07
heading                           0
speed                      4.986201",71.69343437787852,71.44298792339528
0,162.6,3686,116.68141,86.788635,77.989,ZC,True,[ 1.12051858  1.25528864  1.08216205 -0.5387039 ],0.7298163,[-6.22713912 -6.11663838 -6.00421545 -5.47527705],-5.955817499104308,-85.9389,[69.50779403 69.37302397 69.54615056 71.1670165 ],69.89849626453659,283.73214775,[ 295  696 1097 1498],[  595   996  1397  1798  6354 16227 19521 25872 27366 28510],595,2.031517046770904,-0.5828462403374605,-1.1100843640143172,0.5828462403374605,Takeoff,"[ 8.3041027e-07+5.5360687e-07j  0.0000000e+00-1.9376241e-06j
  2.7680343e-07+1.3840172e-07j ... -2.6554736e-01-1.2040102e+00j
  1.8554908e+00+6.2619781e-01j -8.8161838e-01+3.1862427e-02j]",True,0,0,0,0,0,UAV,35.727825,-78.69678,89.989,-0.069465547800064,-0.0082806106656789,-0.0485028736293315,3.58,-3.48,0.04,0,4.992834866085599,"                                  0
time     2023-12-15 16:56:40.645346
type                            UAV
lat                       35.727827
lon                      -78.696777
alt                          89.989
pitch                     -0.069466
yaw                       -0.008281
roll                      -0.048503
vel_x                          3.58
vel_y                         -3.48
vel_z                          0.04
heading                           0
speed                      4.992835",71.44931041083274,71.13408959162355
0,163.0,3686,117.54366,87.9622,77.969,ZC,True,[-0.16353404 -0.34085314 -1.81020343],-0.7715302,[-7.92169865 -8.23942721 -7.61904278],-7.926722879687013,340.65674,[70.79184665 70.96916574 72.43851603],71.3998428075804,2430.4602845,[ 696 1098 1502],"[  996  1398  1802  3403  4422  5654  6190  6928  7639  8105  8727 10044
 12692 13416 14256 14710 15570 16221 17021 17541 18209 19102 19777 20183
 20685 21571 22535 23639 24248 25155 26225 27397 27961 29018 29829]",996,2.036166164110662,-0.5836844539797569,-1.1054353445143448,0.5836844539797569,Landing,"[-1.1072137e-06+5.5360687e-07j  1.3148164e-06-3.8752482e-06j
  3.3216411e-06-5.5360687e-07j ...  3.2623002e-01-1.1274868e-01j
 -1.3029912e-01-3.2015142e-01j -2.9543784e-02+1.4627650e-01j]",True,0,0,0,0,0,UAV,35.727833,-78.696785,89.969,-0.070962980389595,-0.0091870129108428,-0.0511907711625099,3.57,-3.46,0.02,0,4.97160939736822,"                                  0
time     2023-12-15 16:56:41.048114
type                            UAV
lat                       35.727835
lon                      -78.696786
alt                          89.969
pitch                     -0.070963
yaw                       -0.009187
roll                      -0.051191
vel_x                          3.57
vel_y                         -3.46
vel_z                          0.02
heading                           0
speed                      4.971609",71.37078500025981,71.18724023481492
0,163.4,3686,119.30104,90.31181,77.952,ZC,True,[ 0.58381764  0.4896057   0.44986808 -1.07464865],0.11216069,[-5.82221053 -5.81932556 -5.81743234 -5.40845296],-5.716855345147343,-956.4618,[70.04449497 70.13870691 70.17844453 71.70296125],70.51615191311073,289.0855845,[ 296  697 1098 1499],"[  596   997  1398  1799  4735  6325  6898  7922  9719 10309 14663 16143
 16917 17799 18596 19532 20427 21614 22971 23984 25150 25983 28937]",596,2.045256507611303,-0.585325509766048,-1.0963451956741883,0.585325509766048,Flight,"[ 1.6608205e-06+5.8128721e-06j  1.1072137e-06+2.7680343e-07j
  2.0068248e-06-1.1072137e-06j ... -2.0878773e+00-7.0498681e-01j
 -1.5073788e-01-1.5328687e+00j  6.9942230e-01+8.9144713e-01j]",True,0,0,0,0,0,UAV,35.72785,-78.69681,89.952,-0.0760169103741645,-0.008371359668672,-0.0495286770164966,3.58,-3.46,0.0,0,4.978754864421425,"                                  0
time     2023-12-15 16:56:41.450902
type                            UAV
lat                       35.727851
lon                      -78.696805
alt                          89.952
pitch                     -0.076017
yaw                       -0.008371
roll                      -0.049529
vel_x                          3.58
vel_y                         -3.46
vel_z                           0.0
heading                           0
speed                      4.978755",71.1978525446718,71.05302257047408
0,163.8,3686,120.19507,91.48274,77.96,ZC,True,[ 0.85164762  1.09627752  0.52718478 -0.50634637],0.4921909,[-7.44870164 -8.01491973 -8.12065093 -7.94623974],-7.882628008371848,-389.78876,[69.77666499 69.53203509 70.10112783 71.13465897],70.13612171836554,289.0855845,[ 296  697 1099 1500],"[  596   997  1399  1800  5601  6651  8323 11540 15034 21560 22155 24777
 26168 26682 27174 28635 29211 41163 53994]",596,2.049595369278003,-0.5860974681938951,-1.0920064308281765,0.5860974681938951,Landing,"[-5.5360687e-07+1.3840172e-07j -8.3041027e-07+1.1072137e-06j
  2.7680344e-06+1.1072137e-06j ...  6.8137211e-01+1.1115358e+00j
 -9.7357690e-01+6.1486566e-01j  2.3285258e-01-6.6851258e-01j]",True,0,0,0,0,0,UAV,35.72786,-78.696815,89.96,-0.0769429430365562,-0.0079115703701972,-0.0501536726951599,3.59,-3.43,-0.04,0,4.965339867521658,"                                  0
time     2023-12-15 16:56:41.853578
type                            UAV
lat                       35.727859
