index,time,center_freq,dist,h_dist,v_dist,wav_type,detected,power,avgPower,snr,avgSnr,freq_offset,path_loss,avg_pl,est_dist,peaks,orig_peaks,start_point,aod_theta,aod_phi,aoa_theta,aoa_phi,stage,corr,save_corr,rsrp,shadowing,multipath,delay,doppler,type,lat,lon,alt,pitch,yaw,roll,vel_x,vel_y,vel_z,heading,speed,vehicle,avg_pl_rolling,avg_pl_ewma
0,174.6,3564,83.94601,31.103941,77.971,ZC,True,[-2.81387466 -2.53526799 -2.27562146 -3.91353129],-2.884574,[-7.82373256 -8.1627237  -8.15205708 -7.25314983],-7.847915793375193,-61.374992,[73.44218726 73.16358059 72.90393407 74.5418439 ],73.51288645338968,235.551217,[ 286  687 1088 1489],[ 586  987 1388 1789],586,1.16935061271346,-0.4015740959908679,-1.9722452660778904,0.4015740959908679,Flight,"[-8.3041027e-07-1.8684232e-06j  1.1072137e-06-2.7680343e-07j
  2.2144275e-06+1.3840172e-06j ... -9.7393739e-01-1.2156177e+00j
 -2.1427825e-01-6.0657489e-01j  4.3540820e-01+6.1430711e-01j]",True,0,0,0,0,0,UAV,35.727367,-78.696236,89.971,-0.2050649672746658,0.0347494408488273,-0.1907530426979065,0.59,-0.58,0.0,0,0.8273451516749221,"                                  0
time     2023-12-15 16:01:31.471321
type                            UAV
lat                       35.727369
lon                      -78.696234
alt                          89.971
pitch                     -0.205065
yaw                        0.034749
roll                      -0.190753
vel_x                          0.59
vel_y                         -0.58
vel_z                           0.0
heading                           0
speed                      0.827345",82.8074478774201,81.18403987390012
0,175.0,3564,83.97954,31.2268,77.958,ZC,True,[-2.38804455 -2.27556314 -1.97026039 -4.15256825],-2.696609,[-7.51683627 -7.28104563 -7.42063363 -6.42654132],-7.161264208226662,-321.81955,[73.01635716 72.90387575 72.59857299 74.78088085],73.32492168790603,235.551217,[ 286  687 1088 1489],[ 586  987 1388 1789],586,1.1787224005973107,-0.4031740816780302,-1.9628735036728644,0.4031740816780302,Takeoff,"[-1.3840172e-07-1.7300215e-06j -1.1072137e-06+5.5360687e-07j
 -2.7680343e-07+2.7680343e-07j ... -4.9358508e-01+4.0554091e-01j
 -2.2751194e-01+1.0168153e-01j  1.9843084e-01-1.7890304e-01j]",True,0,0,0,0,0,UAV,35.72737,-78.696236,89.958,-0.2144889086484909,0.0365913584828376,-0.1945951581001281,1.09,-1.05,0.04,0,1.5140013210033867,"                                  0
time     2023-12-15 16:01:31.873985
type                            UAV
lat                       35.727371
lon                      -78.696236
alt                          89.958
pitch                     -0.214489
yaw                        0.036591
roll                      -0.194595
vel_x                          1.09
vel_y                         -1.05
vel_z                          0.04
heading                           0
speed                      1.514001",81.56992466988395,79.61221623670131
0,175.4,3564,84.11964,31.682924,77.925,ZC,True,[-6.48070056 -5.95956483 -5.55649727 -6.97866488],-6.243857,[-7.49800864 -7.31349751 -7.30981425 -6.7768505 ],-7.224542725250989,-90.28486,[77.10901317 76.58787744 76.18480988 77.60697749],76.87216949099184,219.49090675,[ 283  684 1085 1486],[ 583  984 1385 1786],583,1.2117406916441036,-0.4089020187212037,-1.9298553033307009,0.4089020187212037,Takeoff,"[ 2.0760257e-07-2.7680343e-07j  1.3840172e-06+8.3041027e-07j
  9.6881206e-07-1.1072137e-06j ... -6.1270442e-02-1.0407337e+00j
  1.9410066e-01-5.7321984e-01j  5.7130981e-02+5.9965795e-01j]",True,0,0,0,0,0,UAV,35.72738,-78.69624,89.925,-0.2094825506210327,0.0342682190239429,-0.1906194388866424,2.06,-1.98,0.06,0,2.8579013278977987,"                                  0
time     2023-12-15 16:01:32.276569
type                            UAV
lat                       35.727379
lon                      -78.696245
alt                          89.925
pitch                     -0.209483
yaw                        0.034268
roll                      -0.190619
vel_x                          2.06
vel_y                         -1.98
vel_z                          0.06
heading                           0
speed                      2.857901",80.79612858458272,79.06420688755942
0,175.8,3564,84.41479,32.48245,77.915,ZC,True,[-0.57710064 -0.57496704 -0.56554778 -3.01916759],-1.1841958,[-9.40327685 -9.46808916 -9.50767443 -8.36686679],-9.186476807946091,-344.78662,[71.20541324 71.20327965 71.19386038 73.6474802 ],71.81250836729384,219.49090675,[ 283  684 1085 1486],[ 583  984 1385 1786],583,1.2621169491645494,-0.417796743077207,-1.8794791905300288,0.417796743077207,Flight,"[ 6.2280770e-07+1.1072137e-06j  1.6608205e-06-1.3840172e-07j
  1.7992223e-06-2.7680343e-07j ... -1.3473684e-01-5.1681358e-01j
  3.5173413e-03+2.2434296e-01j  2.3685467e-01+1.8717074e-01j]",True,0,0,0,0,0,UAV,35.72739,-78.69626,89.915,-0.1913758218288421,0.0293405931442976,-0.1727837026119232,2.94,-2.87,0.0,0,4.108588565432172,"                                  0
time     2023-12-15 16:01:32.679003
type                            UAV
lat                        35.72739
lon                       -78.69626
alt                          89.915
pitch                     -0.191376
yaw                        0.029341
roll                      -0.172784
vel_x                          2.94
vel_y                         -2.87
vel_z                           0.0
heading                           0
speed                      4.108589",79.7296299599733,77.61386718350631
0,176.2,3564,84.62719,33.013985,77.922,ZC,True,[-1.6515923  -1.52717769 -1.33127677 -4.50317059],-2.2533042,[-8.52233731 -8.81443529 -8.69271952 -7.16943929],-8.299732852421954,-440.90823,[72.27990491 72.15549029 71.95958937 75.1314832 ],72.88161694220459,240.90465375,[ 287  688 1089 1490],[ 587  988 1389 1790],587,1.2914579811196134,-0.4230422280298848,-1.850138247241322,0.4230422280298848,Landing,"[ 8.3041027e-07+3.4600430e-07j  1.6608205e-06-2.7680343e-07j
 -4.8440603e-07-5.5360687e-07j ... -2.3046045e-01-4.2736408e-01j
  1.2392379e-01+9.2171945e-02j  1.9907260e-01+1.0748485e-01j]",True,0,0,0,0,0,UAV,35.727398,-78.696266,89.922,-0.1309744268655777,0.0204603560268878,-0.1031423434615135,3.24,-3.14,-0.03,0,4.511995124110841,"                                  0
time     2023-12-15 16:01:33.081399
type                            UAV
lat                       35.727397
lon                      -78.696268
alt                          89.922
pitch                     -0.130974
yaw                         0.02046
roll                      -0.103142
vel_x                          3.24
vel_y                         -3.14
vel_z                         -0.03
heading                           0
speed                      4.511995",78.42080370760979,76.66741713524597
0,176.6,3564,85.161964,34.252586,77.97,ZC,True,[-10.75841934 -10.11362243  -9.64702644 -11.51729607],-10.509091,[-7.48838218 -7.43810955 -8.24428175 -7.24634638],-7.604279968164266,-1448.4883,[81.38673195 80.74193504 80.27533904 82.14560868],81.13740367487453,224.8443435,[ 284  685 1086 1487],[ 584  985 1386 1787],584,1.3518922778806342,-0.434128562905074,-1.7897041420812188,0.434128562905074,Landing,"[ 1.9030236e-07-2.7680343e-07j -1.3840172e-06-1.1072137e-06j
  1.0380129e-06-2.7680343e-07j ... -3.0651599e-01+3.5070996e-03j
  4.2845298e-02-1.0753786e-01j  2.8840426e-02-4.6112407e-02j]",True,0,0,0,0,0,UAV,35.727413,-78.69629,89.97,-0.062857486307621,0.0163059514015913,-0.0397263132035732,3.45,-3.35,-0.03,0,4.808939592051454,"                                  0
time     2023-12-15 16:01:33.483766
type                            UAV
lat                       35.727412
lon                      -78.696287
alt                           89.97
pitch                     -0.062857
yaw                        0.016306
roll                      -0.039726
vel_x                          3.45
vel_y                         -3.35
vel_z                         -0.03
heading                           0
speed                       4.80894",77.96116363726021,77.56141444317169
0,177.0,3564,85.46669,34.923046,78.006,ZC,True,[-16.59557496 -16.28739725],-16.441486,[ -9.88864074 -10.18172703],-10.035183882221109,687.8492,[87.22388756 86.91570985],87.0697987072079,2366.2190435,[ 684 1086],[ 984 1386],984,1.38081064535306,-0.4395633143751197,-1.7607858714284332,0.4395633143751197,Flight,"[-8.3041027e-07+1.3840172e-07j  6.9200858e-08-7.2660902e-07j
  6.9200860e-07+6.9200858e-08j ... -9.6967980e-02+3.1571265e-02j
  1.4410248e-02+3.1681135e-01j  2.7772520e-02-1.6812667e-01j]",True,0,0,0,0,0,UAV,35.72742,-78.6963,90.006,-0.0551615431904792,0.0173789728432893,-0.0275859143584966,3.46,-3.39,0.0,0,4.843934351330538,"                                  0
time     2023-12-15 16:01:33.886076
type                            UAV
lat                       35.727419
lon                      -78.696297
alt                          90.006
pitch                     -0.055162
yaw                        0.017379
roll                      -0.027586
vel_x                          3.46
vel_y                         -3.39
vel_z                           0.0
heading                           0
speed                      4.843934",78.12391799926911,79.46309129597893
0,177.4,3564,86.07841,36.345123,78.029,ZC,True,[-16.94919245 -16.26278461 -15.8951503  -19.8746191 ],-17.245436,[-7.47655348 -7.12608325 -7.31251169 -7.22869629],-7.285961176204241,529.80237,[87.57750506 86.89109721 86.5234629  90.5029317 ],87.87374921756714,224.8443435,[ 284  685 1086 1487],[ 584  985 1386 1787],584,1.4356371393071912,-0.4500408756354298,-1.7059595711136406,0.4500408756354298,Takeoff,"[ 1.26291570e-06+2.7680343e-07j  1.38401717e-07-2.9410364e-07j
 -1.03801284e-07+5.5360687e-07j ...  2.32652843e-01+1.2692711e-01j
  6.40198588e-02+1.9951047e-01j -1.80943564e-01-1.5158476e-01j]",True,0,0,0,0,0,UAV,35.727436,-78.69631,90.029,-0.0581923611462116,0.0182597674429416,-0.0237634256482124,3.46,-3.38,0.09,0,4.837778415760689,"                                  0
time     2023-12-15 16:01:34.288384
type                            UAV
lat                       35.727435
lon                      -78.696316
alt                          90.029
pitch                     -0.058192
yaw                         0.01826
roll                      -0.023763
vel_x                          3.46
vel_y                         -3.38
vel_z                          0.09
heading                           0
speed                      4.837778",78.36152618279758,81.14522288029657
0,177.8,3564,86.690605,37.832005,78.0,ZC,True,[-15.92909475 -15.19339468 -16.8905096 ],-16.004333,[-11.05392188  -9.93875043  -8.93721633],-9.976629546718238,-335.13623,[86.55740736 85.82170728 87.5188222 ],86.63264561508039,224.8443435,[ 284  685 1487],[ 584  985 1787],584,1.4861151298767132,-0.4599841588552769,-1.6554817701069258,0.4599841588552769,Takeoff,"[-1.3840172e-07-9.6881206e-07j  8.3041027e-07+1.3840172e-07j
 -2.7680343e-07-3.8060472e-07j ...  5.3649349e-03-7.7617066e-03j
  8.4610507e-03+1.4884059e-01j  1.6173970e-02-1.0211569e-01j]",True,0,0,0,0,0,UAV,35.72745,-78.696335,90.0,-0.0669887587428093,0.0189435239881277,-0.0265166480094194,3.51,-3.36,0.1,0,4.860010288054954,"                                  0
time     2023-12-15 16:01:34.692153
type                            UAV
lat                        35.72745
lon                      -78.696334
alt                            90.0
pitch                     -0.066989
yaw                        0.018944
roll                      -0.026517
vel_x                          3.51
vel_y                         -3.36
vel_z                           0.1
heading                           0
speed                       4.86001",78.48188129613581,82.24270742725334
0,178.2,3564,87.01571,38.59944,77.986,ZC,True,[-20.80928859 -20.22853236 -20.67869759 -22.40852511],-21.031261,[-10.31920587 -10.50509314 -10.68975923 -10.94469448],-10.614688182628884,1099.3737,[91.4376012  90.85684496 91.30701019 93.03683771],91.6595735149196,224.8443435,[ 284  685 1086 1487],[ 584  985 1386 1787],584,1.5102821630930243,-0.464906813836925,-1.6313148306529015,0.464906813836925,Takeoff,"[ 8.3041027e-07-2.7680343e-07j  4.8440603e-07+2.7680343e-07j
 -3.4600430e-07+8.3041027e-07j ...  5.2551134e-03+1.3428676e-01j
  1.1880625e-01+4.0119957e-02j -4.0009931e-02-1.0895066e-01j]",True,0,0,0,0,0,UAV,35.72746,-78.69634,89.986,-0.0708756893873214,0.0191404018551111,-0.0308263897895813,3.56,-3.35,0.11,0,4.889601210732835,"                                  0
time     2023-12-15 16:01:35.096196
type                            UAV
lat                       35.727458
lon                      -78.696343
alt                          89.986
pitch                     -0.070876
yaw                         0.01914
roll                      -0.030826
vel_x                          3.56
vel_y                         -3.35
vel_z                          0.11
heading                           0
speed                      4.889601",80.27772736714356,84.1260806447866
0,178.6,3564,87.724075,40.215466,77.963,ZC,True,[-21.14241563 -22.3468597  -22.28435876 -26.8524109 ],-23.156511,[-11.28383387 -12.63371509 -12.71904275 -12.23926994],-12.218965415089434,-913.89905,[91.77072824 92.9751723  92.91267136 97.4807235 ],93.78482384935556,230.19778025,[ 285  686 1087 1488],[ 585  986 1387 1788],585,1.5568928472149373,-0.4746535038260285,-1.5847043360939403,0.4746535038260285,Takeoff,"[ 0.0000000e+00-2.0760257e-07j -8.3041027e-07-6.9200860e-07j
 -7.6120944e-07-9.6881206e-07j ... -1.1701060e-02+2.3959620e-02j
  1.2870149e-01-1.0732451e-01j -9.6468560e-02+1.8432895e-02j]",True,0,0,0,0,0,UAV,35.727474,-78.696365,89.963,-0.0710608959197998,0.0183764230459928,-0.0360486805438995,3.66,-3.37,0.06,0,4.975550220829853,"                                  0
time     2023-12-15 16:01:35.498967
type                            UAV
lat                       35.727474
lon                      -78.696362
alt                          89.963
pitch                     -0.071061
yaw                        0.018376
roll                      -0.036049
vel_x                          3.66
vel_y                         -3.37
vel_z                          0.06
heading                           0
speed                       4.97555",82.30492110674014,86.0578292857004
0,179.0,3564,88.108315,41.05447,77.959,ZC,True,[-22.91018607 -23.69954883 -21.86971706 -24.74022947],-23.30492,[ -9.96076038  -9.2975672  -11.3994855   -9.669397  ],-10.081802517572314,-569.24524,[93.53849867 94.32786144 92.49802967 95.36854208],93.9332329632639,230.19778025,[ 285  686 1087 1488],[ 585  986 1387 1788],585,1.5793389703740666,-0.4794930273348242,-1.5622583077163257,0.4794930273348242,Takeoff,"[-2.7680343e-07-5.1900642e-08j -6.2280770e-07-8.9961117e-07j
  5.5360687e-07-4.8440603e-07j ...  1.2061018e-02-4.1073341e-02j
 -2.7076358e-02+6.2290113e-02j  8.0875391e-03-2.2523010e-02j]",True,0,0,0,0,0,UAV,35.72748,-78.69637,89.959,-0.0706536546349525,0.017709145322442,-0.0375507324934005,3.69,-3.36,0.06,0,4.990921758553223,"                                  0
time     2023-12-15 16:01:35.901613
type                            UAV
lat                       35.727482
lon                      -78.696371
alt                          89.959
pitch                     -0.070654
yaw                        0.017709
roll                      -0.037551
vel_x                          3.69
vel_y                         -3.36
vel_z                          0.06
heading                           0
speed                      4.990922",84.36575223427593,87.6329100212131
0,179.4,3564,88.92821,42.802143,77.95,ZC,True,[-2.22813541 -1.88868681 -4.9473469 ],-3.0213897,[-8.92487262 -8.83436879 -7.85625536],-8.538498923912437,-738.9585,[72.85644802 72.51699942 75.5756595 ],73.64970231168903,251.61152725,[ 289 1087 1492],[ 589 1387 1792],589,1.6225632069874896,-0.4890465441128653,-1.5190342616851629,0.4890465441128653,Flight,"[-2.49123082e-06+7.9580985e-07j -1.52241887e-06-1.3840172e-06j
 -5.53606867e-07+1.3840172e-07j ... -3.62349957e-01-1.0357192e+00j
 -1.20983586e-01-3.8190252e-01j  2.56204009e-01+4.9293321e-01j]",True,0,0,0,0,0,UAV,35.727497,-78.69639,89.95,-0.0643777623772621,0.0189841911196708,-0.0372326523065567,3.76,-3.4,0.0,0,5.069280027775148,"                                  0
time     2023-12-15 16:01:36.304435
type                            UAV
lat                       35.727499
lon                       -78.69639
alt                           89.95
pitch                     -0.064378
yaw                        0.018984
roll                      -0.037233
vel_x                          3.76
vel_y                          -3.4
vel_z                           0.0
heading                           0
speed                       5.06928",84.04350551634565,84.8362684793083
0,179.8,3564,89.81654,44.625473,77.946,ZC,True,[-4.08129168 -3.25174107 -3.12118762 -5.39062535],-3.9612114,[-8.33943942 -8.76573734 -8.57708457 -7.98748581],-8.417436785879183,-338.27078,[74.70960429 73.88005367 73.74950023 76.01893796],74.5895240368497,246.2580905,[ 288  689 1090 1491],[ 588  989 1390 1791],588,1.6628236738044926,-0.4981916605330028,-1.4787739854505106,0.4981916605330028,Takeoff,"[-1.1072137e-06-2.0760257e-07j  1.3840172e-06+1.3840172e-06j
 -1.5224189e-06+2.7680343e-07j ... -1.0401845e+00-7.8270532e-02j
 -2.3596413e-01+7.0945688e-02j  5.0151193e-01-1.0378329e-02j]",True,0,0,0,0,0,UAV,35.727516,-78.69641,89.946,-0.0551704578101635,0.0186085514724254,-0.0427592508494854,3.79,-3.46,0.03,0,5.1319197187797085,"                                  0
time     2023-12-15 16:01:36.706725
type                            UAV
lat                       35.727516
lon                      -78.696409
alt                          89.946
pitch                      -0.05517
yaw                        0.018609
roll                      -0.042759
vel_x                          3.79
vel_y                         -3.46
vel_z                          0.03
heading                           0
speed                       5.13192",84.32120708330123,82.78691959081658
0,180.2,3564,90.29609,45.576107,77.95,ZC,True,[-6.49478557 -5.97669253 -6.21383591 -8.2734291 ],-6.739686,[-9.14447391 -8.32752051 -8.00074777 -7.57170291],-8.261111276065408,-1376.915,[77.12309817 76.60500513 76.84214851 78.90174171],77.36799838155807,246.2580905,[ 288  689 1090 1491],[ 588  989 1390 1791],588,1.6816973457246345,-0.5025278228121294,-1.4599004103503008,0.5025278228121294,Flight,"[ 6.9200860e-07-2.0760257e-07j  3.4600430e-07+0.0000000e+00j
 -2.7680343e-07+1.3840172e-07j ... -1.9389306e-01+7.7966058e-01j
 -4.0976653e-01-7.1106099e-02j  4.3886214e-02-2.1851264e-01j]",True,0,0,0,0,0,UAV,35.727524,-78.69642,89.95,-0.054327193647623,0.0195951834321022,-0.0423238016664981,3.79,-3.46,0.0,0,5.13183203154585,"                                  0
time     2023-12-15 16:01:37.109196
type                            UAV
lat                       35.727524
lon                      -78.696418
alt                           89.95
pitch                     -0.054327
yaw                        0.019595
roll                      -0.042324
vel_x                          3.79
vel_y                         -3.46
vel_z                           0.0
heading                           0
speed                      5.131832",84.76984522723657,81.70313534896489
0,180.6,3564,91.32621,47.55161,77.97,ZC,True,[-10.17382964  -9.33586697  -8.40123099  -9.74302386],-9.413487,[-8.10929265 -8.37243289 -8.54341104 -7.53816632],-8.140825725030147,-992.7221,[80.80214225 79.96417958 79.02954359 80.37133646],80.04180047076764,235.551217,[ 286  687 1088 1489],[ 586  987 1388 1789],586,1.717296022405937,-0.5108047717406293,-1.4243019303663846,0.5108047717406293,Flight,"[-5.5360687e-07-4.1520514e-07j  5.5360687e-07-3.8060472e-07j
  6.9200860e-07-2.7680343e-07j ...  1.1367030e-01-4.4518828e-01j
 -8.1777908e-02-2.0630215e-01j -7.8798190e-02+2.9834899e-01j]",True,0,0,0,0,0,UAV,35.727543,-78.696434,89.97,-0.0502327606081962,0.019884942099452,-0.0397884324193,3.76,-3.51,0.0,0,5.143704890446185,"                                  0
time     2023-12-15 16:01:37.513109
type                            UAV
lat                       35.727541
lon                      -78.696438
alt                           89.97
pitch                     -0.050233
yaw                        0.019885
roll                      -0.039788
vel_x                          3.76
vel_y                         -3.51
vel_z                           0.0
heading                           0
speed                      5.143705",84.6602849068259,81.37086837332545
0,181.0,3564,91.864845,48.57486,77.972,ZC,True,[-6.56813792 -6.06537952 -5.62167854 -6.6531283 ],-6.2270813,[-8.25151617 -8.1168254  -8.21132809 -7.8009293 ],-8.09514974060008,294.07474,[77.19645052 76.69369212 76.24999114 77.28144091],76.85539367183912,235.551217,[ 286  687 1088 1489],[ 586  987 1388 1789],586,1.734065991434319,-0.5147342368737791,-1.4075320612154585,0.5147342368737791,Landing,"[-1.6608205e-06-5.1900645e-07j -1.1072137e-06-6.9200860e-07j
 -5.5360687e-07+0.0000000e+00j ...  6.9437635e-01-1.5160275e-01j
 -2.3777969e-02+2.0045219e-01j -4.1206095e-01+3.0057531e-02j]",True,0,0,0,0,0,UAV,35.72755,-78.69645,89.972,-0.0485708825290203,0.020276490598917,-0.0357171893119812,3.77,-3.54,0.02,0,5.171547157282818,"                                  0
time     2023-12-15 16:01:37.916816
type                            UAV
lat                        35.72755
lon                      -78.696447
alt                          89.972
pitch                     -0.048571
yaw                        0.020276
roll                      -0.035717
vel_x                          3.77
vel_y                         -3.54
vel_z                          0.02
heading                           0
speed                      5.171547",83.63884440328903,80.46777343302819
0,181.4,3564,92.94112,50.637806,77.935,ZC,True,[-5.56573028 -5.44836643 -4.92200481 -6.79088118],-5.6817455,[-7.69526634 -8.02953028 -8.24942361 -7.1436809 ],-7.779475282748865,-66.432274,[76.19404289 76.07667903 75.55031742 77.41919379],76.3100582807958,256.964964,[ 290  691 1092 1493],[ 590  991 1392 1793],590,1.765191026735904,-0.5220707955734181,-1.3764072236305285,0.5220707955734181,Flight,"[-1.1072137e-06+2.7680343e-07j -2.7680343e-07+8.3041027e-07j
 -2.4220301e-07-8.3041027e-07j ...  2.5471382e-02+4.5900512e-02j
 -2.9295728e-01+2.3623401e-01j  1.1200193e-01-8.0050446e-02j]",True,0,0,0,0,0,UAV,35.727566,-78.696465,89.935,-0.0448724180459976,0.0199616011232137,-0.03505489975214,3.7,-3.52,0.0,0,5.106897296793817,"                                  0
time     2023-12-15 16:01:38.319443
type                            UAV
lat                       35.727567
lon                      -78.696467
alt                          89.935
pitch                     -0.044872
yaw                        0.019962
roll                      -0.035055
vel_x                           3.7
vel_y                         -3.52
vel_z                           0.0
heading                           0
speed                      5.106897",82.48247530961189,79.63623040258172
0,181.8,3564,94.05362,52.73614,77.878,ZC,True,[-4.23342946 -4.0356625  -3.74768124 -6.41573248],-4.6081266,[-6.84722422 -7.41674153 -7.50245992 -6.46293523],-7.057340224554105,-259.995,[74.86174207 74.6639751  74.37599385 77.04404508],75.2364390239626,251.61152725,[ 289  690 1091 1492],[ 589  990 1391 1792],589,1.7930333119797597,-0.5286331377776153,-1.3485651361033817,0.5286331377776153,Landing,"[ 2.7680343e-07+5.5360687e-07j -1.3840172e-06+2.0760257e-07j
 -2.7680343e-07-5.5360687e-07j ... -7.3759407e-01+6.3339794e-01j
  7.2083071e-02+1.2419298e-01j  3.0289590e-01-3.3744332e-01j]",True,0,0,0,0,0,UAV,35.727585,-78.69649,89.878,-0.04969372600317,0.018347393721342,-0.0282074864953756,3.63,-3.53,-0.03,0,5.063467191559554,"                                  0
time     2023-12-15 16:01:38.722126
type                            UAV
lat                       35.727584
lon                      -78.696486
alt                          89.878
pitch                     -0.049694
yaw                        0.018347
roll                      -0.028207
vel_x                          3.63
vel_y                         -3.53
vel_z                         -0.03
heading                           0
speed                      5.063467",81.3428546505001,78.7562721268579
0,182.2,3564,94.641846,53.788353,77.871,ZC,True,[-6.17754347 -5.6015021  -5.16433479 -7.5923166 ],-6.133924,[-8.38248571 -8.52833219 -8.24718347 -7.37245408],-8.132613864232493,130.1947,[76.80585608 76.22981471 75.79264739 78.2206292 ],76.76223684438156,240.90465375,[ 287  688 1089 1490],[ 587  988 1389 1790],587,1.80597358861606,-0.5317179889066997,-1.3356249573063053,0.5317179889066997,Landing,"[-1.7300215e-06-8.3041027e-07j -8.3041027e-07+9.3421158e-07j
  8.3041027e-07-3.4600430e-07j ...  5.2882439e-01+4.9800092e-01j
  8.8657647e-02+7.8853272e-02j -1.7154658e-01-1.3751899e-01j]",True,0,0,0,0,0,UAV,35.727592,-78.696495,89.871,-0.0504600666463375,0.0189752336591482,-0.0333659015595912,3.63,-3.57,-0.02,0,5.091384880364084,"                                  0
time     2023-12-15 16:01:39.124564
type                            UAV
lat                       35.727592
lon                      -78.696496
alt                          89.871
pitch                      -0.05046
yaw                        0.018975
roll                      -0.033366
vel_x                          3.63
vel_y                         -3.57
vel_z                         -0.02
heading                           0
speed                      5.091385",79.8531209834463,78.35746507036264
0,182.6,3564,95.902626,55.956093,77.886,ZC,True,[-4.74223821 -4.18045095 -4.0234952  -6.52962015],-4.8689513,[-8.4341092  -8.12122141 -8.17471946 -7.33073925],-8.015197331600366,-374.0117,[75.37055081 74.80876356 74.65180781 77.15793276],75.497263733012,235.551217,[ 286  687 1088 1489],[ 586  987 1388 1789],586,1.830408754397816,-0.5375541950408349,-1.311189991279675,0.5375541950408349,Landing,"[-6.9200860e-07-2.7680343e-07j  0.0000000e+00+4.8440603e-07j
  4.1520514e-07-6.9200860e-07j ...  2.5620136e-01-6.9473314e-01j
  3.0276510e-01+2.2027457e-01j -1.2323427e-01+3.5096100e-01j]",True,0,0,0,0,0,UAV,35.727608,-78.69652,89.886,-0.0500051155686378,0.0182870104908943,-0.0269784498959779,3.6,-3.56,-0.05,0,5.06321044397722,"                                  0
time     2023-12-15 16:01:39.527152
type                            UAV
lat                       35.727608
lon                      -78.696515
alt                          89.886
pitch                     -0.050005
yaw                        0.018287
roll                      -0.026978
vel_x                           3.6
vel_y                         -3.56
vel_z                         -0.05
heading                           0
speed                       5.06321",78.02436497181193,77.78542480289252
0,183.0,3564,97.2174,58.148563,77.91,ZC,True,[-5.15378727 -4.82109284 -4.45745282 -5.86181602],-5.0735373,[-7.31615348 -7.78014987 -7.97934735 -6.84886723],-7.481129482738146,-206.0814,[75.78209987 75.44940544 75.08576543 76.49012862],75.70184984062467,240.90465375,[ 287  688 1089 1490],[ 587  988 1389 1790],587,1.8526424310252836,-0.5428574864935116,-1.2889565144073982,0.5428574864935116,Landing,"[-3.4600430e-07+2.7680343e-07j -8.3041027e-07-1.1764146e-06j
  1.2456154e-06-2.3528291e-06j ...  3.2660592e-01+1.9353094e-02j
 -2.0457642e-01+4.6076976e-02j -7.8583874e-02-5.7344604e-02j]",True,0,0,0,0,0,UAV,35.727623,-78.69653,89.91,-0.050639871507883,0.0188943482935428,-0.0307526346296072,3.59,-3.54,-0.04,0,5.041953986303326,"                                  0
time     2023-12-15 16:01:39.929598
type                            UAV
lat                       35.727625
lon                      -78.696535
alt                           89.91
pitch                      -0.05064
yaw                        0.018894
roll                      -0.030753
vel_x                          3.59
vel_y                         -3.54
vel_z                         -0.04
heading                           0
speed                      5.041954",76.20122665954803,77.36870981043896
0,183.4,3564,97.89053,59.25658,77.918,ZC,True,[-4.49561463 -3.92919761 -3.66795327 -6.65633504],-4.687275,[-8.51565526 -8.72387526 -8.76025067 -7.90783235],-8.476903383199247,-1155.6566,[75.12392724 74.55751021 74.29626587 77.28464764],75.3155877412299,240.90465375,[ 287  688 1089 1490],[ 587  988 1389 1790],587,1.863229345377672,-0.5453881456220119,-1.2783696999326384,0.5453881456220119,Landing,"[ 8.3041027e-07-1.3840172e-06j -4.8440603e-07-1.3148164e-06j
  1.3840172e-07+1.3840172e-07j ...  2.3776197e-01-5.8142286e-02j
 -2.6568106e-01+2.8242391e-01j -7.0489380e-03-7.5563185e-02j]",True,0,0,0,0,0,UAV,35.727634,-78.69655,89.918,-0.0484618209302425,0.020173106342554,-0.0263457614928483,3.56,-3.55,-0.02,0,5.027573967630909,"                                  0
time     2023-12-15 16:01:40.331990
type                            UAV
lat                       35.727633
lon                      -78.696545
alt                          89.918
pitch                     -0.048462
yaw                        0.020173
roll                      -0.026346
vel_x                          3.56
vel_y                         -3.55
vel_z                         -0.02
heading                           0
speed                      5.027574",76.3678152025021,76.95808539659716
0,183.8,3564,99.246254,61.46401,77.923,ZC,True,[-5.54555174 -5.37813948 -4.89949405 -7.27402111],-5.7743015,[-8.80667133 -7.84814078 -8.02777704 -6.8156589 ],-7.874562011814307,-133.9195,[76.17386434 76.00645209 75.52780665 77.90233372],76.40261420110397,246.2580905,[ 288  689 1090 1491],[ 588  989 1390 1791],588,1.8828282207779952,-0.5500360749773945,-1.2587710222493016,0.5500360749773945,Flight,"[ 5.5360687e-07+2.7680343e-07j  0.0000000e+00+0.0000000e+00j
  2.0760257e-07-8.9961117e-07j ...  1.7960557e-01+6.0814214e-01j
 -1.3624015e-01+7.2001830e-02j -6.3997366e-02-2.8000826e-01j]",True,0,0,0,0,0,UAV,35.72765,-78.69656,89.923,-0.0500517822802066,0.0205186214298009,-0.0228476710617542,3.53,-3.54,-0.01,0,4.999259945231894,"                                  0
time     2023-12-15 16:01:40.735768
type                            UAV
lat                       35.727649
lon                      -78.696564
alt                          89.923
pitch                     -0.050052
yaw                        0.020519
roll                      -0.022848
vel_x                          3.53
vel_y                         -3.54
vel_z                         -0.01
heading                           0
speed                       4.99926",76.54912421892753,76.84699115749852
0,184.2,3564,99.9321,62.577858,77.913,ZC,True,[-6.5570654  -6.10107    -5.98022407 -9.0586695 ],-6.9242573,[-10.50835051  -9.91494003 -10.15181901  -9.392826  ],-9.99198388843616,-728.9816,[77.185378   76.72938261 76.60853667 79.6869821 ],77.55256984668921,262.31840075,[ 291  692 1093 1494],[ 591  992 1393 1794],591,1.8921914779613167,-0.5522470493644448,-1.249407863924506,0.5522470493644448,Flight,"[ 8.3041027e-07+1.9376241e-06j  5.5360687e-07+8.3041027e-07j
 -2.7680343e-07-1.1072137e-06j ... -3.3749217e-01-7.3929685e-01j
  1.1099018e-01-7.7988535e-01j -1.9835804e-02+5.0712466e-01j]",True,0,0,0,0,0,UAV,35.727657,-78.69657,89.913,-0.0497652031481266,0.019148401916027,-0.0270358975976705,3.52,-3.49,0.0,0,4.956863927928626,"                                  0
time     2023-12-15 16:01:41.139613
type                            UAV
lat                       35.727657
lon                      -78.696574
alt                          89.913
pitch                     -0.049765
yaw                        0.019148
roll                      -0.027036
vel_x                          3.52
vel_y                         -3.49
vel_z                           0.0
heading                           0
speed                      4.956864",76.56758136544065,76.98810689533667
0,184.6,3564,101.32159,64.7845,77.904,ZC,True,[-5.09637433 -4.57778048 -4.46685214 -6.43830972],-5.1448293,[-9.49471495 -8.58957763 -8.8907148  -8.00921396],-8.746055334123039,-345.91608,[75.72468693 75.20609309 75.09516474 77.06662233],75.773141772002,262.31840075,[ 291  692 1093 1494],[ 591  992 1393 1794],591,1.9096036524414537,-0.55633577899942,-1.2319958841039942,0.55633577899942,Landing,"[-1.9376241e-06-1.7992223e-06j -1.1072137e-06-1.6608205e-06j
  8.9961117e-07-1.2456154e-06j ...  2.8215653e-01-2.1422842e-01j
 -4.6458203e-02-2.3576996e-01j -1.2719776e-01+1.7972448e-01j]",True,0,0,0,0,0,UAV,35.727673,-78.696594,89.904,-0.0564907491207122,0.01885855384171,-0.028380999341607,3.51,-3.48,-0.02,0,4.942762385549198,"                                  0
time     2023-12-15 16:01:41.541793
type                            UAV
lat                       35.727673
lon                      -78.696593
alt                          89.904
pitch                     -0.056491
yaw                        0.018859
roll                      -0.028381
vel_x                          3.51
vel_y                         -3.48
vel_z                         -0.02
heading                           0
speed                      4.942762",76.14071549556408,76.74511387066974
0,185.0,3564,102.75301,66.98018,77.922,ZC,True,[-5.13992386 -4.87982071 -4.7433446  -6.70023023],-5.36583,[-5.73275053 -5.85369728 -6.03682408 -5.27137183],-5.723660929704688,-135.82239,[75.76823646 75.50813331 75.3716572  77.32854284],75.99414245412846,251.61152725,[ 289  690 1091 1492],[ 589  990 1391 1792],589,1.925849741858776,-0.5601570026768079,-1.2157499862889023,0.5601570026768079,Flight,"[-5.5360687e-07-8.3041027e-07j -4.1520514e-07+4.1520514e-07j
 -5.5360687e-07+1.8684232e-06j ...  1.4907774e-01+7.5481308e-01j
 -3.3210799e-01+3.6872169e-01j -2.9632222e-02-4.7450033e-01j]",True,0,0,0,0,0,UAV,35.727688,-78.69661,89.922,-0.0590888373553752,0.0183404814451932,-0.0291470754891634,3.52,-3.49,0.0,0,4.956863927928626,"                                  0
time     2023-12-15 16:01:41.944313
type                            UAV
lat                       35.727689
lon                      -78.696612
alt                          89.922
pitch                     -0.059089
yaw                         0.01834
roll                      -0.029147
vel_x                          3.52
vel_y                         -3.49
vel_z                           0.0
heading                           0
speed                      4.956864",76.05459037379302,76.59491958736149
0,185.4,3564,103.49151,68.09279,77.935,ZC,True,[-2.00632483 -1.76784998 -1.933444   -3.99875596],-2.4265938,[-8.32423931 -8.21062422 -8.25215335 -7.15665202],-7.985917224070307,-710.70776,[72.63463743 72.39616259 72.5617566  74.62706856],73.05490629477126,251.61152725,[ 289  690 1091 1492],[ 589  990 1391 1792],589,1.9335316782259728,-0.5619381342014947,-1.2080681467420018,0.5619381342014947,Landing,"[ 8.3041027e-07-8.3041027e-07j -8.3041027e-07-7.6120944e-07j
 -9.6881206e-07+2.0760257e-07j ...  7.8020371e-02-3.4965476e-01j
 -5.5882044e-02+2.0824200e-02j  4.3155316e-02+2.3822714e-01j]",True,0,0,0,0,0,UAV,35.727695,-78.696625,89.935,-0.062180258333683,0.0186316445469856,-0.0339142642915248,3.53,-3.46,-0.02,0,4.942964697426029,"                                  0
time     2023-12-15 16:01:42.346947
type                            UAV
lat                       35.727697
lon                      -78.696621
alt                          89.935
pitch                      -0.06218
yaw                        0.018632
roll                      -0.033914
vel_x                          3.53
vel_y                         -3.46
vel_z                         -0.02
heading                           0
speed                      4.942965",75.72907517519057,75.88691692884345
0,185.8,3564,104.995415,70.358574,77.934,ZC,True,[-1.85652441 -1.87118765 -1.44272118 -3.8500797 ],-2.2551281,[-8.16987319 -7.98785187 -8.28057416 -7.27036136],-7.927165142469096,-825.82104,[72.48483701 72.49950025 72.07103379 74.4783923 ],72.88344083900563,256.964964,[ 290  691 1092 1493],[ 590  991 1392 1793],590,1.9485093071136448,-0.565374083121413,-1.1930907135333135,0.565374083121413,Takeoff,"[-5.5360687e-07-1.6608205e-06j  3.4600430e-07-4.8440603e-07j
  2.2144275e-06+5.5360687e-07j ... -2.2486126e-01-3.2906753e-01j
 -2.0803051e-01-7.2080582e-02j  2.1393570e-01+1.8592022e-01j]",True,0,0,0,0,0,UAV,35.727715,-78.69664,89.934,-0.0610689036548137,0.0179923065006732,-0.03344501927495,3.55,-3.5,0.03,0,4.98531844519485,"                                  0
time     2023-12-15 16:01:42.749647
type                            UAV
lat                       35.727713
lon                       -78.69664
alt                          89.934
pitch                     -0.061069
yaw                        0.017992
roll                      -0.033445
vel_x                          3.55
vel_y                          -3.5
vel_z                          0.03
heading                           0
speed                      4.985318",75.49377535669487,75.28622171087589
0,186.2,3564,105.774574,71.511734,77.938,ZC,True,[-3.34760753 -3.02730908 -2.68250633 -5.23508015],-3.5731258,[-7.96680116 -7.8177575  -7.61001743 -6.61377236],-7.50208711232349,-653.501,[73.97592013 73.65562168 73.31081893 75.86339276],74.20143837641866,251.61152725,[ 289  690 1091 1492],[ 589  990 1391 1792],589,1.9558095561769635,-0.5670419965293101,-1.1857905633286832,0.5670419965293101,Landing,"[ 5.5360687e-07+7.2660902e-07j  1.3148164e-06+5.5360687e-07j
 -4.8440603e-07+5.5360687e-07j ... -1.5252423e-02-2.2066811e-01j
  1.3403459e-01-2.0015351e-01j  2.1394137e-02+9.7901568e-02j]",True,0,0,0,0,0,UAV,35.727722,-78.69665,89.938,-0.0596001856029033,0.0178111921995878,-0.0299382749944925,3.57,-3.49,0.02,0,4.992534426521264,"                                  0
time     2023-12-15 16:01:43.152187
type                            UAV
lat                       35.727721
lon                       -78.69665
alt                          89.938
pitch                       -0.0596
yaw                        0.017811
roll                      -0.029938
vel_x                          3.57
vel_y                         -3.49
vel_z                          0.02
heading                           0
speed                      4.992534",75.23769550989859,75.06926504398444
0,186.6,3564,107.34593,73.83299,77.922,ZC,True,[-2.07971474 -2.05252328 -4.89902926],-3.0104225,[-11.33830796 -11.17564755  -9.95369238],-10.822549296974222,179.78154,[72.70802735 72.68083588 75.52734187],73.6387350334386,2398.339664,[ 690 1093 1494],[ 990 1393 1794],990,1.9695380043158783,-0.5700875046871672,-1.1720623139263489,0.5700875046871672,Flight,"[-1.2456154e-06-4.1520514e-07j -8.9961117e-07+3.4600430e-07j
  6.9200860e-07-8.6501075e-07j ...  2.2020045e-01+1.2900349e+00j
 -3.4167233e-01+3.6641708e-01j  3.9187200e-02-6.9078469e-01j]",True,0,0,0,0,0,UAV,35.727737,-78.69667,89.922,-0.0569956861436367,0.0176379177719354,-0.0315747782588005,3.56,-3.5,0.01,0,4.992364169409119,"                                  0
time     2023-12-15 16:01:43.554930
type                            UAV
lat                       35.727737
lon                       -78.69667
alt                          89.922
pitch                     -0.056996
yaw                        0.017638
roll                      -0.031575
vel_x                          3.56
vel_y                          -3.5
vel_z                          0.01
heading                           0
speed                      4.992364",75.05184263994124,74.78315904187528
0,187.0,3564,108.957504,76.167305,77.912,ZC,True,[-2.40230327 -2.01078711 -2.15134764 -4.78831232],-2.8381877,[-6.88577687 -6.84050141 -6.98689904 -5.84258985],-6.638941795117066,-173.51999,[73.03061587 72.63909971 72.77966024 75.41662493],73.46650018804756,256.964964,[ 290  691 1092 1493],[ 590  991 1392 1793],590,1.9824272891236627,-0.5728880110953156,-1.1591732278552236,0.5728880110953156,Flight,"[-1.1072137e-06+4.1520514e-07j  0.0000000e+00-9.6881206e-07j
  0.0000000e+00-2.7680343e-07j ...  3.3806419e-01+1.7071298e-01j
  1.2727284e-02-7.1087964e-02j -3.2502260e-02-8.6090922e-02j]",True,0,0,0,0,0,UAV,35.727753,-78.696686,89.912,-0.0564870424568653,0.0171890258789062,-0.0254731271415948,3.58,-3.51,0.0,0,5.013631418443123,"                                  0
time     2023-12-15 16:01:43.957616
type                            UAV
lat                       35.727753
lon                      -78.696689
alt                          89.912
pitch                     -0.056487
yaw                        0.017189
roll                      -0.025473
vel_x                          3.58
vel_y                         -3.51
vel_z                           0.0
heading                           0
speed                      5.013631",74.82830767468353,74.51982727110975
0,187.4,3564,109.77528,77.33261,77.912,ZC,True,[-1.56822597 -1.53501314 -1.37780209 -2.99927696],-1.8700795,[-6.46932195 -5.96548407 -6.12807849 -5.5479027 ],-6.027696803051927,67.570786,[72.19653857 72.16332574 72.00611469 73.62758957],72.49839214335924,256.964964,[ 290  691 1092 1493],[ 590  991 1392 1793],590,1.988537813281406,-0.5741936442370642,-1.1530628025562573,0.5741936442370642,Flight,"[-6.9200860e-07-5.5360687e-07j -4.1520514e-07-1.1072137e-06j
  1.1072137e-06-2.7680343e-07j ...  3.4409600e-01-1.1278124e+00j
  2.5523490e-01-3.0510297e-01j -9.6864901e-02+5.1270974e-01j]",True,0,0,0,0,0,UAV,35.72776,-78.6967,89.912,-0.0539457164704799,0.0173526089638471,-0.0306012947112321,3.56,-3.49,0.0,0,4.985348533452802,"                                  0
time     2023-12-15 16:01:44.360002
type                            UAV
lat                       35.727762
lon                      -78.696699
alt                          89.912
pitch                     -0.053946
yaw                        0.017353
roll                      -0.030601
vel_x                          3.56
vel_y                         -3.49
vel_z                           0.0
heading                           0
speed                      4.985349",74.54658811489647,74.11554024555964
0,187.8,3564,111.442085,79.67511,77.918,ZC,True,[-0.96779732 -0.81357219 -0.70221246 -2.80716098],-1.3226857,[-7.91525712 -8.59229966 -8.4229862  -7.85110416],-8.195411784137208,-491.33902,[71.59610993 71.44188479 71.33052507 73.43547359],71.95099834316179,267.6718375,[ 292  693 1094 1495],[ 592  993 1394 1795],592,2.0000476510961533,-0.5765779218050465,-1.1415531634782667,0.5765779218050465,Flight,"[-1.1072137e-06+8.9961117e-07j  2.0068248e-06-2.7680343e-07j
  2.0760257e-07+2.7680343e-07j ... -3.3491927e-01-2.2873098e-02j
  1.2216719e-03-3.3062053e-01j  2.1601048e-01+1.4493272e-01j]",True,0,0,0,0,0,UAV,35.72778,-78.69672,89.918,-0.0595097206532955,0.0161784868687391,-0.0204383488744497,3.57,-3.52,0.0,0,5.013511743279356,"                                  0
time     2023-12-15 16:01:44.762385
type                            UAV
lat                       35.727778
lon                      -78.696718
alt                          89.918
pitch                      -0.05951
yaw                        0.016178
roll                      -0.020438
vel_x                          3.57
vel_y                         -3.52
vel_z                           0.0
heading                           0
speed                      5.013512",74.10142652910224,73.68263186508007
0,188.2,3564,112.28332,80.843704,77.922,ZC,True,[-2.9412329  -2.60207654 -2.65859256 -4.93782554],-3.284932,[-6.82889243 -6.6129937  -6.93941813 -6.12527799],-6.626645560927426,152.93025,[73.56954551 73.23038914 73.28690517 75.56613815],73.91324449167206,262.31840075,[ 291  692 1093 1494],[ 591  992 1393 1794],591,2.0055134293614847,-0.5776842949316074,-1.1360874840717603,0.5776842949316074,Flight,"[ 1.6608205e-06+8.3041027e-07j  1.5224189e-06+1.3840172e-06j
  1.3840172e-07+0.0000000e+00j ... -7.0985329e-01+5.7424062e-01j
 -4.3327680e-01+4.7537309e-01j  4.4789025e-01-3.2853314e-01j]",True,0,0,0,0,0,UAV,35.727787,-78.69673,89.922,-0.0618644468486309,0.0170555189251899,-0.0210636500269174,3.55,-3.47,-0.01,0,4.964221993424549,"                                  0
time     2023-12-15 16:01:45.164873
type                            UAV
lat                       35.727786
lon                      -78.696728
alt                          89.922
pitch                     -0.061864
yaw                        0.017056
roll                      -0.021064
vel_x                          3.55
vel_y                         -3.47
vel_z                         -0.01
heading                           0
speed                      4.964222",73.73749399360054,73.72875439039846
0,188.6,3564,113.99054,83.189224,77.932,ZC,True,[-2.45054154 -2.24710843 -2.04168233 -3.11502654],-2.4635897,[-7.2760328  -6.6841878  -6.96998132 -6.50289295],-6.858273716720275,462.4186,[73.07885414 72.87542103 72.66999494 73.74333914],73.09190231390369,262.31840075,[ 291  692 1093 1494],[ 591  992 1393 1794],591,2.016271113851696,-0.5798615194422313,-1.1253299962801229,0.5798615194422313,Takeoff,"[-5.5360687e-07-5.5360687e-07j  9.6881206e-07-5.5360687e-07j
  6.2280770e-07-5.5360687e-07j ...  1.9279525e-01-4.8564885e-02j
  2.4686936e-01+9.5775098e-02j -1.3922632e-01-7.1474381e-02j]",True,0,0,0,0,0,UAV,35.727802,-78.69675,89.932,-0.0635504052042961,0.0180040095001459,-0.0249253995716571,3.58,-3.48,0.03,0,4.9927647651376486,"                                  0
time     2023-12-15 16:01:45.567539
type                            UAV
lat                       35.727802
lon                      -78.696747
alt                          89.932
pitch                      -0.06355
yaw                        0.018004
roll                      -0.024925
vel_x                          3.58
vel_y                         -3.48
vel_z                          0.03
heading                           0
speed                      4.992765",73.4693700477907,73.60138397509951
0,189.0,3564,115.71153,85.51947,77.946,ZC,True,[-3.06302288 -2.59958257 -3.59629784],-3.086301,[-8.54223534 -8.81149477 -8.28242629],-8.545385465532945,321.91907,[73.69133548 73.22789517 74.22461044],73.71461369961585,273.02527425,[ 293  696 1495],[ 593  996 1795],593,2.026577366324491,-0.5819277503522027,-1.1150239374485125,0.5819277503522027,Flight,"[ 4.8440603e-07-1.7992223e-06j  1.9376241e-06-4.1520514e-07j
  2.7680343e-07-5.5360687e-07j ...  6.6060758e-01-3.6785570e-01j
  7.1696877e-01-1.4828028e-01j -4.0873486e-01+1.8179896e-01j]",True,0,0,0,0,0,UAV,35.727818,-78.69677,89.946,-0.059627428650856,0.0172928385436534,-0.0232391078025102,3.6,-3.43,0.0,0,4.972413900712611,"                                  0
time     2023-12-15 16:01:45.970161
type                            UAV
lat                       35.727818
lon                      -78.696766
alt                          89.946
pitch                     -0.059627
yaw                        0.017293
roll                      -0.023239
vel_x                           3.6
vel_y                         -3.43
vel_z                           0.0
heading                           0
speed                      4.972414",73.24141717233944,73.62402992000277
0,189.4,3564,116.5804,86.68787,77.95,ZC,True,[-6.68655629 -6.83878101 -7.05289354 -9.32666211],-7.4762235,[-6.97263873 -6.41479395 -6.65680319 -5.58701775],-6.407813404316629,629.9452,[77.31486889 77.46709362 77.68120615 79.95497472],78.10453584419099,267.6718375,[ 292  693 1094 1495],[ 592  993 1394 1795],592,2.031522452411634,-0.5828924193621283,-1.1100789481819893,0.5828924193621283,Flight,"[ 6.9200860e-07+8.3041027e-07j  0.0000000e+00+1.5916197e-06j
  0.0000000e+00+4.1520514e-07j ...  2.2095792e-01+5.3921968e-01j
 -3.5366675e-01+3.5780498e-01j -1.7304920e-02-3.5215369e-01j]",True,0,0,0,0,0,UAV,35.727825,-78.69678,89.95,-0.0585364401340484,0.0159140564501285,-0.0241503212600946,3.6,-3.43,0.0,0,4.972413900712611,"                                  0
time     2023-12-15 16:01:46.372748
type                            UAV
lat                       35.727826
lon                      -78.696776
alt                           89.95
pitch                     -0.058536
yaw                        0.015914
roll                       -0.02415
vel_x                           3.6
vel_y                         -3.43
vel_z                           0.0
heading                           0
speed                      4.972414",73.74638012728141,74.52013110484042
0,189.8,3564,118.31697,89.0227,77.935,ZC,True,[-1.8146663  -1.88396233 -3.94667291],-2.5484338,[-8.45850087 -8.40952689 -7.38649715],-8.08484163826002,61.367947,[72.44297891 72.51227493 74.57498551],73.17674644977238,2414.39997425,[ 693 1094 1495],[ 993 1394 1795],993,2.041068720832658,-0.5847010946217728,-1.1005328723831085,0.5847010946217728,Flight,"[-4.1520514e-07-1.7992223e-06j -1.1072137e-06+2.7680343e-07j
 -8.3041027e-07+8.3041027e-07j ...  6.5356404e-01+5.7073712e-01j
  1.1251561e-01+3.4860423e-01j -2.8052643e-01-3.1952888e-01j]",True,0,0,0,0,0,UAV,35.727844,-78.69679,89.935,-0.0548996292054653,0.0157870817929506,-0.027281342074275,3.6,-3.42,0.01,0,4.965531190114508,"                                  0
time     2023-12-15 16:01:46.775216
type                            UAV
lat                       35.727842
lon                      -78.696795
alt                          89.935
pitch                       -0.0549
yaw                        0.015787
roll                      -0.027281
vel_x                           3.6
vel_y                         -3.42
vel_z                          0.01
heading                           0
speed                      4.965531",73.77571068835809,74.25145417382682
0,190.2,3564,120.09774,91.38128,77.929,ZC,True,[-1.48985481 -1.39693474 -1.41805283 -2.86005895],-1.7912253,[-6.27190121 -7.0004174  -6.72821933 -6.50568033],-6.626554569773521,101.94667,[72.11816742 72.02524734 72.04636544 73.48837155],72.41953793723724,278.378711,[ 294  697 1098 1499],[ 594  997 1398 1799],594,2.050034951997769,-0.58631386636022,-1.0915668358785278,0.58631386636022,Takeoff,"[ 8.3041027e-07+6.9200860e-07j -2.7680343e-07+8.3041027e-07j
 -2.7680344e-06-3.1140385e-07j ... -1.1401657e+00+3.1307521e-01j
 -4.0495831e-01+3.6867422e-01j  6.8800920e-01-2.6871580e-01j]",True,0,0,0,0,0,UAV,35.72786,-78.696815,89.929,-0.0548407100141048,0.0150007437914609,-0.0266460180282592,3.6,-3.46,0.03,0,4.993245437588664,"                                  0
time     2023-12-15 16:01:47.178066
type                            UAV
lat                       35.727859
lon                      -78.696814
alt                          89.929
pitch                     -0.054841
yaw                        0.015001
roll                      -0.026646
vel_x                           3.6
vel_y                         -3.46
vel_z                          0.03
heading                           0
speed                      4.993245",73.59752064443994,73.8850709265089
0,190.6,3564,121.001915,92.56722,77.928,ZC,True,[-8.86937705 -8.94476359 -8.70895979 -9.07373921],-8.89921,[-5.99983194 -6.69506309 -6.74877392 -6.66561787],-6.527321703290922,47.709457,[79.49768965 79.57307619 79.33727239 79.70205181],79.52752251192584,278.378711,[ 294  695 1096 1497],[ 594  995 1396 1797],594,2.054323827679984,-0.5870552627883423,-1.0872780580361854,0.5870552627883423,Landing,"[ 1.3840172e-06+1.3840172e-07j -2.7680343e-07+5.5360687e-07j
 -1.9376241e-06-1.3840172e-07j ...  2.1612512e-01+4.1204822e-01j
 -2.1315165e-01+4.5893005e-01j  3.1526439e-02-2.9062769e-01j]",True,0,0,0,0,0,UAV,35.727867,-78.69682,89.928,-0.0563432276248931,0.0166385136544704,-0.027447560802102,3.59,-3.44,-0.02,0,4.972132339348984,"                                  0
time     2023-12-15 16:01:47.580774
type                            UAV
lat                       35.727867
lon                      -78.696823
alt                          89.928
pitch                     -0.056343
yaw                        0.016639
roll                      -0.027448
vel_x                          3.59
vel_y                         -3.44
vel_z                         -0.02
heading                           0
speed                      4.972132",74.18639939228866,75.01356124359229
0,191.0,3564,122.827194,94.94403,77.924,ZC,True,[-1.7397937  -1.72586564 -1.43227487 -3.55535866],-2.1133232,[-6.74541261 -7.9100607  -8.30294582 -7.24056869],-7.549746956561741,-1193.2969,[72.3681063  72.35417825 72.06058747 74.18367127],72.74163582289601,283.73214775,[ 295  696 1097 1498],[ 595  996 1397 1798],595,2.0625797743144854,-0.5884328983855129,-1.079022307081485,0.5884328983855129,Landing,"[-8.3041027e-07+2.7680343e-07j  1.3840172e-07-6.2280770e-07j
 -5.5360687e-07-1.1072137e-06j ...  1.2836538e-01-4.1682968e-01j
  2.8247446e-01-5.6759167e-02j -1.3248283e-01+1.8707678e-01j]",True,0,0,0,0,0,UAV,35.727882,-78.696846,89.924,-0.0520217902958393,0.0170386396348476,-0.0250480882823467,3.6,-3.51,-0.03,0,5.028021479667723,"                                  0
time     2023-12-15 16:01:47.983139
type                            UAV
lat                       35.727883
lon                      -78.696843
alt                          89.924
pitch                     -0.052022
yaw                        0.017039
roll                      -0.025048
vel_x                           3.6
vel_y                         -3.51
vel_z                         -0.03
heading                           0
speed                      5.028021",74.1139129557735,74.55917615945303
0,191.4,3564,123.751495,96.12949,77.933,ZC,True,[-3.48398258 -3.28148909 -3.08229813 -4.44668132],-3.5736127,[-6.87488783 -6.28826885 -6.42490113 -5.97230124],-6.390089764711847,-208.74117,[74.11229519 73.9098017  73.71061073 75.07499393],74.2019253855993,283.73214775,[ 295  698 1099 1500],[ 595  998 1399 1800],595,2.066453000787153,-0.5890474785085424,-1.0751491784487357,0.5890474785085424,Landing,"[ 5.5360687e-07+1.6608205e-06j -9.6881206e-07+1.2456154e-06j
  2.7680343e-07-4.1520514e-07j ... -5.1656896e-01+5.2604139e-01j
 -4.1754580e-01-3.4556347e-01j  2.5367001e-01-1.7160678e-01j]",True,0,0,0,0,0,UAV,35.72789,-78.69685,89.933,-0.0544774122536182,0.0166764557361602,-0.0236288662999868,3.6,-3.5,-0.02,0,5.020995917146318,"                                  0
time     2023-12-15 16:01:48.385944
type                            UAV
lat                       35.727891
lon                      -78.696852
alt                          89.933
pitch                     -0.054477
yaw                        0.016676
roll                      -0.023629
vel_x                           3.6
vel_y                          -3.5
vel_z                         -0.02
heading                           0
speed                      5.020996",74.28426627999752,74.48772600468229
0,191.8,3564,125.60473,98.496666,77.942,ZC,True,[-2.69728632 -2.30948147 -2.15418575 -4.6358122 ],-2.9491913,[-7.74784353 -7.65862845 -7.91503795 -6.71441352],-7.508980860695811,-574.85333,[73.32559892 72.93779407 72.78249836 75.26412481],73.57750404050093,278.378711,[ 294  695 1096 1497],[ 594  995 1396 1797],594,2.0739637925978585,-0.5902019885393531,-1.0676385812987663,0.5902019885393531,Flight,"[ 0.0000000e+00-8.3041027e-07j -2.7680343e-07+1.2456154e-06j
 -2.7680343e-07+0.0000000e+00j ...  1.4688048e-01-5.5619067e-01j
  1.3553514e-01-7.4930662e-01j -1.3205129e-01+4.0031022e-01j]",True,0,0,0,0,0,UAV,35.727905,-78.69687,89.942,-0.0530045591294765,0.0146314036101102,-0.0264535695314407,3.57,-3.48,0.0,0,4.985509001095074,"                                  0
time     2023-12-15 16:01:48.788273
type                            UAV
lat                       35.727907
lon                      -78.696871
alt                          89.942
pitch                     -0.053005
yaw                        0.014631
roll                      -0.026454
vel_x                          3.57
vel_y                         -3.48
vel_z                           0.0
heading                           0
speed                      4.985509",74.44691684973142,74.30568161184601
0,192.2,3564,127.45273,100.84498,77.939,ZC,True,[-0.42520363 -0.37030125 -0.18039114 -2.57403168],-0.8874819,[-7.32468641 -7.41484048 -7.23263252 -6.44377038],-7.103982447405062,-20.411793,[71.05351624 70.99861385 70.80870374 73.20234429],71.51579453078935,299.792458,[ 298  699 1100 1501],[ 598  999 1400 1801],598,2.080877470483255,-0.5911559664022046,-1.060725097054989,0.5911559664022046,Takeoff,"[ 6.2280770e-07-4.1520514e-07j -1.3840172e-07-1.5224189e-06j
  4.1520514e-07+8.3041027e-07j ...  1.1358954e+00+1.2087369e-01j
  3.3818036e-01+2.5502080e-01j -5.7112241e-01-7.6845758e-02j]",True,0,0,0,0,0,UAV,35.727924,-78.69689,89.939,-0.0629625543951988,0.0151517894119024,-0.0252085328102111,3.54,-3.49,0.04,0,4.9712473283875145,"                                  0
time     2023-12-15 16:01:49.190742
type                            UAV
lat                       35.727923
lon                       -78.69689
alt                          89.939
pitch                     -0.062963
yaw                        0.015152
roll                      -0.025209
vel_x                          3.54
vel_y                         -3.49
vel_z                          0.04
heading                           0
speed                      4.971247",74.20717185364316,73.74770419563468
0,192.6,3564,128.3783,102.02906,77.917,ZC,True,[ 0.19121328  0.29970785  0.40713121 -1.67097033],-0.1932295,[-7.45147729 -7.12145472 -7.12634058 -6.36950625],-7.017194709766941,-600.7551,[70.43709932 70.32860475 70.22118139 72.29928294],70.82154210212472,299.792458,[ 298  699 1100 1501],[ 598  999 1400 1801],598,2.0843569688501176,-0.5916248077590242,-1.0572456955089822,0.5916248077590242,Landing,"[ 2.21442747e-06-5.5360687e-07j  0.00000000e+00-1.1072137e-06j
  8.30410272e-07-8.3041027e-07j ... -2.34148018e-02-5.3319275e-01j
 -1.05229974e-01-2.0898023e-01j -7.04064742e-02+3.6613137e-01j]",True,0,0,0,0,0,UAV,35.727932,-78.6969,89.917,-0.0645401999354362,0.0153651293367147,-0.0246487502008676,3.54,-3.48,0.02,0,4.964111199399143,"                                  0
time     2023-12-15 16:01:49.593126
type                            UAV
lat                       35.727931
lon                        -78.6969
alt                          89.917
pitch                      -0.06454
yaw                        0.015365
roll                      -0.024649
vel_x                          3.54
vel_y                         -3.48
vel_z                          0.02
heading                           0
speed                      4.964111",73.98013583246527,73.16247177693269
0,193.0,3564,130.26492,104.40864,77.896,ZC,True,[-0.8904168  -0.94916505 -0.79037115 -3.28070801],-1.4776653,[-8.52380752 -8.40475921 -8.35807554 -7.29805792],-8.146175047728304,-90.74602,[71.51872941 71.57747766 71.41868375 73.90902062],72.105977859149,294.43902124999994,[ 297  698 1099 1500],[ 597  998 1399 1800],597,2.091035912797704,-0.5924863206358681,-1.0505669462223204,0.5924863206358681,Flight,"[ 8.3041027e-07+1.8684232e-06j -2.0760257e-07-1.3840172e-07j
 -1.7992223e-06+0.0000000e+00j ...  9.1886920e-01+6.8270922e-01j
 -6.5768220e-02+4.6692607e-01j -2.7594921e-01-4.0595481e-01j]",True,0,0,0,0,0,UAV,35.727947,-78.69692,89.896,-0.062167502939701,0.0157344937324523,-0.0291861426085233,3.58,-3.47,0.0,0,4.985709578385007,"                                  0
time     2023-12-15 16:01:49.995704
type                            UAV
lat                       35.727947
lon                      -78.696919
alt                          89.896
pitch                     -0.062168
yaw                        0.015734
roll                      -0.029186
vel_x                          3.58
vel_y                         -3.47
vel_z                           0.0
heading                           0
speed                       4.98571",73.81927224841857,72.95117299337595
