index,time,center_freq,dist,h_dist,v_dist,wav_type,detected,power,avgPower,snr,avgSnr,freq_offset,path_loss,avg_pl,est_dist,peaks,orig_peaks,start_point,aod_theta,aod_phi,aoa_theta,aoa_phi,stage,corr,save_corr,rsrp,shadowing,multipath,delay,doppler,type,lat,lon,alt,pitch,yaw,roll,vel_x,vel_y,vel_z,heading,speed,vehicle,avg_pl_rolling,avg_pl_ewma
0,65.0,3620,83.92494,31.112268,77.945,ZC,True,[-4.69134038 -4.83259572 -4.52605661 -7.71172161],-5.4404287,[-8.79297668 -8.12477771 -8.4173784  -7.16626608],-8.125349714993302,-644.31274,[75.31965298 75.46090833 75.15436921 78.34003421],76.06874118325176,155.24966575,[ 271  672 1073 1474],[ 571  972 1373 1774],571,1.1694642416758332,-0.4015111350186884,-1.9721316381346667,0.4015111350186884,Flight,"[-1.73002149e-06+8.3041027e-07j -9.68812060e-07+1.9376241e-06j
 -1.38401717e-07+2.7680343e-07j ... -1.79402500e-01-5.3088200e-01j
 -1.07113376e-01-2.2505850e-01j  9.78137553e-02+4.0452373e-01j]",True,0,0,0,0,0,UAV,35.727367,-78.696236,89.945,-0.1848038583993911,0.0857889279723167,-0.2070931047201156,0.61,-0.6,0.01,0,0.8556868586112562,"                                  0
time     2023-12-15 16:37:07.080985
type                            UAV
lat                       35.727369
lon                      -78.696234
alt                          89.945
pitch                     -0.184804
yaw                        0.085789
roll                      -0.207093
vel_x                          0.61
vel_y                          -0.6
vel_z                          0.01
heading                           0
speed                      0.855687",77.91661385885473,77.7182860970412
0,65.4,3620,84.02921,31.424704,77.932,ZC,True,[-7.71577003 -7.28416969 -6.51229548 -7.69450067],-7.301684,[-6.80610945 -7.20914036 -7.19905765 -6.71831306],-6.983155132234723,398.37885,[78.34408263 77.91248229 77.14060808 78.32281327],77.92999657005139,155.24966575,[ 271  672 1073 1474],[ 571  972 1373 1774],571,1.1931281881008835,-0.4056228424056544,-1.9484677559162595,0.4056228424056544,Takeoff,"[-8.3041027e-07-6.9200860e-07j  2.4220301e-07+2.0760257e-07j
 -6.2280770e-07-1.7300215e-07j ... -6.5325999e-01-4.2924643e-01j
 -6.8273887e-02+1.0364009e-01j  3.3411592e-01+1.8481854e-01j]",True,0,0,0,0,0,UAV,35.727375,-78.69624,89.932,-0.1929592043161392,0.0865872353315353,-0.2065324187278747,1.6,-1.53,0.03,0,2.2140009033421824,"                                  0
time     2023-12-15 16:37:07.483851
type                            UAV
lat                       35.727374
lon                       -78.69624
alt                          89.932
pitch                     -0.192959
yaw                        0.086587
roll                      -0.206532
vel_x                           1.6
vel_y                         -1.53
vel_z                          0.03
heading                           0
speed                      2.214001",77.9946215697078,77.76062819164325
0,65.8,3620,84.13235,31.692078,77.935,ZC,True,[-7.01742545 -6.12380527 -5.95360719 -7.08329478],-6.5445333,[-7.2935161  -7.34495128 -7.60000932 -7.45099072],-7.422366855473158,554.07336,[77.64573805 76.75211788 76.58191979 77.71160738],77.17284577505521,155.24966575,[ 271  672 1073 1474],[ 571  972 1373 1774],571,1.2125968665667228,-0.4090859687217807,-1.9289991304463892,0.4090859687217807,Flight,"[-1.3840172e-06-1.3840172e-07j  7.6120944e-07-6.9200860e-07j
  5.5360687e-07+1.9376241e-06j ...  9.7899079e-02-1.3463913e-01j
 -3.0470896e-01+3.2761577e-01j -1.2436211e-01-9.2317022e-02j]",True,0,0,0,0,0,UAV,35.72738,-78.69624,89.935,-0.1894792169332504,0.0861013978719711,-0.2040145099163055,2.08,-1.97,0.0,0,2.8648385643871803,"                                  0
time     2023-12-15 16:37:07.886449
type                            UAV
lat                       35.727379
lon                      -78.696246
alt                          89.935
pitch                     -0.189479
yaw                        0.086101
roll                      -0.204015
vel_x                          2.08
vel_y                         -1.97
vel_z                           0.0
heading                           0
speed                      2.864839",77.87242776492647,77.64307170832565
0,66.2,3620,84.43637,32.492958,77.934,ZC,True,[-5.52844681 -5.26527132 -4.80351182 -5.73496061],-5.333048,[-6.13004717 -5.90649146 -6.06468348 -5.61238234],-5.928401113936536,-1191.4362,[76.15675941 75.89358393 75.43182442 76.36327321],75.96136024268108,155.24966575,[ 271  672 1073 1474],[ 571  972 1373 1774],571,1.2629367928541126,-0.4179903089165325,-1.8786593488787744,0.4179903089165325,Flight,"[ 1.3840172e-07-8.3041027e-07j  2.0760257e-07+4.1520514e-07j
  1.3840172e-07+7.9580985e-07j ... -1.3669038e-02-3.9140669e-01j
  2.0314120e-02+1.9623588e-01j -1.3678415e-01+1.5283684e-01j]",True,0,0,0,0,0,UAV,35.72739,-78.69626,89.934,-0.1679315865039825,0.0837909653782844,-0.1870940625667572,2.96,-2.86,0.0,0,4.115968901728972,"                                  0
time     2023-12-15 16:37:08.289210
type                            UAV
lat                        35.72739
lon                       -78.69626
alt                          89.934
pitch                     -0.167932
yaw                        0.083791
roll                      -0.187094
vel_x                          2.96
vel_y                         -2.86
vel_z                           0.0
heading                           0
speed                      4.115969",77.65004751371048,77.30672941519674
0,66.6,3620,84.90686,33.638798,77.959,ZC,True,[-11.48655333 -11.08450236 -10.03711399 -11.33902969],-10.9868,[-7.37384741 -7.34373297 -7.71434483 -6.94272418],-7.343662348009543,-378.6999,[82.11486594 81.71281496 80.66542659 81.9673423 ],81.61511244670581,155.24966575,[ 271  672 1073 1474],[ 571  972 1373 1774],571,1.323069602447176,-0.4288120879979556,-1.8185267247716688,0.4288120879979556,Landing,"[ 1.1072137e-06-1.2456154e-06j  4.1520514e-07-8.3041027e-07j
 -2.0760257e-07-1.1072137e-06j ... -6.7503359e-03-2.2287756e-01j
 -1.4276380e-02+1.8712576e-01j  5.7670609e-03+1.2387483e-01j]",True,0,0,0,0,0,UAV,35.727406,-78.69628,89.959,-0.0744868144392967,0.0732137411832809,-0.0688830092549324,3.39,-3.31,-0.03,0,4.738048121325912,"                                  0
time     2023-12-15 16:37:08.691937
type                            UAV
lat                       35.727404
lon                      -78.696278
alt                          89.959
pitch                     -0.074487
yaw                        0.073214
roll                      -0.068883
vel_x                          3.39
vel_y                         -3.31
vel_z                         -0.03
heading                           0
speed                      4.738048",77.93643594054154,78.16840602149855
0,67.0,3620,85.1806,34.28071,77.978,ZC,True,[-6.95415235 -6.54406996 -6.22542511 -8.30782656],-7.0078683,[-6.23887228 -6.38528562 -6.23961889 -5.42031448],-6.071022817612542,-176.16756,[77.58246496 77.17238256 76.85373772 78.93613916],77.6361810992704,155.24966575,[ 271  672 1073 1474],[ 571  972 1373 1774],571,1.3530693481888758,-0.4343518517502756,-1.788527075849592,0.4343518517502756,Landing,"[-1.3840172e-06-1.1072137e-06j  0.0000000e+00+3.4600430e-07j
  1.3840172e-07-2.0760258e-06j ...  6.0948655e-02-8.7279335e-02j
 -3.9706618e-01-5.7445537e-02j  6.8636402e-02+5.3620320e-02j]",True,0,0,0,0,0,UAV,35.727413,-78.69629,89.978,-0.0572593994438648,0.0735759064555168,-0.044033084064722,3.45,-3.38,-0.02,0,4.829834365689988,"                                  0
time     2023-12-15 16:37:09.094151
type                            UAV
lat                       35.727412
lon                      -78.696287
alt                          89.978
pitch                     -0.057259
yaw                        0.073576
roll                      -0.044033
vel_x                          3.45
vel_y                         -3.38
vel_z                         -0.02
heading                           0
speed                      4.829834",77.79480532159509,78.06196103705292
0,67.4,3620,85.76066,35.66267,77.994,ZC,True,[-13.68230717 -13.0001905  -12.63619844 -13.17540906],-13.123527,[-7.74128077 -7.14753785 -7.53865623 -6.9871646 ],-7.353659861938755,117.36904,[84.31061977 83.6285031  83.26451104 83.80372166],83.75183889338362,139.1893555,[ 268  669 1070 1471],[ 568  969 1370 1771],568,1.4094362268525404,-0.444886080379381,-1.7321603918443729,0.444886080379381,Takeoff,"[-6.9200860e-07-5.5360687e-07j  7.6120944e-07-6.2280770e-07j
 -2.7680343e-07+2.7680343e-07j ... -2.0144197e-01-1.2662207e-01j
 -3.5213411e-02-2.8545460e-01j  6.0364291e-02+2.3010392e-02j]",True,0,0,0,0,0,UAV,35.72743,-78.696304,89.994,-0.0538735277950763,0.074502095580101,-0.0258638318628072,3.45,-3.39,0.03,0,4.836889496360239,"                                  0
time     2023-12-15 16:37:09.496198
type                            UAV
lat                       35.727427
lon                      -78.696307
alt                          89.994
pitch                     -0.053874
yaw                        0.074502
roll                      -0.025864
vel_x                          3.45
vel_y                         -3.39
vel_z                          0.03
heading                           0
speed                      4.836889",78.32179186815797,79.19993660831906
0,67.8,3620,86.056046,36.378002,77.989,ZC,True,[ -9.87344263  -9.41525551  -8.69425226 -11.41678189],-9.849933,[-8.18190144 -7.93907556 -8.01764531 -7.35706969],-7.87392300163175,109.98023,[80.50175524 80.04356812 79.32256486 82.0450945 ],80.47824567892226,155.24966575,[ 271  672 1073 1474],[ 571  972 1373 1774],571,1.4363756340350158,-0.4500927273833707,-1.7052210804624284,0.4500927273833707,Takeoff,"[ 0.0000000e+00-7.6120944e-07j -4.1520514e-07+3.4600430e-07j
 -7.6120944e-07-6.9200858e-08j ... -6.6370644e-02-9.1807775e-02j
 -2.0223875e-01-6.1161637e-02j -3.1160247e-02-2.8321281e-02j]",True,0,0,0,0,0,UAV,35.727436,-78.69632,89.989,-0.0551186092197895,0.0743693113327026,-0.0302690733224153,3.46,-3.38,0.04,0,4.83710657314887,"                                  0
time     2023-12-15 16:37:09.898137
type                            UAV
lat                       35.727435
lon                      -78.696316
alt                          89.989
pitch                     -0.055119
yaw                        0.074369
roll                      -0.030269
vel_x                          3.46
vel_y                         -3.38
vel_z                          0.04
heading                           0
speed                      4.837107",78.61356147740912,79.4555984224397
0,68.2,3620,86.64133,37.834534,77.944,ZC,True,[-10.83549325 -10.22570413 -10.04320234 -11.40826705],-10.628167,[-9.13322699 -8.17401081 -8.28181297 -7.89716652],-8.371554320706586,163.18456,[81.46380585 80.85401673 80.67151494 82.03657966],81.25647929560803,139.1893555,[ 268  669 1070 1471],[ 568  969 1370 1771],568,1.4881808286772376,-0.4604926719039462,-1.6534160723255886,0.4604926719039462,Takeoff,"[ 1.3840172e-07-2.8372351e-06j  4.8440603e-07-6.9200860e-07j
 -6.9200860e-07-2.7680343e-07j ... -2.4215093e-01+1.0958043e-01j
 -2.3333286e-01+2.4552464e-01j  1.2176832e-01-1.4529815e-01j]",True,0,0,0,0,0,UAV,35.72745,-78.696335,89.944,-0.0553245469927787,0.0742034837603569,-0.0356061272323131,3.53,-3.34,0.06,0,4.860051440056988,"                                  0
time     2023-12-15 16:37:10.300285
type                            UAV
lat                       35.727451
lon                      -78.696334
alt                          89.944
pitch                     -0.055325
yaw                        0.074203
roll                      -0.035606
vel_x                          3.53
vel_y                         -3.34
vel_z                          0.06
heading                           0
speed                      4.860051",78.97361057671614,79.81577459707337
0,68.6,3620,86.97606,38.59289,77.945,ZC,True,[-6.90717714 -6.39123455 -6.06043846 -8.28299441],-6.910461,[-7.86820598 -7.8905345  -7.99376587 -7.10743272],-7.714984766491112,-366.63583,[77.53548974 77.01954716 76.68875107 78.91130702],77.53877374690066,139.1893555,[ 268  669 1070 1471],[ 568  969 1370 1771],568,1.5131518881484274,-0.4656982407873596,-1.6284451055975513,0.4656982407873596,Flight,"[-6.9200860e-07+1.3840172e-07j -1.3840172e-07-2.7680343e-07j
  1.7300215e-07+3.1140385e-07j ...  1.7789963e-01-2.4795270e-01j
  1.9110361e-01-1.4779383e-01j -1.8280479e-01+1.7499191e-01j]",True,0,0,0,0,0,UAV,35.72746,-78.69634,89.945,-0.0540221147239208,0.0740213766694068,-0.0385457500815391,3.58,-3.34,0.0,0,4.896120913539615,"                                  0
time     2023-12-15 16:37:10.501397
type                            UAV
lat                       35.727459
lon                      -78.696343
alt                          89.945
pitch                     -0.054022
yaw                        0.074021
roll                      -0.038546
vel_x                          3.58
vel_y                         -3.34
vel_z                           0.0
heading                           0
speed                      4.896121",78.94095749318302,79.36037442703883
0,69.0,3620,87.355415,39.38305,77.974,ZC,True,[-10.31306185  -9.57296426  -8.98069615 -11.15509798],-10.005455,[-7.23468158 -7.83785083 -8.15877216 -7.36433004],-7.648908654848224,197.96312,[80.94137446 80.20127687 79.60900876 81.78341059],80.63376766603996,144.54279225,[ 269  670 1071 1472],[ 569  970 1371 1772],569,1.5374354947914683,-0.4708611761745339,-1.6041615927168378,0.4708611761745339,Flight,"[ 0.0000000e+00+4.1520514e-07j -4.1520514e-07-1.1764146e-06j
 -4.1520514e-07-3.4600429e-08j ...  3.2873592e-01+3.1320956e-01j
 -4.2178925e-02-1.9063590e-02j -8.4047489e-02-7.3886037e-02j]",True,0,0,0,0,0,UAV,35.727467,-78.69635,89.974,-0.0529477074742317,0.0738940685987472,-0.0436594747006893,3.61,-3.35,-0.01,0,4.924906090475228,"                                  0
time     2023-12-15 16:37:10.905351
type                            UAV
lat                       35.727467
lon                      -78.696353
alt                          89.974
pitch                     -0.052948
yaw                        0.073894
roll                      -0.043659
vel_x                          3.61
vel_y                         -3.35
vel_z                         -0.01
heading                           0
speed                      4.924906",79.39746014146183,79.61505307483907
0,69.4,3620,88.160126,41.038418,78.026,ZC,True,[-11.7109533  -10.87736081  -9.77477168 -11.70664593],-11.017433,[-7.40464539 -7.80989848 -7.9228644  -7.22758481],-7.591248269883176,-496.8553,[82.33926591 81.50567342 80.40308429 82.33495854],81.6457455368905,139.1893555,[ 268  669 1070 1471],[ 568  969 1370 1771],568,1.583938806549889,-0.4809702638350785,-1.557658469502296,0.4809702638350785,Takeoff,"[ 6.9200860e-07+3.8060472e-07j -1.3840172e-07-1.0380129e-06j
 -6.9200858e-08-1.3840172e-07j ...  4.7208694e-01-2.6024351e-01j
  5.5617977e-02-3.4423414e-01j -1.6653922e-01+2.1964148e-01j]",True,0,0,0,0,0,UAV,35.72748,-78.69637,90.026,-0.0511018745601177,0.0739613622426986,-0.0473875142633914,3.7,-3.41,0.03,0,5.031798883103338,"                                  0
time     2023-12-15 16:37:11.307588
type                            UAV
lat                       35.727484
lon                      -78.696371
alt                          90.026
pitch                     -0.051102
yaw                        0.073961
roll                      -0.047388
vel_x                           3.7
vel_y                         -3.41
vel_z                          0.03
heading                           0
speed                      5.031799",79.76903503814576,80.02119156724936
0,69.8,3620,89.00963,42.82197,78.032,ZC,True,[-14.15218536 -13.0589259  -12.35142847 -12.91892316],-13.120366,[-9.30676376 -9.77521863 -9.80394282 -9.36969007],-9.563903819656352,-993.93854,[84.78049797 83.6872385  82.97974107 83.54723576],83.74867832431264,149.896229,[ 270  671 1072 1473],[ 570  971 1372 1773],570,1.6272099393709574,-0.4905072090538394,-1.514387530320952,0.4905072090538394,Takeoff,"[ 2.4220301e-07+1.3840172e-07j  5.5360687e-07-2.7680343e-07j
 -6.9200860e-07-5.5360687e-07j ...  2.9488209e-01-4.3994424e-01j
  2.3289348e-01-2.5774440e-01j -1.2768933e-01+2.4002782e-01j]",True,0,0,0,0,0,UAV,35.7275,-78.69639,90.032,-0.0456439331173896,0.073243424296379,-0.0427991710603237,3.73,-3.48,0.1,0,5.102283802377127,"                                  0
time     2023-12-15 16:37:11.709680
type                            UAV
lat                       35.727501
lon                       -78.69639
alt                          90.032
pitch                     -0.045644
yaw                        0.073243
roll                      -0.042799
vel_x                          3.73
vel_y                         -3.48
vel_z                           0.1
heading                           0
speed                      5.102284",80.42661829307148,80.76668891866203
0,70.2,3620,89.46526,43.752262,78.037,ZC,True,[ -7.86688955  -7.5336242  -10.82028407],-8.740266,[-9.38477113 -9.45664583 -8.18258413],-9.008000364355398,411.58347,[78.49520216 78.16193681 81.44859667],79.36857854522589,2307.33123925,[ 673 1074 1475],[ 973 1374 1775],973,1.6478667765799853,-0.4951551118556116,-1.4937307909509765,0.4951551118556116,Takeoff,"[-5.53606867e-07+2.4220301e-07j -8.30410272e-07+2.0760257e-07j
  1.03801284e-07+2.7680343e-07j ... -2.80419171e-01-3.6970302e-01j
 -2.08046287e-01+2.1834175e-01j  2.50740707e-01+5.9662003e-02j]",True,0,0,0,0,0,UAV,35.72751,-78.6964,90.037,-0.0429076105356216,0.0732453539967536,-0.0417456701397895,3.74,-3.47,0.08,0,5.102440592500808,"                                  0
time     2023-12-15 16:37:12.111753
type                            UAV
lat                       35.727509
lon                        -78.6964
alt                          90.037
pitch                     -0.042908
yaw                        0.073245
roll                      -0.041746
vel_x                          3.74
vel_y                         -3.47
vel_z                          0.08
heading                           0
speed                      5.102441",80.76734012332597,80.4870668439748
0,70.6,3620,90.43548,45.674374,78.054,ZC,True,[-9.40184657 -8.69850232 -8.17772429 -9.81526288],-9.023334,[-8.17463238 -7.98063074 -7.86464262 -7.58169056],-7.90039907528822,-667.7376,[80.03015918 79.32681492 78.8060369  80.44357549],79.65164662117033,149.896229,[ 270  671 1072 1473],[ 570  971 1372 1773],570,1.6865920581714953,-0.5040009616037477,-1.455005706056784,0.5040009616037477,Takeoff,"[ 4.8440603e-07-2.0760257e-07j -8.6501075e-07+5.5360687e-07j
  4.1520514e-07+5.5360687e-07j ...  4.3413159e-02-2.3579514e-01j
  1.9549730e-01-1.2837110e-01j  1.2203571e-03+2.7716854e-01j]",True,0,0,0,0,0,UAV,35.727528,-78.69642,90.054,-0.0385081619024276,0.0743211656808853,-0.0408178903162479,3.76,-3.53,0.11,0,5.158546306858163,"                                  0
time     2023-12-15 16:37:12.513809
type                            UAV
lat                       35.727526
lon                      -78.696419
alt                          90.054
pitch                     -0.038508
yaw                        0.074321
roll                      -0.040818
vel_x                          3.76
vel_y                         -3.53
vel_z                          0.11
heading                           0
speed                      5.158546",80.57099354077243,80.3199827994139
0,71.0,3620,90.925354,46.653557,78.044,ZC,True,[-14.10162162 -12.82430337 -12.94137158 -12.87784558],-13.186286,[-8.31647951 -8.55994323 -9.17964912 -7.7492868 ],-8.451339663741702,-248.19286,[84.72993422 83.45261597 83.56968419 83.50615818],83.81459814089473,149.896229,[ 270  671 1072 1473],[ 570  971 1372 1773],570,1.7045219691905336,-0.5081328115788254,-1.4370758928768532,0.5081328115788254,Takeoff,"[ 8.3041027e-07-1.38401717e-07j -1.3148164e-06-3.46004292e-08j
 -8.3041027e-07-2.76803434e-07j ... -1.3688304e-01+4.54136312e-01j
  2.9096207e-01-1.07579656e-01j -1.5948908e-01-9.03339684e-02j]",True,0,0,0,0,0,UAV,35.727535,-78.69643,90.044,-0.0340683870017528,0.0732257887721061,-0.0388684161007404,3.73,-3.51,0.1,0,5.122792207380658,"                                  0
time     2023-12-15 16:37:12.915875
type                            UAV
lat                       35.727535
lon                      -78.696429
alt                          90.044
pitch                     -0.034068
yaw                        0.073226
roll                      -0.038868
vel_x                          3.73
vel_y                         -3.51
vel_z                           0.1
heading                           0
speed                      5.122792",81.18883524493486,81.01890586771009
0,71.4,3620,91.94862,48.673866,78.009,ZC,True,[-11.61880909 -11.06843959 -10.56629983 -11.97255526],-11.306526,[-7.47736333 -8.1007413  -8.3252411  -7.71411603],-7.904365442132029,150.52957,[82.24712169 81.6967522  81.19461244 82.60086786],81.9348385467051,149.896229,[ 270  671 1072 1473],[ 570  971 1372 1773],570,1.7383529697576825,-0.5160077533531404,-1.4032450900262907,0.5160077533531404,Takeoff,"[-4.8440603e-07+1.7300215e-07j -2.7680343e-07-4.1520514e-07j
  1.5224189e-06+1.3494167e-06j ...  3.2830063e-02+7.3251255e-02j
  2.5785047e-01+5.8130868e-02j -6.2961087e-02-3.1280518e-02j]",True,0,0,0,0,0,UAV,35.72755,-78.69645,90.009,-0.030839517712593,0.0724652707576751,-0.035792987793684,3.7,-3.53,0.1,0,5.114772722223345,"                                  0
time     2023-12-15 16:37:13.317857
type                            UAV
lat                       35.727552
lon                      -78.696448
alt                          90.009
pitch                      -0.03084
yaw                        0.072465
roll                      -0.035793
vel_x                           3.7
vel_y                         -3.53
vel_z                           0.1
heading                           0
speed                      5.114773",81.00713521026702,81.2020924035091
0,71.8,3620,93.04837,50.729984,78.003,ZC,True,[-3.10960581 -2.71208545 -2.63069883 -5.76230604],-3.553674,[-8.2731229  -7.74143817 -8.07198756 -6.90947319],-7.74900545441212,-1355.6927,[73.73791842 73.34039806 73.25901143 76.39061864],74.18198663818823,149.896229,[ 270  671 1072 1473],[ 570  971 1372 1773],570,1.768847054247509,-0.5232036804213842,-1.3727512022339594,0.5232036804213842,Takeoff,"[-8.30410272e-07+2.7680343e-07j -1.66082054e-06+5.5360687e-07j
 -2.76803434e-07+1.2802159e-06j ... -1.06220275e-01+3.1990379e-02j
  5.22377230e-02+2.3803622e-01j -3.97644751e-02-4.9683794e-02j]",True,0,0,0,0,0,UAV,35.72757,-78.696465,90.003,-0.0271484963595867,0.0719155594706535,-0.0370052829384803,3.66,-3.52,0.08,0,5.078621860308169,"                                  0
time     2023-12-15 16:37:13.723618
type                            UAV
lat                       35.727569
lon                      -78.696467
alt                          90.003
pitch                     -0.027148
yaw                        0.071916
roll                      -0.037005
vel_x                          3.66
vel_y                         -3.52
vel_z                          0.08
heading                           0
speed                      5.078622",80.3775093061936,79.79807125044493
0,72.2,3620,93.60735,51.77676,77.984,ZC,True,[ 0.05207878  0.10704986  0.25486192 -1.62894513],-0.30373865,[-6.40371125 -6.98110031 -6.66553701 -6.026742  ],-6.519272641224925,197.46207,[70.57623382 70.52126274 70.37345068 72.25725774],70.93205124633425,155.24966575,[ 271  672 1073 1474],[ 571  972 1373 1774],571,1.782951323043667,-0.5265274431406698,-1.358647032296148,0.5265274431406698,Takeoff,"[ 1.5916197e-06-5.5360687e-07j  5.5360687e-07-2.4220301e-07j
 -1.9376241e-06-7.9580985e-07j ...  2.8928101e-01+2.1222560e-01j
  4.1344661e-01-3.2189789e-01j -2.4741369e-01-6.5097526e-02j]",True,0,0,0,0,0,UAV,35.727577,-78.69648,89.984,-0.0266839731484651,0.0723780989646911,-0.0380209349095821,3.62,-3.52,0.06,0,5.049594043089008,"                                  0
time     2023-12-15 16:37:14.127873
type                            UAV
lat                       35.727577
lon                      -78.696477
alt                          89.984
pitch                     -0.026684
yaw                        0.072378
roll                      -0.038021
vel_x                          3.62
vel_y                         -3.52
vel_z                          0.06
heading                           0
speed                      5.049594",79.34506650126623,78.0248672496228
0,72.6,3620,94.80129,53.908188,77.982,ZC,True,[-5.49723808 -4.94283454 -4.64892457 -7.54948333],-5.6596203,[-7.3177928  -7.56483831 -7.40001538 -6.55018632],-7.208208198822469,-214.33939,[76.12555068 75.57114715 75.27723717 78.17779594],76.2879327339954,155.24966575,[ 271  672 1073 1474],[ 571  972 1373 1774],571,1.8094636956555183,-0.5328334456656161,-1.3321348584202035,0.5328334456656161,Takeoff,"[ 9.688121e-07+1.3840172e-07j  6.920086e-07+0.0000000e+00j
 -6.920086e-08+4.1520514e-07j ... -2.656463e-01+4.2132637e-01j
 -7.944089e-02+2.5209329e-01j  6.851397e-02-2.1381254e-01j]",True,0,0,0,0,0,UAV,35.727592,-78.696495,89.982,-0.030471371486783,0.0715536847710609,-0.0361489914357662,3.59,-3.54,0.04,0,5.041953986303326,"                                  0
time     2023-12-15 16:37:14.530481
type                            UAV
lat                       35.727594
lon                      -78.696496
alt                          89.982
pitch                     -0.030471
yaw                        0.071554
roll                      -0.036149
vel_x                          3.59
vel_y                         -3.54
vel_z                          0.04
heading                           0
speed                      5.041954",79.21998239997569,77.67748034649733
0,73.0,3620,95.424934,54.986156,77.99,ZC,True,[-3.42982257 -3.72411768 -3.72072412 -5.84643602],-4.180275,[-8.02460432 -7.74573371 -7.69469116 -6.7239383 ],-7.547241870150383,-244.21614,[74.05813517 74.35243028 74.34903672 76.47474862],74.80858769988788,171.30997599999998,[ 274  675 1076 1477],[ 574  975 1376 1777],574,1.8215334074141056,-0.535688283735155,-1.3200652465391611,0.535688283735155,Takeoff,"[ 5.5360687e-07+1.3840172e-07j  8.3041027e-07+0.0000000e+00j
  2.7680343e-07+1.0380129e-06j ...  1.1149300e-01-1.8621865e-01j
  1.6596289e-01+2.4053198e-01j -6.0274500e-02+1.5045789e-02j]",True,0,0,0,0,0,UAV,35.7276,-78.6965,89.99,-0.0300662294030189,0.0716103315353393,-0.035758689045906,3.56,-3.53,0.03,0,5.013521716318779,"                                  0
time     2023-12-15 16:37:14.933010
type                            UAV
lat                       35.727602
lon                      -78.696506
alt                           89.99
pitch                     -0.030066
yaw                         0.07161
roll                      -0.035759
vel_x                          3.56
vel_y                         -3.53
vel_z                          0.03
heading                           0
speed                      5.013522",78.6374644033605,77.10370181717545
0,73.4,3620,96.6735,57.144627,77.976,ZC,True,[-7.93729276 -7.73347859 -7.30309524 -8.29224479],-7.816528,[-6.08789315 -5.8130756  -6.27643343 -5.91331373],-6.022678979160597,252.77022,[78.56560537 78.3617912  77.93140784 78.9205574 ],78.44484045027909,155.24966575,[ 271  672 1073 1474],[ 571  972 1373 1774],571,1.8448012561448304,-0.5412571710787191,-1.296797594506142,0.5412571710787191,Takeoff,"[-1.38401717e-07+6.9200860e-07j -6.92008598e-07+8.9961117e-07j
 -1.03801284e-07-1.5916197e-06j ...  4.92314965e-01-1.1070068e-01j
  1.46799520e-01-5.6054804e-02j -2.05574647e-01+8.7985590e-02j]",True,0,0,0,0,0,UAV,35.72762,-78.696526,89.976,-0.0305249784141778,0.072303257882595,-0.0374811254441738,3.56,-3.54,0.08,0,5.021115413929459,"                                  0
time     2023-12-15 16:37:15.337005
type                            UAV
lat                       35.727618
lon                      -78.696526
alt                          89.976
pitch                     -0.030525
yaw                        0.072303
roll                      -0.037481
vel_x                          3.56
vel_y                         -3.54
vel_z                          0.08
heading                           0
speed                      5.021115",78.31737389469934,77.37192954379618
0,73.8,3620,97.95885,59.322083,77.954,ZC,True,[-1.69112919 -1.57877013 -1.35331656 -3.68664752],-2.0774658,[-9.7878845  -9.14004767 -9.44157963 -8.2946491 ],-9.166040223893573,-1196.6218,[72.31944179 72.20708273 71.98162916 74.31496013],72.70577845356237,160.60310249999998,[ 272  673 1074 1475],[ 572  973 1374 1775],572,1.8658278618382536,-0.5462447369238302,-1.275771185510479,0.5462447369238302,Takeoff,"[-2.0760257e-07+4.1520514e-07j  8.3041027e-07-5.5360687e-07j
  1.0380129e-06-5.5360687e-07j ...  6.1603844e-01-2.6844126e-01j
 -6.1556827e-02+2.6548889e-01j -2.3639643e-01+1.8676689e-02j]",True,0,0,0,0,0,UAV,35.727634,-78.69655,89.954,-0.0307831354439258,0.0720301419496536,-0.036167275160551,3.52,-3.53,0.06,0,4.985468884668722,"                                  0
time     2023-12-15 16:37:15.739887
type                            UAV
lat                       35.727634
lon                      -78.696545
alt                          89.954
pitch                     -0.030783
yaw                         0.07203
roll                      -0.036167
vel_x                          3.52
vel_y                         -3.53
vel_z                          0.06
heading                           0
speed                      4.985469",77.21308390762434,76.43869932574943
0,74.2,3620,98.63008,60.422764,77.955,ZC,True,[-3.03932526 -2.87144384 -2.31194824 -4.87939546],-3.2755282,[-6.19442034 -6.18243258 -6.37243702 -5.41691289],-6.041550705911888,105.70968,[73.66763786 73.49975644 72.94026084 75.50770807],73.90384080285114,160.60310249999998,[ 272  673 1074 1475],[ 572  973 1374 1775],572,1.8756605952821752,-0.5485682131291,-1.2659385509250394,0.5485682131291,Takeoff,"[-2.7680343e-07-9.3421158e-07j -8.3041027e-07+6.9200858e-08j
  8.3041027e-07-7.6120944e-07j ...  1.3427912e-01-2.5155440e-01j
  2.9018867e-01+1.3381688e-01j -1.7282654e-01+9.4333470e-02j]",True,0,0,0,0,0,UAV,35.727642,-78.696556,89.955,-0.0324899367988109,0.0724624469876289,-0.0354274734854698,3.51,-3.54,0.05,0,4.985398680145852,"                                  0
time     2023-12-15 16:37:16.142346
type                            UAV
lat                       35.727642
lon                      -78.696555
alt                          89.955
pitch                      -0.03249
yaw                        0.072462
roll                      -0.035427
vel_x                          3.51
vel_y                         -3.54
vel_z                          0.05
heading                           0
speed                      4.985399",76.66661013338685,75.93172762116977
0,74.6,3620,100.013,62.62862,77.976,ZC,True,[-7.06219147 -6.34065899 -6.19326962 -9.32129954],-7.229355,[-6.7711526  -6.87027097 -6.77094666 -5.83198593],-6.561089042563772,-17.469477,[77.69050408 76.96897159 76.82158222 79.94961215],77.85766751001567,160.60310249999998,[ 272  673 1074 1475],[ 572  973 1374 1775],572,1.8941629348871667,-0.5529363507947955,-1.2474364080179072,0.5529363507947955,Flight,"[ 2.7680343e-07-1.1764146e-06j  2.0760257e-07+2.7680343e-07j
 -3.4600430e-07+2.0760257e-07j ... -3.2710359e-01-1.6372868e-01j
 -8.2011007e-02-1.9184026e-01j  2.1378157e-01+6.8056069e-02j]",True,0,0,0,0,0,UAV,35.727657,-78.69657,89.976,-0.0342170484364032,0.0715050175786018,-0.036581315100193,3.48,-3.49,0.01,0,4.928549482352794,"                                  0
time     2023-12-15 16:37:16.545667
type                            UAV
lat                       35.727658
lon                      -78.696574
alt                          89.976
pitch                     -0.034217
yaw                        0.071505
roll                      -0.036581
vel_x                          3.48
vel_y                         -3.49
vel_z                          0.01
heading                           0
speed                      4.928549",76.48721222227138,76.31691559893896
0,75.0,3620,101.434814,64.85816,77.99,ZC,True,[-8.1132407  -7.77702909 -7.57643019 -9.10180848],-8.142127,[-6.53550697 -6.63001415 -6.784829   -5.92532859],-6.468919678872066,-865.989,[78.7415533  78.40534169 78.20474279 79.73012109],78.77043971915245,160.60310249999998,[ 272  673 1074 1475],[ 572  973 1374 1775],572,1.911562080120838,-0.5570254512614203,-1.2300374594821797,0.5570254512614203,Takeoff,"[-1.3840172e-07-8.3041027e-07j  5.5360687e-07+2.7680343e-07j
  1.0380129e-06-4.1520514e-07j ...  1.3912615e-01-2.5940219e-02j
  1.6869242e-01+2.1576199e-01j -1.6403756e-01-6.8048663e-03j]",True,0,0,0,0,0,UAV,35.727673,-78.696594,89.99,-0.0333275645971298,0.0713623911142349,-0.0365764200687408,3.5,-3.5,0.04,0,4.949909090074281,"                                  0
time     2023-12-15 16:37:16.948429
type                            UAV
lat                       35.727674
lon                      -78.696593
alt                           89.99
pitch                     -0.033328
yaw                        0.071362
roll                      -0.036576
vel_x                           3.5
vel_y                          -3.5
vel_z                          0.04
heading                           0
speed                      4.949909",75.98279638009716,76.80762042298166
0,75.4,3620,102.14288,65.97188,77.98,ZC,True,[-4.58988429 -4.27234774 -3.96470692 -6.60584292],-4.8581953,[-8.04088668 -7.40939503 -7.30136924 -6.59578705],-7.336859503191349,201.80501,[75.2181969  74.90066034 74.59301953 77.23415552],75.48650807381063,165.95653925,[ 273  674 1075 1476],[ 573  974 1375 1776],573,1.9196848631024055,-0.5588987749776905,-1.2219147743400265,0.5588987749776905,Takeoff,"[-8.3041027e-07-2.7680343e-07j  2.0760257e-07+6.2280770e-07j
  1.1072137e-06+9.6881206e-07j ...  3.8260934e-01+5.6216484e-01j
 -7.1572237e-02+3.4406945e-02j -1.7236786e-01-2.6874459e-01j]",True,0,0,0,0,0,UAV,35.72768,-78.6966,89.98,-0.0352161191403865,0.0714883506298065,-0.0339955165982246,3.48,-3.5,0.05,0,4.935878847783847,"                                  0
time     2023-12-15 16:37:17.350422
type                            UAV
lat                       35.727682
lon                      -78.696603
alt                           89.98
pitch                     -0.035216
yaw                        0.071488
roll                      -0.033996
vel_x                          3.48
vel_y                          -3.5
vel_z                          0.05
heading                           0
speed                      4.935879",75.3379633328077,76.54339795314746
0,75.8,3620,103.606224,68.22018,77.976,ZC,True,[-4.8279288  -4.38797171 -4.02300073 -6.13718681],-4.844022,[-5.65499547 -5.38384855 -5.46089057 -4.9820192 ],-5.370438446791706,-38.100643,[75.4562414  75.01628432 74.65131334 76.76549941],75.47233461625686,165.95653925,[ 273  674 1075 1476],[ 573  974 1375 1776],573,1.9350849277837157,-0.56241465774903,-1.206514906356757,0.56241465774903,Takeoff,"[-5.5360687e-07+6.9200858e-08j  2.7680343e-07-4.1520514e-07j
  5.5360687e-07+8.3041027e-07j ... -3.2894301e-01+3.2089600e-01j
 -2.5230356e-02-3.1483967e-02j  1.6956110e-01-1.4844111e-01j]",True,0,0,0,0,0,UAV,35.7277,-78.696625,89.976,-0.0380457043647766,0.0725806504487991,-0.0340813882648944,3.51,-3.5,0.04,0,4.956984970725652,"                                  0
time     2023-12-15 16:37:17.752591
type                            UAV
lat                       35.727698
lon                      -78.696622
alt                          89.976
pitch                     -0.038046
yaw                        0.072581
roll                      -0.034081
vel_x                          3.51
vel_y                          -3.5
vel_z                          0.04
heading                           0
speed                      4.956985",75.46699813061458,76.32918528576934
0,76.2,3620,104.36104,69.349915,77.986,ZC,True,[-4.9170978  -4.85087809 -4.38115452 -6.83443124],-5.2458906,[-6.88322632 -6.67058911 -6.70221141 -5.81948162],-6.518877114971572,-15.24179,[75.5454104  75.4791907  75.00946713 77.46274385],75.87420301760336,165.95653925,[ 273  674 1075 1476],[ 573  974 1375 1776],573,1.942582407653332,-0.5641392467583136,-1.1990175243266217,0.5641392467583136,Takeoff,"[-1.03801284e-07+5.5360687e-07j -8.30410272e-07+0.0000000e+00j
 -1.73002149e-07+9.6881206e-07j ...  1.55938551e-01-4.7532685e-02j
 -1.51937408e-02-2.5099151e-02j -5.29490039e-02+1.4719217e-01j]",True,0,0,0,0,0,UAV,35.727707,-78.69663,89.986,-0.036769438534975,0.0725390389561653,-0.0343154706060886,3.52,-3.5,0.03,0,4.96400040290087,"                                  0
time     2023-12-15 16:37:18.156519
type                            UAV
lat                       35.727706
lon                      -78.696632
alt                          89.986
pitch                     -0.036769
yaw                        0.072539
roll                      -0.034315
vel_x                          3.52
vel_y                          -3.5
vel_z                          0.03
heading                           0
speed                         4.964",75.96121330774149,76.23818883213615
0,76.6,3620,105.87908,71.62053,77.98,ZC,True,[-6.4687937  -5.68477069 -5.69725804 -6.41799776],-6.067205,[-8.13703757 -8.24814689 -8.12347677 -8.44513488],-8.238449026749741,660.09796,[77.0971063  76.3130833  76.32557064 77.04631037],76.69551765322201,165.95653925,[ 273  674 1075 1476],[ 573  974 1375 1776],573,1.956865804984521,-0.5673655981548886,-1.1847343226744491,0.5673655981548886,Takeoff,"[ 9.8611224e-07-1.2456154e-06j -8.9961117e-07-1.3840172e-07j
 -7.2660902e-07-8.9961117e-07j ...  2.6846138e-01+8.8499598e-03j
 -3.1914362e-01+1.6580771e-01j -1.3208416e-01-5.3683273e-02j]",True,0,0,0,0,0,UAV,35.727722,-78.69665,89.98,-0.035857867449522,0.0726768001914024,-0.0386611148715019,3.51,-3.48,0.04,0,4.94288377366897,"                                  0
time     2023-12-15 16:37:18.558866
type                            UAV
lat                       35.727722
lon                      -78.696651
alt                           89.98
pitch                     -0.035858
yaw                        0.072677
roll                      -0.038661
vel_x                          3.51
vel_y                         -3.48
vel_z                          0.04
heading                           0
speed                      4.942884",76.00197179966415,76.32965459635332
0,77.0,3620,107.432976,73.896225,77.982,ZC,True,[-6.32149172 -5.98466888 -5.97840625 -7.63700721],-6.4803934,[-6.83225732 -7.15527869 -7.14011139 -6.71714525],-6.961198162104578,-396.37073,[76.94980433 76.61298148 76.60671886 78.26531981],77.1087061190328,171.30997599999998,[ 274  675 1076 1477],[ 574  975 1376 1777],574,1.9699921806041325,-0.5702479776824665,-1.1716081427339131,0.5702479776824665,Takeoff,"[-2.7680343e-07+7.6120944e-07j  4.1520514e-07+1.5224189e-06j
 -8.3041027e-07-1.3840172e-07j ...  3.5118157e-01-1.8047714e-01j
 -1.0899135e-02-2.5809342e-01j -2.0255189e-01+3.0823136e-02j]",True,0,0,0,0,0,UAV,35.727737,-78.69667,89.982,-0.0385662727057933,0.0730037093162536,-0.0352398976683616,3.53,-3.48,0.04,0,4.957106010567053,"                                  0
time     2023-12-15 16:37:18.960969
type                            UAV
lat                       35.727738
lon                       -78.69667
alt                          89.982
pitch                     -0.038566
yaw                        0.073004
roll                       -0.03524
vel_x                          3.53
vel_y                         -3.48
vel_z                          0.04
heading                           0
speed                      4.957106",76.23198364157864,76.48546490088923
0,77.4,3620,108.227135,75.04301,77.985,ZC,True,[-4.3841955  -4.12210231 -3.79030987 -5.36413772],-4.4151864,[-7.3924704  -7.28053562 -7.24206643 -6.60565529],-7.130181934830313,-808.1044,[75.0125081  74.75041492 74.41862247 75.99245033],75.0434989544972,171.30997599999998,[ 274  675 1076 1477],[ 574  975 1376 1777],574,1.9763921375403573,-0.571648334991859,-1.1652082836372637,0.571648334991859,Landing,"[-3.4600430e-07-3.4600430e-07j  2.0760257e-07-2.7680343e-07j
  6.9200858e-08+2.7680343e-07j ... -6.3737556e-02-4.1043201e-01j
  1.9553632e-01+1.2867747e-01j -1.8370891e-02+7.7364169e-02j]",True,0,0,0,0,0,UAV,35.727745,-78.69668,89.985,-0.0398983880877494,0.0731449052691459,-0.0353123508393764,3.51,-3.46,0.02,0,4.92870165459424,"                                  0
time     2023-12-15 16:37:19.362938
type                            UAV
lat                       35.727746
lon                       -78.69668
alt                          89.985
pitch                     -0.039898
yaw                        0.073145
roll                      -0.035312
vel_x                          3.51
vel_y                         -3.46
vel_z                          0.02
heading                           0
speed                      4.928702",75.89184949200045,76.19707171161082
0,77.8,3620,109.84088,77.34915,77.988,ZC,True,[-4.47616727 -3.96213748 -4.05220475 -5.44741476],-4.484481,[-7.63205138 -7.37221783 -7.61453915 -6.77111022],-7.347479646404698,131.43918,[75.10447988 74.59045008 74.68051735 76.07572736],75.11279366815099,176.66341275,[ 275  676 1077 1478],[ 575  976 1377 1778],575,1.9884429090601727,-0.5742061409745736,-1.1531577088157994,0.5742061409745736,Landing,"[-5.8820729e-07-2.76803434e-07j  4.1520514e-07-4.15205136e-07j
 -8.6501075e-07+1.00341242e-06j ...  4.3709809e-01+1.23421736e-01j
 -1.2767787e-01+1.62732050e-01j -2.6216330e-02-2.49951202e-02j]",True,0,0,0,0,0,UAV,35.72776,-78.6967,89.988,-0.0411425977945327,0.0729433000087738,-0.0369166545569896,3.54,-3.47,0.02,0,4.957106010567053,"                                  0
time     2023-12-15 16:37:19.768660
type                            UAV
lat                       35.727762
lon                      -78.696699
alt                          89.988
pitch                     -0.041143
yaw                        0.072943
roll                      -0.036917
vel_x                          3.54
vel_y                         -3.47
vel_z                          0.02
heading                           0
speed                      4.957106",76.1325510134593,75.98021610291885
0,78.2,3620,110.67992,78.51721,78.007,ZC,True,[-2.50480684 -2.20535502 -2.16713566 -3.99354747],-2.7177112,[-4.93129759 -4.95808861 -5.10162296 -4.52787583],-4.879721243744236,-577.58264,[73.13311944 72.83366763 72.79544826 74.62186007],73.34602384981895,176.66341275,[ 275  676 1077 1478],[ 575  976 1377 1778],575,1.99437196427892,-0.5754721999610882,-1.147228752455849,0.5754721999610882,Takeoff,"[-2.7680343e-07+8.3041027e-07j -8.6501075e-07-1.0380129e-06j
 -2.0760257e-07+1.3840172e-06j ... -2.6626900e-01-1.7463391e-01j
  5.2263811e-02-1.3118434e-01j  4.8036400e-02+1.7737481e-01j]",True,0,0,0,0,0,UAV,35.727768,-78.69671,90.007,-0.0429178476333618,0.0729479417204856,-0.0366096049547195,3.57,-3.49,0.05,0,4.992744736114595,"                                  0
time     2023-12-15 16:37:20.174247
type                            UAV
lat                        35.72777
lon                      -78.696709
alt                          90.007
pitch                     -0.042918
yaw                        0.072948
roll                       -0.03661
vel_x                          3.57
vel_y                         -3.49
vel_z                          0.05
heading                           0
speed                      4.992745",76.07676931815608,75.45337765229887
0,78.6,3620,112.356094,80.84837,78.022,ZC,True,[-2.17085603 -1.91617438 -1.69816267 -4.31713213],-2.5255814,[-7.48032876 -6.94462408 -6.98982225 -6.23862519],-6.913350067154941,-40.0833,[72.79916864 72.54448698 72.32647528 74.94544474],73.15389390831267,176.66341275,[ 275  676 1077 1478],[ 575  976 1377 1778],575,2.005637902415511,-0.5778089626632771,-1.1359630110177443,0.5778089626632771,Takeoff,"[-7.2660902e-07-2.0760257e-07j  0.0000000e+00+6.9200860e-07j
 -9.6881206e-07+3.1140385e-07j ... -6.4914846e-01-5.5555642e-01j
 -4.9223125e-02-7.2427765e-02j  3.1760591e-01+2.2312073e-01j]",True,0,0,0,0,0,UAV,35.727787,-78.69673,90.022,-0.0417990311980247,0.0723099410533905,-0.0361176580190658,3.58,-3.45,0.04,0,4.971971439982334,"                                  0
time     2023-12-15 16:37:20.576367
type                            UAV
lat                       35.727786
lon                      -78.696728
alt                          90.022
pitch                     -0.041799
yaw                         0.07231
roll                      -0.036118
vel_x                          3.58
vel_y                         -3.45
vel_z                          0.04
heading                           0
speed                      4.971971",75.60639195798579,74.99348090350163
0,79.0,3620,114.04874,83.19401,78.012,ZC,True,[-4.07023241 -3.93173004 -3.7577779  -5.80298004],-4.3906803,[-6.76728442 -7.10482887 -7.14087329 -6.00633982],-6.754831597947208,-92.54221,[74.69854501 74.56004265 74.38609051 76.43129264],75.01899270196395,182.0168495,[ 276  677 1078 1479],[ 576  977 1378 1779],576,2.016391466202452,-0.5799695700049758,-1.1252096439293773,0.5799695700049758,Takeoff,"[ 1.3840172e-06+3.4600430e-07j -2.7680343e-07+1.3840172e-07j
 -8.3041027e-07+2.7680343e-07j ...  3.6036000e-01-4.0633339e-01j
  4.0091395e-01+1.6511325e-03j -2.6508486e-01+1.5573445e-01j]",True,0,0,0,0,0,UAV,35.727802,-78.69675,90.012,-0.0407532341778278,0.0721243098378181,-0.0372920557856559,3.61,-3.49,0.1,0,5.022170845361596,"                                  0
time     2023-12-15 16:37:20.978492
type                            UAV
lat                       35.727802
lon                      -78.696747
alt                          90.012
pitch                     -0.040753
yaw                        0.072124
roll                      -0.037292
vel_x                          3.61
vel_y                         -3.49
vel_z                           0.1
heading                           0
speed                      5.022171",75.23124725626694,74.9985832631941
0,79.4,3620,114.89504,84.353226,78.009,ZC,True,[-1.46984527 -1.19542827 -1.02154253 -3.15828134],-1.7112744,[-6.03208871 -6.10143617 -6.15624396 -5.46136493],-5.9377834430568095,-116.63173,[72.09815787 71.82374088 71.64985514 73.78659394],72.33958695746747,182.0168495,[ 276  677 1078 1479],[ 576  977 1378 1779],576,2.0214954161512604,-0.5809759978258322,-1.120105790801141,0.5809759978258322,Takeoff,"[ 0.0000000e+00+2.0760257e-07j  4.1520514e-07+2.0760257e-07j
 -3.8060472e-07+0.0000000e+00j ...  2.2347420e-01+4.8990804e-01j
  1.4280102e-01+8.9778014e-02j -1.6363892e-01-2.3908336e-01j]",True,0,0,0,0,0,UAV,35.72781,-78.696754,90.009,-0.0393228940665721,0.0721313804388046,-0.0350596271455287,3.63,-3.48,0.08,0,5.029284243309379,"                                  0
time     2023-12-15 16:37:21.380592
type                            UAV
lat                        35.72781
lon                      -78.696757
alt                          90.009
pitch                     -0.039323
yaw                        0.072131
roll                       -0.03506
vel_x                          3.63
vel_y                         -3.48
vel_z                          0.08
heading                           0
speed                      5.029284",74.91655514463262,74.46678400204878
0,79.8,3620,116.60113,86.68787,77.981,ZC,True,[-2.71649258 -2.5292694  -2.41683571 -4.7485134 ],-3.1027777,[-9.16142305 -8.57268767 -8.39198466 -7.38315451],-8.377312474219305,-436.8138,[73.34480519 73.157582   73.04514831 75.37682601],73.7310903773919,182.0168495,[ 276  677 1078 1479],[ 576  977 1378 1779],576,2.031522452411634,-0.5829189227585956,-1.1100789481819893,0.5829189227585956,Takeoff,"[ 1.3840172e-07+4.8440603e-07j  1.5916197e-06+4.1520514e-07j
 -3.4600430e-07-1.3840172e-07j ...  1.8163703e-02+3.0499673e-01j
 -2.7345065e-02-4.2268578e-03j  2.9695196e-02-1.3611394e-01j]",True,0,0,0,0,0,UAV,35.727825,-78.69678,89.981,-0.0375414118170738,0.0713572204113006,-0.0407548211514949,3.61,-3.47,0.07,0,5.00778394102621,"                                  0
time     2023-12-15 16:37:21.782497
type                            UAV
lat                       35.727826
lon                      -78.696776
alt                          89.981
pitch                     -0.037541
yaw                        0.071357
roll                      -0.040755
vel_x                          3.61
vel_y                         -3.47
vel_z                          0.07
heading                           0
speed                      5.007784",74.74243072074611,74.31964527711742
0,80.2,3620,117.46271,87.86641,77.955,ZC,True,[-2.95407263 -2.65805001 -2.50341928 -4.13903984],-3.0636454,[-5.61631347 -5.74285888 -5.83373314 -5.1448322 ],-5.584434421558375,184.46245,[73.58238524 73.28636262 73.13173189 74.76735245],73.69195804775103,187.37028625,[ 277  678 1079 1480],[ 577  978 1379 1780],577,2.036289676451892,-0.5837923859179677,-1.1053118219815274,0.5837923859179677,Takeoff,"[ 2.7680343e-07+3.4600430e-07j -5.5360687e-07+3.4600430e-07j
  5.5360687e-07+8.3041027e-07j ... -2.3078376e-01+1.2009083e-01j
  3.9783734e-01+1.4358279e-01j -3.6071640e-02+6.6408463e-02j]",True,0,0,0,0,0,UAV,35.727833,-78.696785,89.955,-0.0354005768895149,0.0712012499570846,-0.0406935289502143,3.59,-3.47,0.05,0,4.993145301310588,"                                  0
time     2023-12-15 16:37:22.184685
type                            UAV
lat                       35.727834
lon                      -78.696785
alt                          89.955
pitch                     -0.035401
yaw                        0.071201
roll                      -0.040694
vel_x                          3.59
vel_y                         -3.47
vel_z                          0.05
heading                           0
speed                      4.993145",74.5242062237609,74.19410783124414
0,80.6,3620,119.22547,90.22925,77.932,ZC,True,[-1.63790095 -1.65050194 -1.47055355 -3.4484266 ],-2.0518458,[-7.0126923  -7.19021604 -7.20659333 -6.26076785],-6.917567380095937,-87.26341,[72.26621356 72.27881454 72.09886616 74.07673921],72.68015836606183,187.37028625,[ 277  678 1079 1480],[ 577  978 1379 1780],577,2.0454500086544978,-0.5854440430271864,-1.0961516854585696,0.5854440430271864,Flight,"[-1.3840172e-07+9.6881206e-07j  1.3840172e-07-9.6881206e-07j
  2.7680343e-07+0.0000000e+00j ...  7.9364374e-02-2.4463587e-01j
  1.1384386e-01+5.5152979e-02j -8.9480169e-02+2.1653038e-01j]",True,0,0,0,0,0,UAV,35.72785,-78.69681,89.932,-0.0349184051156044,0.071032665669918,-0.0388025492429733,3.59,-3.46,-0.01,0,4.9859602886505225,"                                  0
time     2023-12-15 16:37:22.587748
type                            UAV
lat                       35.727851
lon                      -78.696805
alt                          89.932
pitch                     -0.034918
yaw                        0.071033
roll                      -0.038803
vel_x                          3.59
vel_y                         -3.46
vel_z                         -0.01
heading                           0
speed                       4.98596",74.12267029504488,73.89131793820768
0,81.0,3620,121.019264,92.59411,77.923,ZC,True,[-2.25928105 -2.17095215 -1.86742774 -4.27519215],-2.6432133,[-6.41029832 -6.71241581 -6.51308511 -5.77819407],-6.353498328755071,583.5802,[72.88759365 72.79926476 72.49574034 74.90350476],73.27152587766093,192.723723,[ 278  679 1080 1481],[ 578  979 1380 1781],578,2.0540360381074456,-0.5869208795582419,-1.087565851685336,0.5869208795582419,Flight,"[-2.7680343e-07+4.1520514e-07j  0.0000000e+00-1.3840172e-07j
 -6.2280770e-07+5.5360687e-07j ... -8.2235806e-02-8.4633552e-02j
  3.8616847e-02+1.4025041e-01j  9.9733643e-02-5.1759854e-02j]",True,0,0,0,0,0,UAV,35.727867,-78.69682,89.923,-0.0401325263082981,0.070374846458435,-0.0381021462380886,3.58,-3.5,0.0,0,5.006635596885397,"                                  0
time     2023-12-15 16:37:22.991513
type                            UAV
lat                       35.727867
lon                      -78.696824
alt                          89.923
pitch                     -0.040133
yaw                        0.070375
roll                      -0.038102
vel_x                          3.58
vel_y                          -3.5
vel_z                           0.0
heading                           0
speed                      5.006636",73.73895227090769,73.76735952609833
0,81.4,3620,121.93152,93.7816,77.925,ZC,True,[-2.09045473 -2.18041207 -1.82150538 -4.1580418 ],-2.5626035,[-6.19815899 -6.360816   -6.29940918 -5.45560684],-6.078497753237609,351.81143,[72.71876734 72.80872468 72.44981798 74.78635441],73.19091610153991,192.723723,[ 278  679 1080 1481],[ 578  979 1380 1781],578,2.0582187835441776,-0.5876309566289541,-1.0833832040884952,0.5876309566289541,Flight,"[ 8.3041027e-07-3.4600430e-07j -5.5360687e-07-7.2660902e-07j
 -5.1900645e-07+0.0000000e+00j ... -3.9143360e-01-3.5192287e-01j
 -7.1525440e-02+2.5899830e-01j  1.5753680e-01+1.5915416e-01j]",True,0,0,0,0,0,UAV,35.727875,-78.69683,89.925,-0.0396879129111766,0.0707949623465538,-0.0372790433466434,3.59,-3.5,0.01,0,5.013800953368611,"                                  0
time     2023-12-15 16:37:23.394389
type                            UAV
lat                       35.727875
lon                      -78.696833
alt                          89.925
pitch                     -0.039688
yaw                        0.070795
roll                      -0.037279
vel_x                          3.59
vel_y                          -3.5
vel_z                          0.01
heading                           0
speed                      5.013801",73.55369398561197,73.65207084118666
0,81.8,3620,123.78838,96.16402,77.949,ZC,True,[-6.0958365  -5.92284524 -5.62534715 -7.86315514],-6.3767962,[-6.40486378 -6.02474059 -5.84225915 -5.40328896],-5.918788118362348,-163.27638,[76.72414911 76.55115785 76.25365975 78.49146775],77.00510861452977,192.723723,[ 278  679 1080 1481],[ 578  979 1380 1781],578,2.066127779599539,-0.5889117595559206,-1.075474404732119,0.5889117595559206,Flight,"[-1.3840172e-07-5.5360687e-07j  9.6881206e-07-2.6296327e-06j
  5.5360687e-07-2.5604318e-06j ... -4.8270091e-02+2.1316141e-01j
  3.8691336e-01-5.2154887e-02j -6.1862383e-02-8.9847453e-02j]",True,0,0,0,0,0,UAV,35.72789,-78.69685,89.949,-0.0426192693412303,0.0707909911870956,-0.0390214137732982,3.6,-3.51,0.0,0,5.027931980446832,"                                  0
time     2023-12-15 16:37:23.796423
type                            UAV
lat                       35.727891
lon                      -78.696853
alt                          89.949
pitch                     -0.042619
yaw                        0.070791
roll                      -0.039021
vel_x                           3.6
vel_y                         -3.51
vel_z                           0.0
heading                           0
speed                      5.027932",73.74292548024985,74.32267839585528
0,82.2,3620,125.66624,98.552155,77.971,ZC,True,[-5.10699189 -4.82130234 -4.43833603 -6.37347781],-5.185027,[-6.83323969 -7.27145262 -7.23951969 -6.84743795],-7.047912487556536,327.22455,[75.73530449 75.44961495 75.06664864 77.00179041],75.81333962261448,198.07715975,[ 279  680 1081 1482],[ 579  980 1381 1782],579,2.073653929324407,-0.5900688530505002,-1.0679484517063134,0.5900688530505002,Flight,"[ 0.0000000e+00+2.7680343e-07j  0.0000000e+00-8.3041027e-07j
 -1.0380129e-06+0.0000000e+00j ...  1.2962966e-01-2.3600607e-01j
  3.6755535e-01-3.8979009e-01j -8.7680258e-02+2.3847149e-01j]",True,0,0,0,0,0,UAV,35.727905,-78.69687,89.971,-0.0405422486364841,0.0712610557675361,-0.038697812706232,3.61,-3.49,0.01,0,5.021185119072987,"                                  0
time     2023-12-15 16:37:24.198332
type                            UAV
lat                       35.727907
lon                      -78.696872
alt                          89.971
pitch                     -0.040542
yaw                        0.071261
roll                      -0.038698
vel_x                          3.61
vel_y                         -3.49
vel_z                          0.01
heading                           0
speed                      5.021185",73.9896570575294,74.62081064120711
0,82.6,3620,126.6005,99.74697,77.963,ZC,True,[-5.15629689 -4.77954204 -4.08370237 -6.02972824],-5.012317,[-6.22490927 -6.8243154  -6.80978573 -6.15315781],-6.503042050757138,932.53723,[75.7846095  75.40785465 74.71201497 76.65804085],75.64062999130758,198.07715975,[ 279  680 1081 1482],[ 579  980 1381 1782],579,2.077352398063867,-0.5906149352856895,-1.0642500808068407,0.5906149352856895,Landing,"[-5.5360687e-07+6.9200860e-07j  6.9200860e-07-6.9200858e-08j
  4.8440603e-07+1.6608205e-06j ... -8.3713524e-02+3.7301683e-01j
  2.4007221e-01+3.1274483e-01j  1.5504141e-02-2.6667124e-01j]",True,0,0,0,0,0,UAV,35.727917,-78.696884,89.963,-0.0398093461990356,0.0706887021660804,-0.0343609116971492,3.61,-3.46,0.02,0,5.000409983191378,"                                  0
time     2023-12-15 16:37:24.604165
type                            UAV
lat                       35.727915
lon                      -78.696882
alt                          89.963
pitch                     -0.039809
yaw                        0.070689
roll                      -0.034361
vel_x                          3.61
vel_y                         -3.46
vel_z                          0.02
heading                           0
speed                       5.00041",74.23833066582888,74.8247745112272
0,83.0,3620,128.49303,102.140564,77.96,ZC,True,[ 0.35109654  0.40074015  0.36934159 -1.72184048],-0.15016554,[-7.35804421 -6.95911177 -6.82259033 -6.25996147],-6.849926945421917,-515.8333,[70.27721606 70.22757245 70.25897101 72.35015308],70.77847815238073,219.49090675,[ 283  684 1085 1486],[ 583  984 1385 1786],583,2.084489514560698,-0.5916363181706211,-1.0571131599900423,0.5916363181706211,Landing,"[ 4.1520514e-07-6.9200860e-07j  6.9200858e-08-2.4912308e-06j
  5.5360687e-07+5.5360687e-07j ...  5.4132301e-02+1.6738366e-01j
  2.8500546e-02+1.6586646e-01j -1.1504643e-02-8.5209228e-02j]",True,0,0,0,0,0,UAV,35.727932,-78.6969,89.96,-0.0379107408225536,0.0703872218728065,-0.0356252305209636,3.62,-3.47,0.02,0,5.014548833145411,"                                  0
time     2023-12-15 16:37:25.006073
type                            UAV
lat                       35.727931
lon                      -78.696901
alt                           89.96
pitch                     -0.037911
yaw                        0.070387
roll                      -0.035625
vel_x                          3.62
vel_y                         -3.47
vel_z                          0.02
heading                           0
speed                      5.014549",73.81427921087057,74.01551523945791
0,83.4,3620,129.4479,103.33924,77.96,ZC,True,[-7.60755912 -7.36761106 -6.90540072 -8.53658865],-7.60429,[-7.55750531 -7.66417274 -7.48659309 -6.94886142],-7.414283138286275,-255.24644,[78.23587172 77.99592367 77.53371332 79.16490126],78.23260249211759,203.4305965,[ 280  681 1082 1483],[ 580  981 1382 1783],580,2.087934002765779,-0.5921090438015147,-1.053668769625007,0.5921090438015147,Takeoff,"[-6.2280770e-07-1.8684232e-06j -1.1072137e-06+3.4600430e-07j
  1.0380129e-06-6.9200858e-08j ... -7.8440803e-01+1.1781739e-01j
 -1.9891752e-01+1.5198293e-01j  3.9741236e-01-5.3284869e-02j]",True,0,0,0,0,0,UAV,35.72794,-78.69691,89.96,-0.040388636291027,0.0711134150624275,-0.0361763350665569,3.61,-3.49,0.04,0,5.0213344839793335,"                                  0
time     2023-12-15 16:37:25.408244
type                            UAV
lat                       35.727939
lon                       -78.69691
alt                           89.96
pitch                     -0.040389
yaw                        0.071113
roll                      -0.036176
vel_x                          3.61
vel_y                         -3.49
