index,time,center_freq,dist,h_dist,v_dist,wav_type,detected,power,avgPower,snr,avgSnr,freq_offset,path_loss,avg_pl,est_dist,peaks,orig_peaks,start_point,aod_theta,aod_phi,aoa_theta,aoa_phi,stage,corr,save_corr,rsrp,shadowing,multipath,delay,doppler,type,lat,lon,alt,pitch,yaw,roll,vel_x,vel_y,vel_z,heading,speed,vehicle,avg_pl_rolling,avg_pl_ewma
0,232.6,3564,35.841705,31.01314,17.967,ZC,True,[ 0.84837341  1.0467239   1.07502664 -1.53898913],0.3577837,[-8.66820021 -7.94948892 -7.98508583 -6.89003047],-7.873201359089915,-433.62546,[69.77993919 69.58158871 69.55328597 72.16730173],70.27052889997364,133.83591875,[ 267  668 1069 1470],[ 567  968 1369 1770],567,1.1665514287140133,-0.0159714333417185,-1.9750444368283735,0.0159714333417185,Landing,"[-2.5950322e-07-3.1140385e-07j -8.6501075e-07-7.9580985e-07j
 -1.2110150e-06-1.9895246e-07j ...  2.4882518e-02+5.5426635e-02j
 -7.0912056e-02+1.0000022e-02j  1.8249910e-02-3.2837432e-02j]",True,0,0,0,0,0,UAV,35.727367,-78.696236,29.967,-0.1381381601095199,-0.0651218742132186,-0.1008918955922126,0.21,-0.18,0.02,0,0.2773084924772409,"                                  0
time     2023-12-15 15:45:38.577921
type                            UAV
lat                       35.727369
lon                      -78.696233
alt                          29.967
pitch                     -0.138138
yaw                       -0.065122
roll                      -0.100892
vel_x                          0.21
vel_y                         -0.18
vel_z                          0.02
heading                           0
speed                      0.277308",69.47388632791306,69.63599399403058
0,233.0,3564,35.88585,31.07397,17.95,ZC,True,[2.90650793 2.86419044 2.84228046 0.66000793],2.3182466,[-7.49157515 -6.85787664 -6.87422877 -5.97927087],-6.800737858179669,-459.31366,[67.72180467 67.76412216 67.78603215 69.96830468],68.31006591372706,128.482482,[ 266  667 1068 1469],[ 566  967 1368 1769],566,1.170880223680969,-0.0179377756663973,-1.9707156540912516,0.0179377756663973,Takeoff,"[ 5.5360687e-07-6.2280770e-07j  1.0034124e-06+5.5360687e-07j
 -9.1691135e-07+9.6881206e-07j ...  3.7939925e-02-8.4415048e-02j
 -6.1863631e-02-6.9385017e-03j -2.1088408e-02+4.3122083e-02j]",True,0,0,0,0,0,UAV,35.72737,-78.696236,29.95,-0.2170306295156479,-0.0547647140920162,-0.1714889258146286,0.6,-0.59,0.04,0,0.842436941260294,"                                  0
time     2023-12-15 15:45:38.980893
type                            UAV
lat                        35.72737
lon                      -78.696234
alt                           29.95
pitch                     -0.217031
yaw                       -0.054765
roll                      -0.171489
vel_x                           0.6
vel_y                         -0.59
vel_z                          0.04
heading                           0
speed                      0.842437",69.36164413747295,69.37080837796988
0,233.4,3564,36.169212,31.400215,17.951,ZC,True,[ 1.85007453  1.88550064  1.94842833 -0.40394384],1.320015,[-7.61513701 -6.66008609 -6.70522876 -5.83330257],-6.703438607259296,-710.02344,[68.77823808 68.74281197 68.67988427 71.03225645],69.30829768960174,128.482482,[ 266  667 1068 1469],[ 566  967 1368 1769],566,1.1950989001086116,-0.0307799531327359,-1.946497043908556,0.0307799531327359,Landing,"[-1.0726133e-06+5.5360687e-07j -2.0760257e-07+6.9200860e-07j
  7.6120944e-07+8.9961117e-07j ...  8.6147459e-03+2.5366268e-03j
 -9.1498934e-02+5.9600692e-02j  2.7099818e-02-2.2705356e-02j]",True,0,0,0,0,0,UAV,35.727375,-78.69624,29.951,-0.2206906229257583,-0.0539254993200302,-0.1668688803911209,1.59,-1.53,-0.04,0,2.2069435878608226,"                                  0
time     2023-12-15 15:45:39.384045
type                            UAV
lat                       35.727375
lon                       -78.69624
alt                          29.951
pitch                     -0.220691
yaw                       -0.053925
roll                      -0.166869
vel_x                          1.59
vel_y                         -1.53
vel_z                         -0.04
heading                           0
speed                      2.206944",69.33245068171675,69.35830624029624
0,233.8,3564,36.746487,32.049458,17.976,ZC,True,[ 1.27237923  1.23668928  1.26445381 -1.45153646],0.5804965,[-8.7022634  -8.35293761 -8.23135749 -7.10998354],-8.09913551168426,-362.92563,[69.35593337 69.39162332 69.36385879 72.07984907],70.04781613950533,133.83591875,[ 267  668 1069 1470],[ 567  968 1369 1770],567,1.2384587771315752,-0.0542282682504253,-1.9031372891839773,0.0542282682504253,Landing,"[ 5.5360687e-07-3.1140385e-07j  0.0000000e+00+7.9580985e-07j
 -8.3041027e-07-5.5360687e-07j ... -5.7882541e-03+4.0225767e-02j
  1.8903287e-02+2.8139923e-02j  3.6617633e-04-1.3183801e-02j]",True,0,0,0,0,0,UAV,35.727386,-78.69625,29.976,-0.2173297703266143,-0.0561643131077289,-0.1639050543308258,2.51,-2.41,-0.04,0,3.479913792035659,"                                  0
time     2023-12-15 15:45:39.787323
type                            UAV
lat                       35.727385
lon                      -78.696252
alt                          29.976
pitch                      -0.21733
yaw                       -0.056164
roll                      -0.163905
vel_x                          2.51
vel_y                         -2.41
vel_z                         -0.04
heading                           0
speed                      3.479914",69.42570476735249,69.49620822013806
0,234.2,3564,37.139465,32.49873,17.977,ZC,True,[2.11817127 2.161331   2.15353509 0.33399942],1.6917592,[-6.43835726 -7.03556887 -6.95238434 -6.17593157],-6.650560512796909,-327.70422,[68.51014134 68.4669816  68.47477752 70.29431318],68.93655340966464,117.7756085,[ 264  665 1066 1467],[ 564  965 1366 1767],564,1.265142018431536,-0.0684402294599494,-1.8764541263588268,0.0684402294599494,Flight,"[-2.4220301e-07-1.7300215e-07j  7.9580985e-07-2.7680343e-07j
 -1.2629157e-06-4.8440603e-07j ...  7.4682117e-02+6.1238710e-02j
  1.3988294e-01+4.1643590e-02j -6.7842685e-02-5.6978811e-02j]",True,0,0,0,0,0,UAV,35.72739,-78.69626,29.977,-0.1953682452440261,-0.0614668540656566,-0.1472550630569458,2.91,-2.84,-0.01,0,4.066177566216212,"                                  0
time     2023-12-15 15:45:40.190278
type                            UAV
lat                       35.727391
lon                       -78.69626
alt                          29.977
pitch                     -0.195368
yaw                       -0.061467
roll                      -0.147255
vel_x                          2.91
vel_y                         -2.84
vel_z                         -0.01
heading                           0
speed                      4.066178",69.38144489000221,69.38427725804338
0,234.6,3564,38.142815,33.62794,18.001,ZC,True,[ 2.1791034   2.28098731  2.26682837 -0.02485483],1.675516,[-6.9732386  -6.71776783 -6.69136938 -5.85583288],-6.559552169593487,-571.8193,[68.44920921 68.3473253  68.36148424 70.65316743],68.9527965432947,117.7756085,[ 264  665 1066 1467],[ 564  965 1366 1767],564,1.3243490946059284,-0.1003771080648773,-1.8172472326129343,0.1003771080648773,Landing,"[ 1.2110150e-06-8.3041027e-07j -6.9200858e-08-1.3840172e-07j
  3.4600429e-08-5.3630663e-07j ... -2.8710527e-02+4.3423124e-02j
  1.1990322e-01-3.5800233e-02j -7.0435748e-02+3.5278302e-02j]",True,0,0,0,0,0,UAV,35.727406,-78.69628,30.001,-0.0931859761476516,-0.0685352981090545,-0.0533805191516876,3.33,-3.26,-0.02,0,4.660139482891043,"                                  0
time     2023-12-15 15:45:40.592986
type                            UAV
lat                       35.727405
lon                      -78.696278
alt                          30.001
pitch                     -0.093186
yaw                       -0.068535
roll                      -0.053381
vel_x                          3.33
vel_y                         -3.26
vel_z                         -0.02
heading                           0
speed                      4.660139",69.33802182785175,69.29798111509365
0,235.0,3564,38.71865,34.267086,18.025,ZC,True,[2.73477527 2.81160877 2.76533687 0.68285276],2.2486434,[-6.28152325 -6.89193698 -6.85475485 -6.04882611],-6.519260297497501,-145.23349,[67.89353733 67.81670383 67.86297573 69.94545985],68.37966918500382,117.7756085,[ 264  665 1066 1467],[ 564  965 1366 1767],564,1.353644609365793,-0.116304978611038,-1.787951813653534,0.116304978611038,Flight,"[-6.2280770e-07+1.3840172e-06j -1.3840172e-07+0.0000000e+00j
  4.8440603e-07+3.4600430e-07j ... -2.1089204e-01-2.9836072e-02j
  9.8034948e-02-3.1969067e-02j  2.1271197e-02+3.3966862e-02j]",True,0,0,0,0,0,UAV,35.727413,-78.69629,30.025,-0.0748163759708404,-0.0655011981725692,-0.0405159778892993,3.4,-3.35,0.0,0,4.773101716913227,"                                  0
time     2023-12-15 15:45:40.995802
type                            UAV
lat                       35.727412
lon                      -78.696287
alt                          30.025
pitch                     -0.074816
yaw                       -0.065501
roll                      -0.040516
vel_x                           3.4
vel_y                         -3.35
vel_z                           0.0
heading                           0
speed                      4.773102",69.25656357895457,69.11431872907569
0,235.4,3564,39.96141,35.64303,18.069,ZC,True,[2.4371805  2.46293345 2.43936626 0.23094205],1.8926055,[-7.42540606 -6.93641891 -6.98308846 -6.1722564 ],-6.879292459930161,-238.88843,[68.1911321  68.16537916 68.18894634 70.39737056],68.73570703822668,117.7756085,[ 264  665 1066 1467],[ 564  965 1366 1767],564,1.4096619117684428,-0.1466661618977639,-1.7319347048901743,0.1466661618977639,Flight,"[-2.0760257e-07-7.2660902e-07j -6.9200858e-08+8.3041027e-07j
 -1.4532180e-06+5.5360687e-07j ...  2.8296083e-02-1.9636503e-01j
  3.9116755e-02+3.7632093e-02j -7.5376169e-03+2.8382368e-02j]",True,0,0,0,0,0,UAV,35.72743,-78.696304,30.069,-0.0686019584536552,-0.0647744983434677,-0.0213071461766958,3.44,-3.37,0.0,0,4.815651565468581,"                                  0
time     2023-12-15 15:45:41.399426
type                            UAV
lat                       35.727427
lon                      -78.696306
alt                          30.069
pitch                     -0.068602
yaw                       -0.064774
roll                      -0.021307
vel_x                          3.44
vel_y                         -3.37
vel_z                           0.0
heading                           0
speed                      4.815652",69.19602389234373,69.0385963909059
0,235.8,3564,41.26136,37.101925,18.054,ZC,True,[ 2.03198249  1.92586704  1.95127584 -0.51781134],1.3478285,[-7.37048996 -7.42096477 -7.46146586 -6.55329624],-7.2015542062712985,-470.45416,[68.59633012 68.70244556 68.67703676 71.14612394],69.28048409682619,123.12904525,[ 265  666 1067 1468],[ 565  966 1367 1768],565,1.4619079374949642,-0.1743284290800347,-1.6796888707647224,0.1743284290800347,Takeoff,"[ 2.7680343e-07-1.7300215e-07j -3.2870409e-07-3.8060472e-07j
  1.2802159e-06-6.5740818e-07j ... -9.3790293e-02+1.4186716e-01j
 -2.8879326e-02-3.0319110e-02j  2.1729778e-02-2.6062116e-02j]",True,0,0,0,0,0,UAV,35.727444,-78.69633,30.054,-0.0757493004202842,-0.0646197274327278,-0.0198618061840534,3.51,-3.36,0.09,0,4.859814811286537,"                                  0
time     2023-12-15 15:45:41.804185
type                            UAV
lat                       35.727443
lon                      -78.696325
alt                          30.054
pitch                     -0.075749
yaw                        -0.06462
roll                      -0.019862
vel_x                          3.51
vel_y                         -3.36
vel_z                          0.09
heading                           0
speed                      4.859815",69.17756571862711,69.08697393208995
0,236.2,3564,41.939617,37.86527,18.032,ZC,True,[2.33360519 2.36358967 2.38443253 0.45288852],1.883629,[-7.17951459 -7.25333894 -7.38888018 -6.74683772],-7.1421428602234,-63.594738,[68.29470741 68.26472293 68.24388008 70.17542408],68.74468362668775,139.1893555,[ 268  669 1070 1471],[ 568  969 1370 1771],568,1.4870718890158925,-0.1875216150604191,-1.6545250150443656,0.1875216150604191,Takeoff,"[ 1.2110151e-07+5.53606867e-07j -6.2280770e-07-2.76803434e-07j
 -8.3041027e-07+1.03801284e-07j ...  3.2895356e-02-1.91882730e-03j
 -4.3749958e-02-1.94913205e-02j  2.0630782e-02+1.39785046e-02j]",True,0,0,0,0,0,UAV,35.72745,-78.696335,30.032,-0.0754181742668151,-0.0648497566580772,-0.0233650207519531,3.54,-3.39,0.08,0,4.902050591334202,"                                  0
time     2023-12-15 15:45:42.207255
type                            UAV
lat                        35.72745
lon                      -78.696335
alt                          30.032
pitch                     -0.075418
yaw                        -0.06485
roll                      -0.023365
vel_x                          3.54
vel_y                         -3.39
vel_z                          0.08
heading                           0
speed                      4.902051",69.09666025425116,69.01851587100951
0,236.6,3564,43.357365,39.440754,18.008,ZC,True,[ 1.82220565  1.92809781  1.90564753 -0.62026156],1.2589223,[-6.63431898 -7.2232877  -7.24710447 -6.27799674],-6.845676971995795,-374.9677,[68.80610695 68.7002148  68.72266507 71.24857417],69.36939024743174,133.83591875,[ 267  668 1069 1470],[ 567  968 1369 1770],567,1.534950952420744,-0.2128463643315192,-1.6066461412024196,0.2128463643315192,Takeoff,"[ 0.0000000e+00+1.0726133e-06j -7.6120944e-07+8.9961117e-07j
  1.0726133e-06-6.5740818e-07j ...  2.5503319e-02-1.5438919e-02j
  1.1816288e-02+4.3415513e-02j  1.0040872e-02-2.0111552e-02j]",True,0,0,0,0,0,UAV,35.727467,-78.69635,30.008,-0.0800437703728675,-0.0661412104964256,-0.0232884287834167,3.65,-3.37,0.07,0,4.968329699204754,"                                  0
time     2023-12-15 15:45:42.610185
type                            UAV
lat                       35.727466
lon                      -78.696353
alt                          30.008
pitch                     -0.080044
yaw                       -0.066141
roll                      -0.023288
vel_x                          3.65
vel_y                         -3.37
vel_z                          0.07
heading                           0
speed                       4.96833",69.00654638899697,69.08869074629396
0,237.0,3564,44.862225,41.09106,18.004,ZC,True,[2.22323193 2.08640733 2.12578846 0.10301494],1.6346107,[-5.94909414 -5.7933867  -5.7614053  -5.07211085],-5.643999244976959,-41.85518,[68.40508067 68.54190528 68.50252415 70.52529766],68.99370194022111,123.12904525,[ 265  666 1067 1468],[ 565  966 1367 1768],565,1.5804114906103237,-0.2370732321645535,-1.5611857915566958,0.2370732321645535,Takeoff,"[ 2.7680343e-07+0.0000000e+00j  6.9200860e-07-5.5360687e-07j
  8.6501075e-07+9.3421158e-07j ... -6.2285200e-02-7.3525116e-02j
 -5.7573576e-02-9.6696958e-02j  4.8493158e-02+7.6174885e-02j]",True,0,0,0,0,0,UAV,35.72748,-78.69637,30.004,-0.0815717652440071,-0.0665633231401443,-0.0299981627613306,3.74,-3.39,0.04,0,5.047900553695566,"                                  0
time     2023-12-15 15:45:43.013011
type                            UAV
lat                       35.727482
lon                      -78.696372
alt                          30.004
pitch                     -0.081572
yaw                       -0.066563
roll                      -0.029998
vel_x                          3.74
vel_y                         -3.39
vel_z                          0.04
heading                           0
speed                      5.047901",69.07490999164636,69.0696929850794
0,237.4,3564,45.65366,41.95155,18.009,ZC,True,[2.90312404 2.93034435 2.9624805  0.89682864],2.4231944,[-6.52175505 -6.38736809 -6.37402461 -5.60055569],-6.220925856383549,-620.3804,[67.72518856 67.69796826 67.6658321  69.73148397],68.20511822207679,139.1893555,[ 268  669 1070 1471],[ 568  969 1370 1771],568,1.6024359162104838,-0.2488346994218028,-1.5391614607380817,0.2488346994218028,Flight,"[-6.57408179e-07-4.8440603e-07j -5.19006448e-07+3.4600430e-07j
  9.34211585e-07-4.4980558e-07j ...  1.13220975e-01-2.4004388e-01j
  2.34567717e-01+1.4347552e-02j -1.36234760e-01+9.6376695e-02j]",True,0,0,0,0,0,UAV,35.72749,-78.69638,30.009,-0.0773597583174705,-0.0675371438264846,-0.0300293527543544,3.79,-3.38,0.01,0,5.078247729286156,"                                  0
time     2023-12-15 15:45:43.415399
type                            UAV
lat                       35.727491
lon                      -78.696381
alt                          30.009
pitch                      -0.07736
yaw                       -0.067537
roll                      -0.030029
vel_x                          3.79
vel_y                         -3.38
vel_z                          0.01
heading                           0
speed                      5.078248",68.96459204489388,68.89677803247888
0,237.8,3564,47.325268,43.759438,18.022,ZC,True,[ 1.82911192  1.38581872  1.31614839 -1.24283819],0.8220602,[-8.13617372 -7.77100015 -7.56384985 -6.61751295],-7.522134166804048,-202.88586,[68.79920068 69.24249389 69.31216421 71.87115079],69.80625239358501,139.1893555,[ 268  669 1070 1471],[ 568  969 1370 1771],568,1.6445485123078434,-0.2710614909575012,-1.4970490572613435,0.2710614909575012,Takeoff,"[ 4.8440603e-07+2.0760257e-07j -9.3421158e-07+2.7680343e-07j
  9.6881206e-07+7.6120944e-07j ... -2.0245579e-01-1.6659155e-01j
 -5.3827544e-03-1.5944708e-02j  7.6052301e-02+4.8585992e-02j]",True,0,0,0,0,0,UAV,35.72751,-78.6964,30.022,-0.0707292780280113,-0.0690383240580558,-0.0357023440301418,3.84,-3.43,0.03,0,5.148922217318883,"                                  0
time     2023-12-15 15:45:43.817565
type                            UAV
lat                       35.727508
lon                        -78.6964
alt                          30.022
pitch                     -0.070729
yaw                       -0.069038
roll                      -0.035702
vel_x                          3.84
vel_y                         -3.43
vel_z                          0.03
heading                           0
speed                      5.148922",68.94043567030184,69.0786729047001
0,238.2,3564,48.19142,44.696766,18.017,ZC,True,[ 0.44733271  0.5495344   0.56467783 -1.71154045],-0.037498876,[-6.99815753 -6.46278548 -6.44115159 -5.61630352],-6.379599531495765,-60.435272,[70.18097989 70.07877821 70.06363478 72.33985305],70.66581148206697,128.482482,[ 266  667 1068 1469],[ 566  967 1368 1769],566,1.6646709663663366,-0.2814644465889286,-1.4769267000227766,0.2814644465889286,Flight,"[-2.7680343e-07-4.4115546e-07j -2.4220301e-07-6.9200860e-07j
  8.6501075e-07-2.0760257e-07j ... -1.1003546e-01+2.2097187e-01j
  5.5952828e-02-9.7356819e-02j -3.1495143e-02-2.8992677e-02j]",True,0,0,0,0,0,UAV,35.727516,-78.69641,30.017,-0.0631759241223335,-0.0695399716496467,-0.0331382602453231,3.85,-3.45,0.01,0,5.169632482101605,"                                  0
time     2023-12-15 15:45:44.221526
type                            UAV
lat                       35.727517
lon                      -78.696409
alt                          30.017
pitch                     -0.063176
yaw                        -0.06954
roll                      -0.033138
vel_x                          3.85
vel_y                         -3.45
vel_z                          0.01
heading                           0
speed                      5.169632",69.11336147754207,69.39610062017348
0,238.6,3564,50.01184,46.656834,18.009,ZC,True,[ 2.15767326  2.04576855  2.0759109  -0.47869503],1.4501644,[-5.57953528 -5.44276648 -5.43697855 -4.58706414],-5.261586111346709,-448.05756,[68.47063934 68.58254406 68.5524017  71.10700763],69.17814818281889,128.482482,[ 266  667 1068 1469],[ 566  967 1368 1769],566,1.702113405342667,-0.3003717164847674,-1.4394844587629605,0.3003717164847674,Flight,"[ 6.2280770e-07-1.4878185e-06j  1.7300215e-07+0.0000000e+00j
 -3.4600429e-08-2.7680343e-07j ...  1.0941265e-01+1.3071073e-02j
  2.4526237e-02+1.6754988e-01j -6.9459669e-02-7.3031820e-02j]",True,0,0,0,0,0,UAV,35.727535,-78.69643,30.009,-0.0571872405707836,-0.0705688670277595,-0.029651790857315,3.81,-3.53,0.01,0,5.193948401746016,"                                  0
time     2023-12-15 15:45:44.625397
type                            UAV
lat                       35.727534
lon                      -78.696429
alt                          30.009
pitch                     -0.057187
yaw                       -0.070569
roll                      -0.029652
vel_x                          3.81
vel_y                         -3.53
vel_z                          0.01
heading                           0
speed                      5.193948",69.1358966414945,69.35251013270256
0,239.0,3564,51.902676,48.684082,17.993,ZC,True,[ 0.86805715  0.92774393  0.8216465  -1.28005376],0.33434844,[-6.69235644 -6.6982536  -6.67935195 -5.88667466],-6.489159163805354,129.52551,[69.76025545 69.70056868 69.8066661  71.90836637],70.29396414950985,133.83591875,[ 267  668 1069 1470],[ 567  968 1369 1770],567,1.736237563176736,-0.3171119845746535,-1.4053604996646345,0.3171119845746535,Landing,"[-8.9961117e-07+1.2110150e-06j  5.5360687e-07+3.1140385e-07j
 -5.5360687e-07+6.9200860e-07j ...  8.3205039e-03+1.5176177e-01j
  2.9392719e-02-1.3630805e-02j -2.1758307e-02-3.1525135e-02j]",True,0,0,0,0,0,UAV,35.72755,-78.69645,29.993,-0.0570919923484325,-0.069057673215866,-0.0286761000752449,3.8,-3.52,0.02,0,5.179845557543198,"                                  0
time     2023-12-15 15:45:45.027449
type                            UAV
lat                       35.727551
lon                      -78.696448
alt                          29.993
pitch                     -0.057092
yaw                       -0.069058
roll                      -0.028676
vel_x                           3.8
vel_y                         -3.52
vel_z                          0.02
heading                           0
speed                      5.179846",69.32732613794511,69.54080093606403
0,239.4,3564,52.86289,49.711212,17.98,ZC,True,[2.2597244  2.40361219 2.36463549 0.40508404],1.8582641,[-5.59415272 -5.56329402 -5.52102579 -4.89346744],-5.392984992836875,-294.33096,[68.3685882  68.22470041 68.26367712 70.22322856],68.7700485728605,133.83591875,[ 267  668 1069 1470],[ 567  968 1369 1770],567,1.752043696566355,-0.3246816381568936,-1.3895544651333351,0.3246816381568936,Takeoff,"[-8.30410272e-07+3.8060472e-07j  3.46004299e-07+3.1140385e-07j
  1.03801284e-07+5.5360687e-07j ...  9.22395568e-03-5.3475481e-03j
 -2.28016824e-02-3.2530285e-03j -6.01165136e-03-1.5076860e-02j]",True,0,0,0,0,0,UAV,35.72756,-78.69646,29.98,-0.053099937736988,-0.0686045214533805,-0.0284919533878564,3.78,-3.52,0.03,0,5.165239587860373,"                                  0
time     2023-12-15 15:45:45.429470
type                            UAV
lat                        35.72756
lon                      -78.696458
alt                           29.98
pitch                       -0.0531
yaw                       -0.068605
roll                      -0.028492
vel_x                          3.78
vel_y                         -3.52
vel_z                          0.03
heading                           0
speed                       5.16524",69.33076029140848,69.38665046342332
0,239.8,3564,54.836308,51.809338,17.967,ZC,True,[ 1.73186485  1.78907487  1.84793042 -0.28847637],1.2700984,[-5.88715673 -5.73462405 -5.69296207 -4.95951869],-5.568565386243902,-453.21445,[68.89644775 68.83923773 68.78038218 70.91678897],69.35821415932658,133.83591875,[ 267  668 1069 1470],[ 567  968 1369 1770],567,1.7817206901589389,-0.3387380808326984,-1.3598776702766042,0.3387380808326984,Flight,"[ 1.03801284e-07-6.2280770e-07j  8.30410272e-07+0.0000000e+00j
 -5.88207286e-07+4.1520514e-07j ...  1.77751452e-01-4.8566788e-02j
 -3.17001864e-02+1.4537692e-01j -4.41908725e-02-8.6977385e-02j]",True,0,0,0,0,0,UAV,35.727577,-78.69648,29.967,-0.0450696498155593,-0.0690289437770843,-0.0264476742595434,3.74,-3.56,0.0,0,5.163448460089439,"                                  0
time     2023-12-15 15:45:45.833345
type                            UAV
lat                       35.727577
lon                      -78.696478
alt                          29.967
pitch                      -0.04507
yaw                       -0.069029
roll                      -0.026448
vel_x                          3.74
vel_y                         -3.56
vel_z                           0.0
heading                           0
speed                      5.163448",69.33853329765853,69.38096320260398
0,240.2,3564,55.848576,52.878902,17.969,ZC,True,[ 1.23319635  1.25652511  1.22605784 -1.04111505],0.66866606,[-5.99550697 -5.87182354 -5.81681034 -4.96616837],-5.662577304589883,-216.23615,[69.39511626 69.37178749 69.40225476 71.66942765],69.95964653918914,133.83591875,[ 267  668 1069 1470],[ 567  968 1369 1770],567,1.795650788964096,-0.3452781313065965,-1.3459476713489804,0.3452781313065965,Flight,"[-1.3840172e-07-5.5360687e-07j -1.3840172e-07-7.6120944e-07j
 -3.4600430e-07+3.1140385e-07j ... -1.1179087e-01+1.9320239e-01j
 -1.5768316e-02+1.7834377e-02j  1.7273044e-02-8.7007105e-02j]",True,0,0,0,0,0,UAV,35.727585,-78.69649,29.969,-0.04367246478796,-0.0686728656291961,-0.0259177777916193,3.71,-3.57,0.0,0,5.148689153561322,"                                  0
time     2023-12-15 15:45:46.236073
type                            UAV
lat                       35.727585
lon                      -78.696487
alt                          29.969
pitch                     -0.043672
yaw                       -0.068673
roll                      -0.025918
vel_x                          3.71
vel_y                         -3.57
vel_z                           0.0
heading                           0
speed                      5.148689",69.46002958890865,69.49669986992102
0,240.6,3564,57.878773,55.018463,17.97,ZC,True,[ 1.56121752  1.65626289  1.66506006 -0.5533039 ],1.0823091,[-8.05453888 -8.88144885 -8.76342808 -7.8475089 ],-8.386731177772802,-179.186,[69.06709509 68.97204972 68.96325254 71.1816165 ],69.54600346186392,144.54279225,[ 269  671 1072 1473],[ 569  971 1372 1773],569,1.821174847513244,-0.356980597946117,-1.320423810516627,0.356980597946117,Flight,"[-2.76803434e-07-4.49805583e-07j  1.03801284e-07+3.46004299e-07j
  6.57408179e-07+1.03801284e-07j ... -5.38019370e-03+2.42223945e-02j
  2.43882239e-01-4.37167473e-02j -1.30588561e-01+1.77628398e-02j]",True,0,0,0,0,0,UAV,35.7276,-78.69651,29.97,-0.0470069721341133,-0.0681061148643493,-0.0194237027317285,3.66,-3.55,0.0,0,5.0988331998605325,"                                  0
time     2023-12-15 15:45:46.638753
type                            UAV
lat                       35.727602
lon                      -78.696507
alt                           29.97
pitch                     -0.047007
yaw                       -0.068106
roll                      -0.019424
vel_x                          3.66
vel_y                         -3.55
vel_z                           0.0
heading                           0
speed                      5.098833",69.47769091035187,69.5065605883096
0,241.0,3564,59.95382,57.199886,17.962,ZC,True,[ 2.07757621  2.10065036  2.0181226  -0.04997334],1.5365939,[-6.10165634 -6.42491096 -6.41008249 -5.61344168],-6.137522866828849,-480.57437,[68.5507364  68.52766225 68.61019    70.67828595],69.09171864920984,139.1893555,[ 268  669 1070 1471],[ 568  969 1370 1771],568,1.844731208185876,-0.3674702291178224,-1.2968676485800212,0.3674702291178224,Landing,"[-3.4600430e-07+4.1520514e-07j  0.0000000e+00-1.0380129e-06j
  1.7300215e-07+6.9200860e-07j ...  1.3832179e-01-1.3924621e-01j
 -2.7321104e-03+1.3287053e-01j -4.3916397e-02-2.0446777e-03j]",True,0,0,0,0,0,UAV,35.72762,-78.696526,29.962,-0.0455181710422039,-0.0679830312728881,-0.0201003979891538,3.61,-3.53,-0.02,0,5.049098929512077,"                                  0
time     2023-12-15 15:45:47.040808
type                            UAV
lat                       35.727618
lon                      -78.696526
alt                          29.962
pitch                     -0.045518
yaw                       -0.067983
roll                        -0.0201
vel_x                          3.61
vel_y                         -3.53
vel_z                         -0.02
heading                           0
speed                      5.049099",69.48749258125075,69.42359220048965
0,241.4,3564,60.998615,58.29437,17.961,ZC,True,[1.81159884 1.79673674 1.84668324 0.12080219],1.3939552,[-8.08136168 -7.56351944 -7.48540365 -6.8118091 ],-7.48552346865505,-36.56734,[68.81671376 68.83157586 68.78162936 70.50751042],69.2343573504798,155.24966575,[ 271  672 1073 1474],[ 571  972 1373 1774],571,1.855684451986122,-0.3722738478524993,-1.285914503638235,0.3722738478524993,Flight,"[-5.5360687e-07+3.4600430e-07j  5.5360687e-07-6.9200858e-08j
  7.6120944e-07-4.8440603e-07j ...  9.7447626e-02+9.4440766e-02j
  4.9155790e-02+3.2475755e-02j -3.8207661e-02-6.8972185e-02j]",True,0,0,0,0,0,UAV,35.727627,-78.69653,29.961,-0.0442334748804569,-0.0677605420351028,-0.0198891665786504,3.59,-3.54,0.01,0,5.041805232255605,"                                  0
time     2023-12-15 15:45:47.444614
type                            UAV
lat                       35.727626
lon                      -78.696536
alt                          29.961
pitch                     -0.044233
yaw                       -0.067761
roll                      -0.019889
vel_x                          3.59
vel_y                         -3.54
vel_z                          0.01
heading                           0
speed                      5.041805",69.59041649409104,69.38574523048769
0,241.8,3564,63.099888,60.487873,17.967,ZC,True,[ 1.91898631  1.64220757  1.64617503 -0.52104569],1.1715808,[-7.38642163 -7.40340781 -7.37940425 -6.54194159],-7.1777938184398895,-362.45895,[68.7093263  68.98610503 68.98213758 71.14935829],69.45673180007908,144.54279225,[ 269  670 1071 1472],[ 569  970 1371 1772],569,1.8760911195897896,-0.3811069673282076,-1.265508032732375,0.3811069673282076,Landing,"[ 0.0000000e+00+7.2660902e-07j  4.4980558e-07-3.1140385e-07j
  3.4600429e-08+5.1900645e-07j ...  1.3876098e-01+1.3038376e-01j
  3.6701784e-02+5.6461949e-02j -4.2146161e-02-7.6724723e-02j]",True,0,0,0,0,0,UAV,35.727642,-78.696556,29.967,-0.0470130294561386,-0.0671885907649993,-0.0206043645739555,3.56,-3.51,0.02,0,4.999409965185891,"                                  0
time     2023-12-15 15:45:47.847646
type                            UAV
lat                       35.727643
lon                      -78.696555
alt                          29.967
pitch                     -0.047013
yaw                       -0.067189
roll                      -0.020604
vel_x                          3.56
vel_y                         -3.51
vel_z                          0.02
heading                           0
speed                       4.99941",69.55546443474046,69.39994254440596
0,242.2,3564,64.16262,61.589264,17.989,ZC,True,[ 1.74122848  1.90765535  1.95901484 -0.08359374],1.3810762,[-6.02046622 -5.93368666 -5.96902901 -5.2353472 ],-5.789632271663688,-15.309734,[68.88708412 68.72065726 68.66929776 70.71190634],69.24723637029221,144.54279225,[ 269  670 1071 1472],[ 569  970 1371 1772],569,1.8857701573107424,-0.3853673372087177,-1.2558290928507791,0.3853673372087177,Landing,"[-4.7575591e-07+2.7680343e-07j -1.3840172e-07+3.4600429e-08j
  1.7300215e-07+6.5740818e-07j ...  1.3308397e-01+4.7398850e-02j
 -1.8210898e-03+4.4677458e-03j -5.2826155e-02-1.3185393e-02j]",True,0,0,0,0,0,UAV,35.72765,-78.69656,29.989,-0.0508257001638412,-0.0672363117337226,-0.0216038636863231,3.55,-3.49,0.02,0,4.978252705518273,"                                  0
time     2023-12-15 15:45:48.249732
type                            UAV
lat                       35.727651
lon                      -78.696565
alt                          29.989
pitch                     -0.050826
yaw                       -0.067236
roll                      -0.021604
vel_x                          3.55
vel_y                         -3.49
vel_z                          0.02
heading                           0
speed                      4.978253",69.41360692356298,69.36940130958321
0,242.6,3564,66.27069,63.78047,17.996,ZC,True,[2.14960385 2.15394052 2.16225796 0.14847214],1.6535686,[-6.43491953 -6.70015522 -6.60664867 -5.87360077],-6.4038310460233685,-256.2057,[68.47870876 68.47437209 68.46605464 70.47984047],68.97474398897486,144.54279225,[ 269  670 1071 1472],[ 569  970 1371 1772],569,1.903721249514332,-0.3929033267402388,-1.2378781942876294,0.3929033267402388,Takeoff,"[ 2.0760257e-07+1.3840172e-07j  2.2490279e-07+6.9200860e-07j
  6.2280770e-07-6.9200860e-07j ...  7.1792550e-02+1.0158012e-02j
 -1.0198352e-01-6.9005817e-02j  4.2391166e-02+4.9377512e-02j]",True,0,0,0,0,0,UAV,35.727665,-78.69659,29.996,-0.0532135777175426,-0.0675410702824592,-0.0275154374539852,3.52,-3.46,0.03,0,4.935878847783847,"                                  0
time     2023-12-15 15:45:48.651620
type                            UAV
lat                       35.727667
lon                      -78.696584
alt                          29.996
pitch                     -0.053214
yaw                       -0.067541
roll                      -0.027515
vel_x                          3.52
vel_y                         -3.46
vel_z                          0.03
heading                           0
speed                      4.935879",69.39326650417857,69.29046984546154
0,243.0,3564,67.32481,64.876724,17.99,ZC,True,[2.40240906 2.42686291 2.46062365 0.17803841],1.8669835,[-7.15760273 -6.86435705 -6.88952091 -6.02701994],-6.73462515566539,-274.99924,[68.22590355 68.20144969 68.16768896 70.45027419],68.76132909773303,149.896229,[ 270  671 1072 1473],[ 570  971 1372 1773],570,1.912368026067696,-0.3964640909332897,-1.2292315135353635,0.3964640909332897,Flight,"[-5.5360687e-07+3.8060472e-07j -4.8440603e-07+3.6330451e-07j
  8.6501075e-07+5.5360687e-07j ... -6.6881940e-02+2.1250007e-01j
 -4.3312784e-02+1.5492728e-01j  4.5502611e-02-1.4679530e-01j]",True,0,0,0,0,0,UAV,35.727676,-78.696594,29.99,-0.0519770495593547,-0.0679115653038024,-0.0251537263393402,3.51,-3.46,0.01,0,4.928671220521816,"                                  0
time     2023-12-15 15:45:48.853582
type                            UAV
lat                       35.727675
lon                      -78.696593
alt                           29.99
pitch                     -0.051977
yaw                       -0.067912
roll                      -0.025154
vel_x                          3.51
vel_y                         -3.46
vel_z                          0.01
heading                           0
speed                      4.928671",69.2400029990009,69.18464169591584
0,243.4,3564,68.40111,65.98997,18.001,ZC,True,[ 2.18085837  2.12942285  2.12571388 -0.12375395],1.5780603,[-6.56384207 -6.6127713  -6.56022861 -5.75091197],-6.371938487491498,-481.90463,[68.44745423 68.49888975 68.50259873 70.75206655],69.05025231411531,149.896229,[ 270  671 1072 1473],[ 570  971 1372 1773],570,1.9208377886723524,-0.4000234941632837,-1.2207618477509856,0.4000234941632837,Flight,"[ 3.1140385e-07-6.5740818e-07j  6.9200858e-08-3.4600430e-07j
  1.7300215e-08+2.0760257e-07j ... -9.9264495e-02-1.0403972e-01j
 -2.7208256e-02-4.8417072e-03j  3.6467884e-02+4.1138802e-02j]",True,0,0,0,0,0,UAV,35.727684,-78.6966,30.001,-0.0483269840478897,-0.0677678436040878,-0.0270016454160213,3.5,-3.47,0.0,0,4.928579917176955,"                                  0
time     2023-12-15 15:45:49.256592
type                            UAV
lat                       35.727683
lon                      -78.696603
alt                          30.001
pitch                     -0.048327
yaw                       -0.067768
roll                      -0.027002
vel_x                           3.5
vel_y                         -3.47
vel_z                           0.0
heading                           0
speed                       4.92858",69.26802337312638,69.15776381955574
0,243.8,3564,70.55105,68.21409,18.008,ZC,True,[ 1.87138726  1.74279779  1.73427234 -0.15163051],1.2992067,[-6.81095413 -6.67365664 -6.69403688 -5.997332  ],-6.5439949109332565,-347.69922,[68.75692534 68.88551482 68.89404027 70.77994312],69.32910588558936,155.24966575,[ 271  672 1073 1474],[ 571  972 1373 1774],571,1.936337815593831,-0.4062640455316259,-1.2052620144700874,0.4062640455316259,Takeoff,"[-2.0760257e-07+3.4600430e-07j  1.3840172e-06+0.0000000e+00j
  3.8060472e-07-4.8440603e-07j ... -3.3989447e-01+1.0271943e-01j
 -6.6114709e-02+3.8821612e-02j  1.4447631e-01-4.8645280e-02j]",True,0,0,0,0,0,UAV,35.7277,-78.696625,30.008,-0.0534032993018627,-0.0684192553162574,-0.0322526097297668,3.5,-3.49,0.03,0,4.942772501339709,"                                  0
time     2023-12-15 15:45:49.658781
type                            UAV
lat                       35.727699
lon                      -78.696622
alt                          30.008
pitch                     -0.053403
yaw                       -0.068419
roll                      -0.032253
vel_x                           3.5
vel_y                         -3.49
vel_z                          0.03
heading                           0
speed                      4.942773",69.26511254575266,69.19203223276246
0,244.2,3564,72.74724,70.48288,18.009,ZC,True,[2.33216894 2.40841351 2.42346992 0.34105148],1.876276,[-6.62583888 -6.21351292 -6.24585732 -5.49536301],-6.145143034053861,-360.09924,[68.29614366 68.21989909 68.20484269 70.28726112],68.75203664134008,155.24966575,[ 271  672 1073 1474],[ 571  972 1373 1774],571,1.9508591075550568,-0.4119348894122214,-1.1907409192069864,0.4119348894122214,Flight,"[ 3.4600430e-07-1.2110150e-06j -1.3840172e-07-5.5360687e-07j
 -3.8060472e-07-8.1311009e-07j ... -1.3525380e-01+4.8934694e-02j
  5.1406134e-02-8.0346176e-03j  3.0059850e-02+3.3386454e-02j]",True,0,0,0,0,0,UAV,35.727715,-78.69664,30.009,-0.0569407530128955,-0.068116009235382,-0.0267804022878408,3.47,-3.5,0.0,0,4.928579917176955,"                                  0
time     2023-12-15 15:45:50.060851
type                            UAV
lat                       35.727714
lon                      -78.696641
alt                          30.009
pitch                     -0.056941
yaw                       -0.068116
roll                       -0.02678
vel_x                          3.47
vel_y                          -3.5
vel_z                           0.0
heading                           0
speed                       4.92858",69.14435155596775,69.10403311447799
0,244.6,3564,73.84356,71.612114,18.016,ZC,True,[2.22444561 2.23375313 2.29430832 0.37792239],1.7826073,[-5.90975743 -6.35949813 -6.31155798 -5.54471733],-6.031382718733866,-388.5554,[68.40386699 68.39455947 68.33400428 70.25039022],68.84570524169601,155.24966575,[ 271  672 1073 1474],[ 571  972 1373 1774],571,1.9575826545929316,-0.4145322365786304,-1.1840174700086128,0.4145322365786304,Takeoff,"[ 1.3840172e-07-3.9790493e-07j  5.8820729e-07+4.1520514e-07j
 -4.4980558e-07+1.3840172e-07j ... -5.0369021e-02-5.2764341e-02j
  8.0824822e-02-2.5756380e-01j -2.2034558e-02+9.9734426e-02j]",True,0,0,0,0,0,UAV,35.727722,-78.69665,30.016,-0.0622706487774848,-0.068241111934185,-0.0278976634144783,3.47,-3.5,0.03,0,4.928671220521816,"                                  0
time     2023-12-15 15:45:50.463053
type                            UAV
lat                       35.727722
lon                      -78.696651
alt                          30.016
pitch                     -0.062271
yaw                       -0.068241
roll                      -0.027898
vel_x                          3.47
vel_y                          -3.5
vel_z                          0.03
heading                           0
speed                      4.928671",69.07432173395095,69.05236753992159
0,245.0,3564,76.05045,73.88447,18.021,ZC,True,[ 1.86142102  1.82943995  1.80922791 -0.41042084],1.2724171,[-6.56079075 -6.15067612 -6.1073822  -5.31413736],-6.033246606489284,-252.02847,[68.76689159 68.79887265 68.81908469 71.03873345],69.35589559388515,155.24966575,[ 271  672 1073 1474],[ 571  972 1373 1774],571,1.9708743798223087,-0.4196547092888339,-1.1707259394391658,0.4196547092888339,Landing,"[-9.3421158e-07-6.2280770e-07j -6.9200858e-08+6.2280770e-07j
  4.1520514e-07+2.4220301e-07j ... -1.8951853e-01-3.8104311e-02j
 -6.0270902e-02-6.9561116e-02j  8.4536634e-02+1.1443097e-02j]",True,0,0,0,0,0,UAV,35.727737,-78.69667,30.021,-0.0649573132395744,-0.0676973983645439,-0.0279806796461343,3.49,-3.49,0.02,0,4.935645854394337,"                                  0
time     2023-12-15 15:45:50.865188
type                            UAV
lat                       35.727738
lon                       -78.69667
alt                          30.021
pitch                     -0.064957
yaw                       -0.067697
roll                      -0.027981
vel_x                          3.49
vel_y                         -3.49
vel_z                          0.02
heading                           0
speed                      4.935646",69.10073942841849,69.11307315071431
0,245.4,3564,78.28112,76.18568,17.991,ZC,True,[ 0.72350161  0.76315905  0.78864868 -1.91853962],0.08919243,[-6.1062808  -6.10816126 -6.15632435 -5.15762686],-5.882098317805695,450.02448,[69.904811   69.86515355 69.83966393 72.54685222],70.5391201745792,160.60310249999998,[ 272  673 1074 1475],[ 572  973 1374 1775],572,1.9832756316762248,-0.4241357386595341,-1.1583248842835645,0.4241357386595341,Flight,"[ 8.3041027e-07-5.1900642e-08j  5.1900642e-08+1.7300215e-07j
 -1.3840172e-07+1.2456154e-06j ... -3.2147534e-02-7.4731391e-03j
  3.3857297e-02+3.5381187e-02j  8.9423601e-03+1.7976306e-02j]",True,0,0,0,0,0,UAV,35.727753,-78.696686,29.991,-0.0637165457010269,-0.06723253428936,-0.0262222792953252,3.51,-3.48,0.0,0,4.942721922180126,"                                  0
time     2023-12-15 15:45:51.267244
type                            UAV
lat                       35.727754
lon                      -78.696689
alt                          29.991
pitch                     -0.063717
yaw                       -0.067233
roll                      -0.026222
vel_x                          3.51
vel_y                         -3.48
vel_z                           0.0
heading                           0
speed                      4.942722",69.23121571082842,69.39828255548728
0,245.8,3564,79.40737,77.34687,17.972,ZC,True,[2.43807042 2.47126446 2.50900319 0.44040765],1.9646864,[-5.7037465  -5.86072379 -5.84739217 -5.11605723],-5.631979921513519,-531.8107,[68.19024218 68.15704814 68.11930942 70.18790495],68.66362617345641,160.60310249999998,[ 272  673 1074 1475],[ 572  973 1374 1775],572,1.9892408403618649,-0.4262462367544756,-1.1523597744566922,0.4262462367544756,Flight,"[-8.82310928e-07+4.8440603e-07j  4.15205136e-07-4.1520514e-07j
 -7.26609017e-07+3.4600430e-07j ... -2.46349081e-01-5.7336027e-03j
 -7.52158314e-02-5.2076865e-02j  1.23049244e-01+1.0619841e-02j]",True,0,0,0,0,0,UAV,35.72776,-78.6967,29.972,-0.0667382627725601,-0.0678524300456047,-0.0311797950416803,3.53,-3.49,0.01,0,4.963980257817309,"                                  0
time     2023-12-15 15:45:51.669409
type                            UAV
lat                       35.727762
lon                      -78.696699
alt                          29.972
pitch                     -0.066738
yaw                       -0.067852
roll                       -0.03118
vel_x                          3.53
vel_y                         -3.49
vel_z                          0.01
heading                           0
speed                       4.96398",69.15190514816615,69.2513512790811
0,246.2,3564,81.69097,79.68999,17.97,ZC,True,[ 1.96419144  1.96613626  2.00152937 -0.43528687],1.3741425,[-7.4062567  -6.95241152 -7.01352981 -6.09330783],-6.866376464501753,-230.97064,[68.66412116 68.66217634 68.62678323 71.06359947],69.25417005184413,165.95653925,[ 273  674 1075 1476],[ 573  974 1375 1776],573,2.000727905686537,-0.4304405021036158,-1.140872907868778,0.4304405021036158,Flight,"[-2.7680343e-07-3.4600429e-08j  1.7300215e-07+6.2280770e-07j
 -5.5360687e-07-6.9200858e-08j ...  1.1454673e-01-2.6714992e-02j
  7.3636286e-02-7.6963462e-02j -8.9388549e-02+4.7150299e-02j]",True,0,0,0,0,0,UAV,35.72778,-78.69672,29.97,-0.0638487637042999,-0.0682398453354835,-0.0248912200331687,3.54,-3.52,0.0,0,4.992193906490412,"                                  0
time     2023-12-15 15:45:52.071487
type                            UAV
lat                       35.727778
lon                      -78.696718
alt                           29.97
pitch                     -0.063849
yaw                        -0.06824
roll                      -0.024891
vel_x                          3.54
vel_y                         -3.52
vel_z                           0.0
heading                           0
speed                      4.992194",69.15259851632136,69.25191503363372
0,246.6,3564,82.836624,80.85888,17.993,ZC,True,[2.45501854 2.42836458 2.48615318 0.06753215],1.8592671,[-6.05737478 -5.62779429 -5.62997329 -4.82156145],-5.534175951779882,-349.37076,[68.17329407 68.19994802 68.14215943 70.56078046],68.76904549305947,165.95653925,[ 273  674 1075 1476],[ 573  974 1375 1776],573,2.0061828356071247,-0.4325220135541174,-1.135418076807016,0.4325220135541174,Landing,"[-6.5740818e-07-7.2660902e-07j -5.5360687e-07+3.4600430e-07j
 -2.7680343e-07+9.6881206e-07j ... -9.0134017e-02+1.3179979e-01j
 -5.8386527e-02-4.9904596e-02j  3.7904147e-02-1.4985619e-02j]",True,0,0,0,0,0,UAV,35.727787,-78.69673,29.993,-0.0659364163875579,-0.068021148443222,-0.0224138516932725,3.54,-3.5,-0.03,0,4.978202486842013,"                                  0
time     2023-12-15 15:45:52.477362
type                            UAV
lat                       35.727786
lon                      -78.696728
alt                          29.993
pitch                     -0.065936
yaw                       -0.068021
roll                      -0.022414
vel_x                          3.54
vel_y                          -3.5
vel_z                         -0.03
heading                           0
speed                      4.978202",69.13202866672981,69.15534112551887
0,247.0,3564,85.14161,83.21174,18.025,ZC,True,[ 2.28049538  2.28396583  2.27120538 -0.03598225],1.6999211,[-7.20629387 -7.05475084 -7.08634968 -6.20090606],-6.887075112954722,-364.7937,[68.34781723 68.34434677 68.35710723 70.66429485],68.92839151962372,165.95653925,[ 273  674 1075 1476],[ 573  974 1375 1776],573,2.0165852464179173,-0.436365149149834,-1.1250158647330877,0.436365149149834,Landing,"[ 0.00000000e+00-1.0034124e-06j  1.03801284e-07-7.6985953e-07j
 -9.08261256e-07-5.5360687e-07j ...  4.20735329e-02-3.1628184e-02j
 -2.73589045e-02+5.2503105e-02j  5.40235080e-03+5.7995855e-03j]",True,0,0,0,0,0,UAV,35.727802,-78.69675,30.025,-0.0720563679933548,-0.0680473819375038,-0.0231259502470493,3.56,-3.51,0.02,0,4.999409965185891,"                                  0
time     2023-12-15 15:45:52.880244
type                            UAV
lat                       35.727802
lon                      -78.696747
alt                          30.025
pitch                     -0.072056
yaw                       -0.068047
roll                      -0.023126
vel_x                          3.56
vel_y                         -3.51
vel_z                          0.02
heading                           0
speed                       4.99941",69.1487349089189,69.10995120433984
0,247.4,3564,87.443344,85.56498,18.027,ZC,True,[2.03010656 2.29378869 2.29379737 0.16962968],1.6968306,[-6.63692474 -6.24302936 -6.2899189  -5.5637035 ],-6.183394124374319,-554.6447,[68.59820604 68.33452392 68.33451524 70.45868292],68.93148202892542,171.30997599999998,[ 274  675 1076 1477],[ 574  975 1376 1777],574,2.0264611013219374,-0.4398430715062432,-1.115140207546853,0.4398430715062432,Takeoff,"[ 6.9200860e-07+3.8060472e-07j -6.9200860e-07+1.3840172e-07j
  5.8820729e-07-1.2456154e-06j ...  7.9421476e-02+6.3964225e-02j
 -3.9831702e-02-1.1281200e-01j  1.7691546e-03+3.5586368e-02j]",True,0,0,0,0,0,UAV,35.727818,-78.69677,30.027,-0.0704664140939712,-0.0690110027790069,-0.0185916684567928,3.58,-3.52,0.07,0,5.021125371866351,"                                  0
time     2023-12-15 15:45:53.284821
type                            UAV
lat                       35.727818
lon                      -78.696767
alt                          30.027
pitch                     -0.070466
yaw                       -0.069011
roll                      -0.018592
vel_x                          3.58
vel_y                         -3.52
vel_z                          0.07
heading                           0
speed                      5.021125",69.1368578803999,69.07425736925696
0,247.8,3564,88.595665,86.741425,18.031,ZC,True,[2.78334198 2.67353819 2.64524092 0.33949548],2.1104043,[-6.56041179 -6.37065431 -6.34623631 -5.54049067],-6.2044482705887685,-221.86249,[67.84497063 67.95477441 67.98307169 70.28881712],68.51790846114645,171.30997599999998,[ 274  675 1076 1477],[ 574  975 1376 1777],574,2.03135880027034,-0.4416031012483561,-1.1102426064382276,0.4416031012483561,Takeoff,"[-5.8820729e-07+4.1520514e-07j -3.4600430e-07+3.4600430e-07j
 -9.6881206e-07+1.2456154e-06j ...  2.9962311e-02-4.8630141e-02j
 -1.0710089e-01-8.9978106e-02j  4.1444048e-02+4.8432019e-02j]",True,0,0,0,0,0,UAV,35.727825,-78.69678,30.031,-0.068300150334835,-0.0694897249341011,-0.0179598238319158,3.58,-3.5,0.04,0,5.00679538227797,"                                  0
time     2023-12-15 15:45:53.688049
type                            UAV
lat                       35.727826
lon                      -78.696776
alt                          30.031
pitch                       -0.0683
yaw                        -0.06949
roll                       -0.01796
vel_x                          3.58
vel_y                          -3.5
vel_z                          0.04
heading                           0
speed                      5.006795",69.0557381379556,68.96298758763486
0,248.2,3564,90.905655,89.10031,18.027,ZC,True,[2.30240505 2.368864   2.31807283 0.31427651],1.8259046,[-6.57566244 -6.46789659 -6.45380738 -5.71869031],-6.304014180435916,-346.99835,[68.32590755 68.2594486  68.31023978 70.31403609],68.80240800752983,171.30997599999998,[ 274  675 1076 1477],[ 574  975 1376 1777],574,2.040765640993413,-0.4448952317562699,-1.1008359613947656,0.4448952317562699,Takeoff,"[-1.03801284e-07+2.0760257e-07j -6.57408179e-07-5.1900645e-07j
 -2.76803434e-07+6.9200858e-08j ... -5.14460802e-02-1.9039848e-01j
  9.17697474e-02-1.6621526e-02j -2.60319263e-02+3.4851663e-02j]",True,0,0,0,0,0,UAV,35.727844,-78.69679,30.027,-0.0684262737631797,-0.0687137320637703,-0.0228787865489721,3.61,-3.47,0.05,0,5.007544308341165,"                                  0
time     2023-12-15 15:45:54.091036
type                            UAV
lat                       35.727843
lon                      -78.696796
alt                          30.027
pitch                     -0.068426
yaw                       -0.068714
roll                      -0.022879
vel_x                          3.61
vel_y                         -3.47
vel_z                          0.05
heading                           0
speed                      5.007544",69.06077527457458,68.93087167161386
0,248.6,3564,92.067184,90.28767,18.014,ZC,True,[ 1.67929236  1.91915985  1.99125934 -0.24796147],1.3354375,[-6.22312608 -6.26986612 -6.28467868 -5.54383488],-6.0803764404673,-237.39706,[68.94902024 68.70915276 68.63705326 70.87627407],69.2928750849677,176.66341275,[ 275  676 1077 1478],[ 575  976 1377 1778],575,2.045393843194933,-0.4464708521158015,-1.0962078570330915,0.4464708521158015,Takeoff,"[ 9.5151179e-08-1.03801284e-07j  3.4600430e-07-2.76803434e-07j
 -2.5950322e-07-3.80604718e-07j ... -1.4245492e-01-1.23062588e-01j
 -1.5497009e-01+1.60139315e-02j  1.1954209e-01+5.45367301e-02j]",True,0,0,0,0,0,UAV,35.72785,-78.69681,30.014,-0.0678460225462913,-0.069206602871418,-0.0220923591405153,3.63,-3.47,0.08,0,5.02236995849569,"                                  0
time     2023-12-15 15:45:54.494781
type                            UAV
lat                       35.727851
lon                      -78.696805
alt                          30.014
pitch                     -0.067846
yaw                       -0.069207
roll                      -0.022092
vel_x                          3.63
vel_y                         -3.47
vel_z                          0.08
heading                           0
speed                       5.02237",69.10549225890175,69.00327235428463
0,249.0,3564,94.38235,92.649635,18.002,ZC,True,[ 2.15118499  1.66255301  1.65500346 -0.49900328],1.2424345,[-6.32948015 -6.09425283 -6.13462552 -5.35471324],-5.9782679354598764,-536.9222,[68.47712761 68.96575959 68.97330915 71.12731588],69.38587806091442,176.66341275,[ 275  676 1077 1478],[ 575  976 1377 1778],575,2.054127309027445,-0.4494470059309648,-1.08747458586115,0.4494470059309648,Takeoff,"[-7.2660902e-07+9.3421158e-07j  4.8440603e-07-5.3630663e-07j
 -1.7992223e-06-1.2975161e-06j ...  2.7834903e-02-2.6929045e-01j
  1.2350540e-01-1.8596571e-02j -5.2308515e-02+9.7566567e-02j]",True,0,0,0,0,0,UAV,35.727867,-78.69682,30.002,-0.0649076923727989,-0.0687756836414337,-0.0199563242495059,3.65,-3.48,0.03,0,5.043193432736841,"                                  0
time     2023-12-15 15:45:54.896655
type                            UAV
lat                       35.727867
lon                      -78.696824
alt                          30.002
pitch                     -0.064908
yaw                       -0.068776
roll                      -0.019956
vel_x                          3.65
vel_y                         -3.48
vel_z                          0.03
heading                           0
speed                      5.043193",69.10849050560468,69.07979349561059
0,249.4,3564,96.73026,95.036766,18.021,ZC,True,[2.49992361 2.44288025 2.43330357 0.428628  ],1.9511839,[-6.95952913 -6.90301859 -6.92064625 -6.17658155],-6.739943880982299,-334.64032,[68.128389   68.18543236 68.19500903 70.19968461],68.6771287479685,182.0168495,[ 276  677 1078 1479],[ 576  977 1378 1779],576,2.062586866587171,-0.4524416328920435,-1.0790152239812507,0.4524416328920435,Takeoff,"[ 2.0760257e-07+2.0760257e-07j -6.6605827e-07+9.6881206e-07j
 -1.1245139e-06-1.2456154e-06j ...  3.9957957e-03-3.2583572e-02j
  1.5271937e-03-1.5311105e-02j -2.6093567e-02-2.3683649e-02j]",True,0,0,0,0,0,UAV,35.727882,-78.696846,30.021,-0.063902348279953,-0.0675051733851432,-0.0217968076467514,3.67,-3.47,0.03,0,5.050811815936127,"                                  0
time     2023-12-15 15:45:55.299639
type                            UAV
lat                       35.727883
lon                      -78.696843
alt                          30.021
pitch                     -0.063902
yaw                       -0.067505
roll                      -0.021797
vel_x                          3.67
vel_y                         -3.47
vel_z                          0.03
heading                           0
speed                      5.050812",68.9222913629436,68.99926054608217
0,249.8,3564,97.90278,96.23011,18.02,ZC,True,[2.19553104 2.2466884  2.24845359 0.04377707],1.6836125,[-6.22313657 -6.0753809  -6.05707437 -5.26569701],-5.905322212164279,-550.38464,[68.43278157 68.3816242  68.37985902 70.58453553],68.94470008029938,182.0168495,[ 276  677 1078 1479],[ 576  977 1378 1779],576,2.0668052637726726,-0.4539114613123842,-1.0747969236165469,0.4539114613123842,Flight,"[ 5.0170621e-07-1.6608205e-06j -5.1900645e-07-3.8060472e-07j
  1.4532180e-06+7.9580985e-07j ...  1.6061796e-02-1.6297355e-02j
  1.4997570e-01+6.7537442e-02j -5.4293055e-02-6.7352951e-02j]",True,0,0,0,0,0,UAV,35.72789,-78.69685,30.02,-0.060714304447174,-0.0678770467638969,-0.0225643720477819,3.67,-3.45,0.01,0,5.037013003755301,"                                  0
time     2023-12-15 15:45:55.701694
type                            UAV
lat                       35.727892
lon                      -78.696853
alt                           30.02
pitch                     -0.060714
yaw                       -0.067877
roll                      -0.022564
vel_x                          3.67
vel_y                         -3.45
vel_z                          0.01
heading                           0
speed                      5.037013",68.95039875362791,68.9883484529256
0,250.2,3564,100.26393,98.62967,18.029,ZC,True,[ 1.86482068  2.00556013  1.9971189  -0.15081837],1.4291704,[-5.69633305 -5.5118183  -5.47633456 -4.82124479],-5.376432674778764,-254.51855,[68.76349193 68.62275248 68.6311937  70.77913097],69.19914226997065,182.0168495,[ 276  677 1078 1479],[ 576  977 1378 1779],576,2.074891134696323,-0.4567299200420712,-1.066711247353707,0.4567299200420712,Landing,"[ 4.4980558e-07+9.6881206e-07j -4.1520514e-07+1.0034124e-06j
  2.7680343e-07-2.4220301e-07j ...  1.1474180e-01-6.1876639e-03j
 -6.9666833e-02+1.5687481e-02j -7.7529876e-03+6.8960213e-03j]",True,0,0,0,0,0,UAV,35.72791,-78.69687,30.029,-0.0559728592634201,-0.0666452571749687,-0.0254575796425342,3.67,-3.46,0.02,0,5.043897302681727,"                                  0
time     2023-12-15 15:45:56.103973
type                            UAV
lat                       35.727908
lon                      -78.696872
alt                          30.029
pitch                     -0.055973
yaw                       -0.066645
roll                      -0.025458
vel_x                          3.67
vel_y                         -3.46
vel_z                          0.02
heading                           0
speed                      5.043897",68.94489597544056,69.03050721633461
0,250.6,3564,101.45146,99.83573,18.034,ZC,True,[ 0.98686943  1.01631926  0.936684   -1.33954503],0.4000819,[-6.97562684 -6.84581509 -6.98335922 -6.01541477],-6.705053977234618,-273.59686,[69.64144318 69.61199335 69.6916286  71.96785763],70.22823068996904,182.0168495,[ 276  677 1078 1479],[ 576  977 1378 1779],576,2.078766141687115,-0.4580622757130121,-1.0628363382029282,0.4580622757130121,Takeoff,"[-1.3148164e-06+1.3840172e-07j -8.4771051e-07+7.6120944e-07j
  8.9961117e-07-3.1140385e-07j ... -1.4372160e-01+1.1557052e-01j
 -5.7914682e-02+3.1411637e-02j  7.9135470e-02-4.3672629e-02j]",True,0,0,0,0,0,UAV,35.727917,-78.696884,30.034,-0.0537977814674377,-0.0667642205953598,-0.0245155375450849,3.66,-3.44,0.06,0,5.023226055036743,"                                  0
time     2023-12-15 15:45:56.506305
type                            UAV
lat                       35.727916
lon                      -78.696882
alt                          30.034
pitch                     -0.053798
yaw                       -0.066764
roll                      -0.024516
vel_x                          3.66
vel_y                         -3.44
vel_z                          0.06
heading                           0
speed                      5.023226",69.09081449513153,69.2700519110615
0,251.0,3564,103.81343,102.23645,18.026,ZC,True,[ 1.23907339  1.33299544  1.39142797 -1.00632879],0.739292,[-6.52198384 -6.06069592 -6.06370049 -5.29500739],-5.985346908479245,-569.0971,[69.38923922 69.29531717 69.23688463 71.63464139],69.8890206019409,187.37028625,[ 277  678 1079 1480],[ 577  978 1379 1780],577,2.0863288878841115,-0.4605993503136313,-1.0552737856477037,0.4605993503136313,Takeoff,"[-6.92008598e-07-1.1245139e-06j  2.76803434e-07-5.1900645e-07j
  8.30410272e-07-3.4600430e-07j ...  1.10448375e-01+6.2944755e-02j
  1.47456720e-01+5.1074315e-02j -9.87882167e-02-7.7181034e-02j]",True,0,0,0,0,0,UAV,35.727932,-78.6969,30.026,-0.048851478844881,-0.0667554810643196,-0.0262522120028734,3.65,-3.46,0.06,0,5.029681898490201,"                                  0
time     2023-12-15 15:45:56.908623
type                            UAV
lat                       35.727933
lon                      -78.696901
alt                          30.026
pitch                     -0.048851
yaw                       -0.066755
roll                      -0.026252
vel_x                          3.65
