index,time,center_freq,dist,h_dist,v_dist,wav_type,detected,power,avgPower,snr,avgSnr,freq_offset,path_loss,avg_pl,est_dist,peaks,orig_peaks,start_point,aod_theta,aod_phi,aoa_theta,aoa_phi,stage,corr,save_corr,rsrp,shadowing,multipath,delay,doppler,type,lat,lon,alt,pitch,yaw,roll,vel_x,vel_y,vel_z,heading,speed,vehicle,avg_pl_rolling,avg_pl_ewma
0,58.2,3686,35.968227,31.105461,18.06,ZC,True,[2.62810162 2.54686583 2.57607379 0.58207085],2.083278,[-5.59078419 -5.34526439 -5.3566556  -4.65716471],-5.237467225200474,-599.8559,[68.00021099 68.08144678 68.05223882 70.04624175],68.54503458397843,262.31840075,[ 291  692 1093 1494],[ 591  992 1393 1794],591,1.166269247336673,-0.0164216622114455,-1.975326627378047,0.0164216622114455,Takeoff,"[ 3.3216411e-06-5.5360687e-07j -1.5224189e-06+3.3216411e-06j
  1.1072137e-06-1.5224189e-06j ... -1.0605358e+00+3.8506567e-01j
 -1.0670288e-01-9.4412380e-01j  2.9410586e-01+4.0360719e-01j]",True,0,0,0,0,0,UAV,35.727367,-78.696236,30.06,-0.1154039651155471,0.1156031191349029,-0.1346547901630401,0.2,-0.21,0.03,0,0.291547594742265,"                                  0
time     2023-12-15 16:43:42.122357
type                            UAV
lat                       35.727368
lon                      -78.696234
alt                           30.06
pitch                     -0.115404
yaw                        0.115603
roll                      -0.134655
vel_x                           0.2
vel_y                         -0.21
vel_z                          0.03
heading                           0
speed                      0.291548",68.997606237324,68.95482043782049
0,58.6,3686,36.134724,31.297836,18.06,ZC,True,[ 1.292313    1.3603538   1.38761017 -0.34925239],0.92275614,[-6.90349423 -6.86567178 -6.86403253 -6.14649224],-6.69492269371907,516.59906,[69.3359996  69.2679588  69.24070244 70.977565  ],69.70555645933551,262.31840075,[ 291  692 1093 1494],[ 591  992 1393 1794],591,1.180044119285414,-0.0235855602030474,-1.9615517941571137,0.0235855602030474,Takeoff,"[ 2.7680343e-07+1.2456154e-06j  1.7300215e-07-4.4980558e-07j
  4.1520514e-07-1.1072137e-06j ... -4.1425847e-02+5.2525364e-02j
 -4.7179967e-02+3.8438238e-02j  6.0700364e-02-1.1505335e-02j]",True,0,0,0,0,0,UAV,35.72737,-78.696236,30.06,-0.1944969743490219,0.127668410539627,-0.2177117466926574,1.11,-1.05,0.03,0,1.5282342752340037,"                                  0
time     2023-12-15 16:43:42.525617
type                            UAV
lat                       35.727371
lon                      -78.696237
alt                           30.06
pitch                     -0.194497
yaw                        0.127668
roll                      -0.217712
vel_x                          1.11
vel_y                         -1.05
vel_z                          0.03
heading                           0
speed                      1.528234",69.02561899152276,69.10496764240834
0,59.0,3686,36.31706,31.504738,18.066,ZC,True,[2.65971061 2.67648866 2.52493324 0.41639211],2.0693812,[-6.92362387 -7.7644731  -7.6262144  -6.84494341],-7.289813695075383,-94.897125,[67.968602   67.95182395 68.10337936 70.21192049],68.55893145048202,267.6718375,[ 292  693 1094 1495],[ 592  993 1394 1795],592,1.1945145199361693,-0.0312611259475381,-1.9470814342724767,0.0312611259475381,Flight,"[-1.1072137e-06-1.52241887e-06j  2.2144275e-06-6.92008598e-07j
  5.5360687e-07+2.76803434e-07j ... -1.9529064e-01-1.31854072e-01j
  1.6950528e-01-7.08847940e-02j -1.8616416e-02+1.00590505e-01j]",True,0,0,0,0,0,UAV,35.727375,-78.69624,30.066,-0.1924687772989273,0.1275490075349807,-0.215038925409317,1.61,-1.51,0.01,0,2.2073287023005883,"                                  0
time     2023-12-15 16:43:42.929045
type                            UAV
lat                       35.727375
lon                      -78.696241
alt                          30.066
pitch                     -0.192469
yaw                        0.127549
roll                      -0.215039
vel_x                          1.61
vel_y                         -1.51
vel_z                          0.01
heading                           0
speed                      2.207329",68.94313122775797,68.99576040385733
0,59.4,3686,36.8713,32.127438,18.092,ZC,True,[ 1.25844656  1.27075529  1.20296831 -0.89952791],0.7081606,[-7.01992159 -6.75432598 -6.57572381 -5.94283204],-6.573200854717369,22.494452,[69.36986604 69.35755731 69.42534429 71.52784052],69.92015204166267,267.6718375,[ 292  693 1094 1495],[  592   993  1394  1795 14189],592,1.2374696178837994,-0.0546569233877243,-1.904126455565783,0.0546569233877243,Flight,"[ 5.5360687e-07-5.5360687e-07j  2.4912308e-06-2.2144275e-06j
  5.5360687e-07+6.9200860e-07j ...  1.5119253e-01+3.6643460e-01j
 -1.5662757e-01+1.1402585e-01j  2.9176189e-02-1.5897140e-01j]",True,0,0,0,0,0,UAV,35.727383,-78.69625,30.092,-0.1864738315343856,0.1260083764791488,-0.2180388569831848,2.54,-2.42,0.01,0,3.508290181840721,"                                  0
time     2023-12-15 16:43:43.332626
type                            UAV
lat                       35.727384
lon                      -78.696253
alt                          30.092
pitch                     -0.186474
yaw                        0.126008
roll                      -0.218039
vel_x                          2.54
vel_y                         -2.42
vel_z                          0.01
heading                           0
speed                       3.50829",68.98050651592543,69.18063873164289
0,59.8,3686,37.743446,33.114887,18.11,ZC,True,[ 2.05687081  2.17175143  2.25378102 -0.05346046],1.6072357,[-6.46892936 -6.26378405 -6.36667962 -5.48492072],-6.146078436363871,-494.8567,[68.5714418  68.45656118 68.37453158 70.68177307],69.02107690451913,262.31840075,[ 291  692 1093 1494],[ 591  992 1393 1794],591,1.293725554118429,-0.0848489507953076,-1.847870687491476,0.0848489507953076,Landing,"[ 1.4532180e-06+5.5360687e-07j  2.7680343e-07+3.4600430e-07j
  9.6881206e-07-7.6120944e-07j ... -5.6218363e-02-2.7268156e-01j
  6.1382789e-02+4.0590454e-02j -1.1718473e-02+1.0382257e-01j]",True,0,0,0,0,0,UAV,35.727398,-78.696266,30.11,-0.114583820104599,0.1160985976457595,-0.1246625334024429,3.24,-3.12,0.02,0,4.498044019348855,"                                  0
time     2023-12-15 16:43:43.736133
type                            UAV
lat                       35.727397
lon                       -78.69627
alt                           30.11
pitch                     -0.114584
yaw                        0.116099
roll                      -0.124663
vel_x                          3.24
vel_y                         -3.12
vel_z                          0.02
heading                           0
speed                      4.498044",69.04225322281883,69.14872636618713
0,60.2,3686,38.271076,33.71503,18.11,ZC,True,[ 1.5356819   1.5079967   1.53500682 -0.87581104],0.9257186,[-8.08010979 -8.19168664 -7.94131398 -7.06612694],-7.8198093370599135,-756.2387,[69.09263071 69.1203159  69.09330579 71.50412364],69.70259400962142,262.31840075,[ 291  692 1093 1494],"[  591   992  1393  1794 32284 33267 34797 36107 37014 37500 39957 40390
 40801 43283 44545 46299 47370 48557 49058 51054 52162 54191 54611]",591,1.3239808456945497,-0.1009894172004502,-1.817615490696652,0.1009894172004502,Takeoff,"[ 2.0760258e-06+1.1072137e-06j  1.6608205e-06+8.3041027e-07j
 -2.7680343e-07-2.7680344e-06j ... -7.4731809e-01-6.4137876e-01j
  1.8411553e-01-2.4325666e-01j  1.4875001e-01+9.8272279e-02j]",True,0,0,0,0,0,UAV,35.727406,-78.69628,30.11,-0.0772442370653152,0.1121805384755134,-0.0781266242265701,3.41,-3.27,0.06,0,4.724891533146555,"                                  0
time     2023-12-15 16:43:44.138941
type                            UAV
lat                       35.727405
lon                      -78.696279
alt                           30.11
pitch                     -0.077244
yaw                        0.112181
roll                      -0.078127
vel_x                          3.41
vel_y                         -3.27
vel_z                          0.06
heading                           0
speed                      4.724892",69.169662690217,69.25949989496006
0,60.6,3686,39.44695,35.019264,18.158,ZC,True,[ 2.08964115  2.16780681  2.13777312 -0.05960134],1.583905,[-6.39424148 -7.01471961 -6.930789   -6.08241623],-6.605541578271865,-375.00696,[68.53867146 68.46050579 68.49053949 70.68791394],69.0444076700981,262.31840075,[ 291  692 1093 1494],[ 591  992 1393 1794],591,1.3829517989801006,-0.1332426036642239,-1.7586447300312211,0.1332426036642239,Takeoff,"[ 2.45663045e-06+0.0000000e+00j  5.53606867e-07+3.2870409e-07j
  0.00000000e+00-8.9961117e-07j ...  1.95565775e-01+4.8967993e-01j
 -1.23953685e-01+8.9071818e-02j -5.53277470e-02-1.7709690e-01j]",True,0,0,0,0,0,UAV,35.72742,-78.6963,30.158,-0.0528379343450069,0.1133488565683364,-0.0454985760152339,3.49,-3.36,0.06,0,4.844925180020843,"                                  0
time     2023-12-15 16:43:44.541746
type                            UAV
lat                        35.72742
lon                      -78.696298
alt                          30.158
pitch                     -0.052838
yaw                        0.113349
roll                      -0.045499
vel_x                          3.49
vel_y                         -3.36
vel_z                          0.06
heading                           0
speed                      4.844925",69.22376764989933,69.21648144996092
0,61.0,3686,40.08199,35.719856,18.184,ZC,True,[ 1.24522996  1.38693422  1.44208832 -0.33826141],0.93399775,[-5.78845638 -5.86349578 -5.89424462 -5.27617508],-5.705592962605202,29.109991,[69.38308264 69.24137838 69.18622428 70.96657401],69.69431482926262,267.6718375,[ 292  693 1094 1495],"[  592   993  1394  1795  4345  5016  6300  6938  7827  9420  9906 10600
 11163 11815 12802 13887 15284 18300 19369 20557 21073 21611 23056 24440
 26189 26612 27398 28056 29066 29718]",592,1.4106408465687748,-0.1483118211536991,-1.7309557792622068,0.1483118211536991,Takeoff,"[ 3.8752482e-06-2.2144275e-06j  2.2144275e-06+1.7992223e-06j
 -3.0448377e-06-1.1072137e-06j ... -2.4050620e-01+7.2533779e-02j
  8.7911665e-02-1.0418396e-02j -1.2999243e-02-4.5500118e-02j]",True,0,0,0,0,0,UAV,35.72743,-78.696304,30.184,-0.0538220405578613,0.1140987500548362,-0.0399697721004486,3.51,-3.4,0.1,0,4.887749993606465,"                                  0
time     2023-12-15 16:43:44.944400
type                            UAV
lat                       35.727427
lon                      -78.696307
alt                          30.184
pitch                     -0.053822
yaw                        0.114099
roll                       -0.03997
vel_x                          3.51
vel_y                          -3.4
vel_z                           0.1
heading                           0
speed                       4.88775",69.20138973772634,69.31204812586878
0,61.4,3686,41.370644,37.16009,18.184,ZC,True,[2.32346046 2.21199606 2.28884739 0.05566388],1.7199919,[-6.2101171  -6.32166372 -6.26099123 -5.44998048],-6.06068813200122,-686.9339,[68.30485214 68.41631654 68.33946522 70.57264873],68.90832065662227,267.6718375,[ 292  693 1094 1495],[ 592  993 1394 1795],592,1.4632804148673784,-0.1765032237272001,-1.678316400526383,0.1765032237272001,Takeoff,"[ 8.3041027e-07+1.93762412e-06j  2.7680343e-07-1.24561541e-06j
  1.5916197e-06+1.52241887e-06j ... -1.5072916e-01+1.25955522e-01j
  1.2879111e-01-1.15547165e-01j -1.2513730e-02+9.30833220e-02j]",True,0,0,0,0,0,UAV,35.727444,-78.69633,30.184,-0.0554466731846332,0.1143615543842315,-0.0453222878277301,3.56,-3.37,0.17,0,4.90503822615074,"                                  0
time     2023-12-15 16:43:45.347144
type                            UAV
lat                       35.727443
lon                      -78.696326
alt                          30.184
pitch                     -0.055447
yaw                        0.114362
roll                      -0.045322
vel_x                          3.56
vel_y                         -3.37
vel_z                          0.17
heading                           0
speed                      4.905038",69.16873868944027,69.23130263198736
0,61.8,3686,42.72603,38.684494,18.139,ZC,True,[2.21195422 2.2114695  0.27598537],1.5664697,[-6.83170832 -7.23112023 -6.54530142],-6.869376655375558,-250.1285,[68.41635838 68.4168431  70.35232723],69.0618429063825,273.02527425,[ 293 1095 1496],[ 593 1395 1796],593,1.512713956526496,-0.2024462314516181,-1.6288830474109814,0.2024462314516181,Takeoff,"[-1.3840172e-06-1.1072137e-06j  9.6881206e-07-1.6608205e-06j
 -2.9064361e-06-1.3840172e-07j ... -7.6041780e-02-2.3556969e-01j
  2.7602616e-01+9.5682092e-02j -1.1594189e-01+8.6673386e-03j]",True,0,0,0,0,0,UAV,35.72746,-78.69634,30.139,-0.0577008351683616,0.1142898052930831,-0.0474480018019676,3.6,-3.39,0.16,0,4.947494315307497,"                                  0
time     2023-12-15 16:43:45.750228
type                            UAV
lat                       35.727459
lon                      -78.696344
alt                          30.139
pitch                     -0.057701
yaw                         0.11429
roll                      -0.047448
vel_x                           3.6
vel_y                         -3.39
vel_z                          0.16
heading                           0
speed                      4.947494",69.21622315119647,69.19741068685559
0,62.2,3686,43.44916,39.484016,18.134,ZC,True,[1.98395952 2.03200237 2.10627173 0.11187736],1.5585277,[-5.6995005  -5.65091794 -5.65229192 -4.97701578],-5.494931537893986,57.563026,[68.64435308 68.59631024 68.52204087 70.51643524],69.06978485838695,273.02527425,[ 293  694 1095 1496],[ 593  994 1395 1796],593,1.5363961631297671,-0.2150199196245292,-1.605200935589179,0.2150199196245292,Takeoff,"[ 2.7680343e-07-6.9200858e-08j  1.0034124e-06-1.3840172e-06j
 -1.0726133e-06+5.1900645e-07j ...  8.1828631e-02+4.2508565e-02j
  1.0501410e-01-3.4347083e-02j -7.5900197e-02-8.0875047e-03j]",True,0,0,0,0,0,UAV,35.727467,-78.69635,30.134,-0.061393029987812,0.1146429479122161,-0.0520819723606109,3.62,-3.36,0.12,0,4.940485806072111,"                                  0
time     2023-12-15 16:43:46.152911
type                            UAV
lat                       35.727467
lon                      -78.696354
alt                          30.134
pitch                     -0.061393
yaw                        0.114643
roll                      -0.052082
vel_x                          3.62
vel_y                         -3.36
vel_z                          0.12
heading                           0
speed                      4.940486",69.26869817863732,69.17188552115536
0,62.6,3686,44.958996,41.136986,18.14,ZC,True,[2.24657404 2.28430596 2.10327016 0.07416092],1.6770778,[-6.23590326 -6.21749325 -6.26565233 -5.32888221],-6.01198276094679,-34.19441,[68.38173857 68.34400664 68.52504245 70.55415168],68.95123483435289,273.02527425,[ 293  694 1095 1496],[ 593  994 1395 1796],593,1.582019157945929,-0.2393882522308244,-1.55957812931688,0.2393882522308244,Takeoff,"[ 1.3840172e-06+2.4912308e-06j  0.0000000e+00-1.2456154e-06j
  1.6608205e-06+8.3041027e-07j ... -1.3738073e-01+2.6192546e-01j
 -1.9797172e-01-2.0990171e-01j  1.5225829e-01+1.5687697e-02j]",True,0,0,0,0,0,UAV,35.72748,-78.69637,30.14,-0.0583800375461578,0.1140446215867996,-0.0562079660594463,3.69,-3.4,0.09,0,5.018386194784136,"                                  0
time     2023-12-15 16:43:46.555781
type                            UAV
lat                       35.727483
lon                      -78.696372
alt                           30.14
pitch                      -0.05838
yaw                        0.114045
roll                      -0.056208
vel_x                          3.69
vel_y                          -3.4
vel_z                          0.09
heading                           0
speed                      5.018386",69.19326601613906,69.12775538378587
0,63.0,3686,45.7545,42.00796,18.133,ZC,True,[2.81645386 2.7868766  2.78285926 0.43499814],2.205297,[-6.39284416 -6.01979117 -5.98859423 -5.14897996],-5.887552380389991,-631.86176,[67.81185875 67.841436   67.84545334 70.19331447],68.42301564008409,278.378711,[ 294  695 1096 1497],[ 594  995 1396 1797],594,1.6039790074942677,-0.250906441579997,-1.53761837556924,0.250906441579997,Takeoff,"[-2.7680343e-07-2.7680343e-07j  1.6608205e-06-2.7680343e-07j
 -2.7680343e-07+6.9200860e-07j ...  3.6548987e-01-1.9930539e-01j
  1.1465932e-01+4.0938246e-01j -1.6974285e-01-1.8408729e-01j]",True,0,0,0,0,0,UAV,35.727493,-78.69638,30.133,-0.0584146529436111,0.1148623526096344,-0.0580895766615867,3.74,-3.42,0.09,0,5.068737515397695,"                                  0
time     2023-12-15 16:43:46.958409
type                            UAV
lat                       35.727491
lon                      -78.696382
alt                          30.133
pitch                     -0.058415
yaw                        0.114862
roll                       -0.05809
vel_x                          3.74
vel_y                         -3.42
vel_z                          0.09
heading                           0
speed                      5.068738",69.17967443509926,68.98680743502254
0,63.4,3686,47.40969,43.807842,18.126,ZC,True,[ 1.48256251  1.41897298  1.5328764  -0.11438461],1.0800068,[-5.90609087 -6.66505835 -6.68847231 -6.06987091],-6.332373107620876,-480.813,[69.1457501  69.20933962 69.0954362  70.74269722],69.54830578509957,278.378711,[ 294  695 1096 1497],[ 594  995 1396 1797],594,1.64548277235021,-0.2724979431635539,-1.496114802314759,0.2724979431635539,Takeoff,"[ 2.0760257e-07+1.2456154e-06j  2.7680343e-07-6.2280770e-07j
 -1.3840172e-07-2.7680343e-07j ...  1.5669787e-01-2.6766905e-01j
  7.8924827e-02+7.9595931e-02j -8.5543193e-02+6.5368652e-02j]",True,0,0,0,0,0,UAV,35.72751,-78.6964,30.126,-0.0514648519456386,0.1152993664145469,-0.0556169524788856,3.77,-3.45,0.06,0,5.110675102175837,"                                  0
time     2023-12-15 16:43:47.361613
type                            UAV
lat                       35.727508
lon                        -78.6964
alt                          30.126
pitch                     -0.051465
yaw                        0.115299
roll                      -0.055617
vel_x                          3.77
vel_y                         -3.45
vel_z                          0.06
heading                           0
speed                      5.110675",69.14248980944295,69.09910710505258
0,63.8,3686,49.15497,45.697647,18.109,ZC,True,[ 1.60177785  1.54471703  1.64045939 -0.39435655],1.0981494,[-6.77581995 -6.83315121 -6.83441268 -6.09688832],-6.635068039429521,-279.13904,[69.02653475 69.08359557 68.98785322 71.02266915],69.53016317280819,283.73214775,[ 295  696 1097 1498],"[  595   996  1397  1798  4884  6429  8158 10848 11294 12227 14821 15928
 17742 19878 26842]",595,1.6840888197095307,-0.2921212045540887,-1.457508948595294,0.2921212045540887,Takeoff,"[ 8.3041027e-07+1.9376241e-06j -2.2144275e-06-1.9376241e-06j
  2.2144275e-06-1.5916197e-06j ...  2.7863035e-01-1.7571534e-01j
  7.6494075e-02+2.1673307e-01j -9.4520345e-02-1.3104643e-01j]",True,0,0,0,0,0,UAV,35.727524,-78.69642,30.109,-0.0452861487865448,0.1138727515935897,-0.0516005828976631,3.79,-3.51,0.08,0,5.166294610259852,"                                  0
time     2023-12-15 16:43:47.764482
type                            UAV
lat                       35.727525
lon                      -78.696419
alt                          30.109
pitch                     -0.045286
yaw                        0.113873
roll                      -0.051601
vel_x                          3.79
vel_y                         -3.51
vel_z                          0.08
heading                           0
speed                      5.166295",69.19339843627185,69.18531831861269
0,64.2,3686,50.061043,46.67477,18.099,ZC,True,[2.71360519 2.86613783 2.86348152 0.64026984],2.2708735,[-7.96798348 -6.87930759 -6.79263902 -5.989972  ],-6.907475524528684,-301.5704,[67.91470742 67.76217478 67.76483108 69.98804277],68.35743901103146,283.73214775,[ 295  696 1097 1498],[ 595  996 1397 1798],595,1.702062645407049,-0.3010519699141591,-1.4395352207368817,0.3010519699141591,Takeoff,"[-5.7090710e-07+1.3840172e-07j  0.0000000e+00+6.9200860e-07j
  4.8440603e-07-8.9961117e-07j ...  3.4192491e-02+3.8216147e-01j
 -2.2527523e-01-1.0275497e-02j  5.2341454e-02-1.3376284e-01j]",True,0,0,0,0,0,UAV,35.727535,-78.69643,30.099,-0.0421420000493526,0.114272765815258,-0.0526744797825813,3.78,-3.5,0.04,0,5.151698748956503,"                                  0
time     2023-12-15 16:43:48.167614
type                            UAV
lat                       35.727534
lon                      -78.696429
alt                          30.099
pitch                     -0.042142
yaw                        0.114273
roll                      -0.052674
vel_x                          3.78
vel_y                          -3.5
vel_z                          0.04
heading                           0
speed                      5.151699",69.05888293641286,69.01974245708263
0,64.6,3686,51.941643,48.68226,18.11,ZC,True,[ 1.59111322  1.51599269 -0.67452632],0.81085986,[-6.91665775 -7.06300633 -6.280321  ],-6.753328362270994,-58.6452,[69.03719938 69.11231991 71.30283893],69.81745273909262,283.73214775,[ 295  697 1498],[ 595  997 1798],595,1.7360127603799451,-0.3179204251817191,-1.405585302461418,0.3179204251817191,Takeoff,"[-8.30410272e-07+1.4532180e-06j -3.04483774e-06+8.3041027e-07j
  1.03801284e-07-2.7680343e-07j ...  6.94483876e-01-2.3884633e+00j
  1.53205884e+00+5.6251687e-01j -8.89674127e-01+4.0162379e-01j]",True,0,0,0,0,0,UAV,35.72755,-78.69645,30.11,-0.0408542342483997,0.1146055608987808,-0.0533100515604019,3.75,-3.54,0.03,0,5.157034031301325,"                                  0
time     2023-12-15 16:43:48.570189
type                            UAV
lat                       35.727551
lon                      -78.696448
alt                           30.11
pitch                     -0.040854
yaw                        0.114606
roll                       -0.05331
vel_x                          3.75
vel_y                         -3.54
vel_z                          0.03
heading                           0
speed                      5.157034",69.13618744331231,69.17928451349529
0,65.0,3686,52.905712,49.709213,18.111,ZC,True,[2.47331294 2.59260951 2.61645828 0.30752919],1.9974775,[-5.47122424 -5.44371407 -5.50469211 -4.72552753],-5.286289484352667,-409.86136,[68.15499966 68.0357031  68.01185433 70.32078342],68.63083512714718,289.0855845,[ 296  697 1098 1499],[ 596  997 1398 1799],596,1.751824146497148,-0.325582528052113,-1.389774015202535,0.325582528052113,Takeoff,"[ 1.6608205e-06+9.6881206e-07j -8.3041027e-07+6.9200860e-07j
 -1.6608205e-06+5.5360687e-07j ...  2.6545588e-02-1.3159290e-01j
  1.8620816e-01+1.4370583e-01j -4.7518637e-02-5.9822756e-03j]",True,0,0,0,0,0,UAV,35.72756,-78.69646,30.111,-0.0368357598781585,0.1136037856340408,-0.0497991293668746,3.74,-3.53,0.03,0,5.142898015710598,"                                  0
time     2023-12-15 16:43:48.972726
type                            UAV
lat                       35.727559
lon                      -78.696458
alt                          30.111
pitch                     -0.036836
yaw                        0.113604
roll                      -0.049799
vel_x                          3.74
vel_y                         -3.53
vel_z                          0.03
heading                           0
speed                      5.142898",69.02983947310078,69.0695946362198
0,65.4,3686,54.867176,51.79817,18.093,ZC,True,[1.97716141 2.09219438 2.09455748 0.00998476],1.5434746,[-6.44954329 -6.75469265 -6.69748578 -5.90692687],-6.452162148916885,-421.7501,[68.65115119 68.53611822 68.53375512 70.61832785],69.08483809674259,289.0855845,[ 296  697 1098 1499],[ 596  997 1398 1799],596,1.7815478000999174,-0.339608383705084,-1.3600505593164662,0.339608383705084,Takeoff,"[ 1.0380129e-06+6.9200858e-08j  8.3041027e-07-1.5310690e-06j
  2.7680343e-07+1.3840172e-06j ... -4.4596356e-01-3.9571817e-03j
  1.3192452e-02-3.2418546e-01j  1.0605267e-01+1.9419017e-01j]",True,0,0,0,0,0,UAV,35.727577,-78.69648,30.093,-0.0352709852159023,0.1141189336776733,-0.0461717396974563,3.71,-3.58,0.06,0,5.155977113991101,"                                  0
time     2023-12-15 16:43:49.375750
type                            UAV
lat                       35.727576
lon                      -78.696477
alt                          30.093
pitch                     -0.035271
yaw                        0.114119
roll                      -0.046172
vel_x                          3.71
vel_y                         -3.58
vel_z                          0.06
heading                           0
speed                      5.155977",69.04749121711279,69.0726433283245
0,65.8,3686,56.87603,53.921482,18.093,ZC,True,[2.56954128 2.57763232 2.56675828 0.35476324],2.0171738,[-5.86916366 -5.69247831 -5.63469278 -4.89542586],-5.522940153258977,-705.0114,[68.05877132 68.05068029 68.06155432 70.27354937],68.61113882456405,294.43902124999994,[ 297  698 1099 1500],[ 597  998 1399 1800],597,1.8083450153297176,-0.3520144981111665,-1.3332535418034264,0.3520144981111665,Takeoff,"[-6.9200860e-07+1.3840172e-07j  6.9200860e-07-1.1072137e-06j
  1.6608205e-06+1.1764146e-06j ...  1.6042641e-01-2.4152069e-01j
 -3.4371234e-02+1.6703980e-01j -4.5137782e-02+8.6063724e-03j]",True,0,0,0,0,0,UAV,35.727592,-78.696495,30.093,-0.0321487188339233,0.1129515692591667,-0.0470052435994148,3.65,-3.54,0.03,0,5.084781214565678,"                                  0
time     2023-12-15 16:43:49.778724
type                            UAV
lat                       35.727593
lon                      -78.696497
alt                          30.093
pitch                     -0.032149
yaw                        0.112952
roll                      -0.047005
vel_x                          3.65
vel_y                         -3.54
vel_z                          0.03
heading                           0
speed                      5.084781",69.00242080893096,68.98034242756925
0,66.2,3686,57.907284,55.004204,18.105,ZC,True,[1.71121763e+00 1.82038814e+00 1.90630995e+00 1.90128100e-03],1.3599542,[-7.07896031 -6.43408012 -6.49108341 -5.83864899],-6.4606932056417765,40.678696,[68.91709497 68.80792446 68.72200265 70.62641132],69.26835835248838,299.792458,[ 298  699 1100 1501],"[  598   999  1400  1801  4778  5552  7235  9859 10319 10792 11497 13843
 15168 17210 19372 20928 21592 22102 22639 23439 23947 25250 26408 26922
 27765 28358 29449 43208 46225 48481 53874]",598,1.820824741706419,-0.3577409854618488,-1.3207739153042846,0.3577409854618488,Takeoff,"[ 3.3216411e-06+8.3041027e-07j  4.1520516e-06-5.5360687e-07j
 -2.7680343e-07-3.3216411e-06j ...  1.3847977e-01-1.6289849e+00j
  1.7253346e+00+1.2852814e+00j -1.0000310e+00-3.3887604e-01j]",True,0,0,0,0,0,UAV,35.7276,-78.69651,30.105,-0.0330680161714553,0.1134302765130996,-0.0481612794101238,3.64,-3.59,0.06,0,5.112856344549493,"                                  0
time     2023-12-15 16:43:50.181685
type                            UAV
lat                       35.727601
lon                      -78.696507
alt                          30.105
pitch                     -0.033068
yaw                         0.11343
roll                      -0.048161
vel_x                          3.64
vel_y                         -3.59
vel_z                          0.06
heading                           0
speed                      5.112856",69.0222781583411,69.03794561255465
0,66.6,3686,59.97859,57.179184,18.11,ZC,True,[2.71461412 2.69699256 2.65387627 0.59961287],2.166274,[-5.77205117 -5.96670135 -5.86986769 -5.10798545],-5.679151417234978,-138.91,[67.91369849 67.93132005 67.97443634 70.02869973],68.4620386516875,299.792458,[ 298  699 1100 1501],[ 598  999 1400 1801],598,1.8440267662475625,-0.3680628278834427,-1.2975720894991525,0.3680628278834427,Takeoff,"[ 4.1520514e-07+6.5740818e-07j  2.7680343e-07+1.3148164e-06j
  1.8684232e-06+9.6881206e-07j ...  6.1167693e-01-2.0890784e-01j
  3.5427656e-02+5.6721550e-01j -1.2393632e-01-2.2199279e-01j]",True,0,0,0,0,0,UAV,35.72762,-78.696526,30.11,-0.0373132675886154,0.1134153753519058,-0.0450213067233562,3.58,-3.58,0.09,0,5.063684429345889,"                                  0
time     2023-12-15 16:43:50.583771
type                            UAV
lat                       35.727618
lon                      -78.696526
alt                           30.11
pitch                     -0.037313
yaw                        0.113415
roll                      -0.045021
vel_x                          3.58
vel_y                         -3.58
vel_z                          0.09
heading                           0
speed                      5.063684",68.97335854007456,68.9227642203787
0,67.0,3686,62.071396,59.37624,18.092,ZC,True,[1.76866929 1.56913282 1.61141789 1.05579858],1.5012547,[-6.84050007 -6.47825057 -6.47609727 -6.32331306],-6.529540243767848,-219.02664,[68.85964332 69.05917978 69.01689471 69.57251402],69.12705795963706,305.14589475,[ 299  700 1101 1502],"[  599  1000  1401  1802 32193 32638 33304 33828 34722 35351 36103 36658
 37626 38204 38787 39315 39754 40230 40662 41180 42025 43017 43935 44388
 45087 45803 46594 47240 47928 48337 49061 49617 50384 50853 51520 52143
 52807 54007 54412 55385 55924]",599,1.8651601473885828,-0.3770640460691291,-1.2764389070942057,0.3770640460691291,Takeoff,"[ 5.5360687e-07-5.5360687e-07j  5.5360687e-07+0.0000000e+00j
  3.0448377e-06+8.3041027e-07j ...  6.5851420e-01-2.6535594e-01j
  3.1806707e-01+9.9064159e-01j -3.8230652e-01-4.8408464e-01j]",True,0,0,0,0,0,UAV,35.727634,-78.69655,30.092,-0.0365132726728916,0.112931378185749,-0.0434978790581226,3.53,-3.57,0.06,0,5.020896334321193,"                                  0
time     2023-12-15 16:43:50.986812
type                            UAV
lat                       35.727634
lon                      -78.696546
alt                          30.092
pitch                     -0.036513
yaw                        0.112931
roll                      -0.043498
vel_x                          3.53
vel_y                         -3.57
vel_z                          0.06
heading                           0
speed                      5.020896",69.04376277202985,68.96362296823108
0,67.4,3686,63.123867,60.47653,18.089,ZC,True,[2.99685804 3.14560259 3.16974761 1.90306472],2.8038182,[-5.5477709  -5.63875742 -5.61364058 -5.13461899],-5.483696970897398,-191.2523,[67.63145457 67.48271002 67.458565   68.72524789],67.82449436759387,305.14589475,[ 299  700 1101 1502],[  599  1000  1401  1802 32173],599,1.8749962580369648,-0.3812097067929893,-1.2666028953043056,0.3812097067929893,Takeoff,"[ 0.0000000e+00+5.5360687e-07j  5.5360687e-07-5.5360687e-07j
  2.7680343e-07-1.2456154e-06j ... -3.1003258e-01-1.7434187e-01j
  4.3357119e-01-2.1014896e-01j -2.0331420e-01+1.6342647e-01j]",True,0,0,0,0,0,UAV,35.727642,-78.696556,30.089,-0.039156898856163,0.1135266050696373,-0.0398211553692817,3.53,-3.52,0.04,0,4.985268297694718,"                                  0
time     2023-12-15 16:43:51.388810
type                            UAV
lat                       35.727642
lon                      -78.696555
alt                          30.089
pitch                     -0.039157
yaw                        0.113527
roll                      -0.039821
vel_x                          3.53
vel_y                         -3.52
vel_z                          0.04
heading                           0
speed                      4.985268",68.87138163027927,68.73579724810045
0,67.8,3686,65.24299,62.688675,18.077,ZC,True,[ 0.83798256  0.99744026  0.88126781 -1.12944881],0.39681044,[-7.21025401 -6.82103361 -6.74066419 -5.98185811],-6.688452480566975,134.4238,[69.79033005 69.63087235 69.74704479 71.75776142],70.23150215155866,310.4993315,[ 300  701 1102 1503],[ 600 1001 1402 1803],600,1.893841925602172,-0.3890571321612172,-1.2477574244369756,0.3890571321612172,Takeoff,"[ 6.2280770e-07-1.7300215e-06j  1.1764146e-06+1.3840172e-07j
 -2.4912308e-06+1.1764146e-06j ...  4.7247732e-01+4.4212289e-02j
 -4.1215852e-01+1.4362292e-03j  1.8326491e-01+2.5056385e-02j]",True,0,0,0,0,0,UAV,35.727657,-78.69657,30.077,-0.0417835637927055,0.1130325645208358,-0.0451449081301689,3.55,-3.53,0.06,0,5.006695517005203,"                                  0
time     2023-12-15 16:43:51.793556
type                            UAV
lat                       35.727658
lon                      -78.696575
alt                          30.077
pitch                     -0.041784
yaw                        0.113033
roll                      -0.045145
vel_x                          3.55
vel_y                         -3.53
vel_z                          0.06
heading                           0
speed                      5.006696",68.94151552815433,69.03493822879545
0,68.2,3686,66.308495,63.796574,18.078,ZC,True,[2.13791021 2.20954766 2.28573655 0.15762706],1.6977054,[-5.65959444 -5.72949494 -5.76872483 -5.02760409],-5.546354576380057,-418.31183,[68.49040239 68.41876494 68.34257605 70.47068555],68.93060723370417,310.4993315,[ 300  701 1102 1503],"[  600  1001  1402  1803 36312 36863 37339 39036 40460 42922 43513 45159
 46070 47704 48190 49226 50427 51221 53362 56196]",600,1.9027140234789877,-0.3927377020661112,-1.2388854243995462,0.3927377020661112,Takeoff,"[-1.1072137e-06-1.9376241e-06j  5.5360687e-07+5.5360688e-06j
  1.3840172e-06+2.7680344e-06j ...  1.4248623e+00-8.8462224e-03j
 -1.5325998e+00+1.7785423e+00j  5.6275952e-01-1.0000315e+00j]",True,0,0,0,0,0,UAV,35.727665,-78.69659,30.078,-0.0408341512084007,0.112440638244152,-0.0410111397504806,3.51,-3.5,0.03,0,4.956914362786591,"                                  0
time     2023-12-15 16:43:52.200119
type                            UAV
lat                       35.727666
lon                      -78.696584
alt                          30.078
pitch                     -0.040834
yaw                        0.112441
roll                      -0.041011
vel_x                          3.51
vel_y                          -3.5
vel_z                          0.03
heading                           0
speed                      4.956914",68.99883235042161,69.01407202977701
0,68.6,3686,68.455765,66.02668,18.074,ZC,True,[ 0.73375193  0.77656585  0.74526594 -1.58801112],0.16689315,[-7.1467797  -6.87862666 -6.9380744  -6.09155615],-6.763759230455422,-328.92783,[69.89456067 69.85174676 69.88304666 72.21632373],70.46141945426952,310.4993315,[ 300  701 1102 1503],[ 600 1001 1402 1803],600,1.9195617353256813,-0.3995949434698532,-1.2220379082316812,0.3995949434698532,Takeoff,"[ 4.1520514e-07+4.1520514e-07j -2.7680343e-07+1.3494167e-06j
  4.1520514e-07-5.5360687e-07j ... -9.4853621e-03-1.9823389e-01j
  2.3844381e-01+2.4820660e-01j -1.0071188e-01-1.2549189e-01j]",True,0,0,0,0,0,UAV,35.727684,-78.6966,30.074,-0.0428620092570781,0.1128709316253662,-0.0459093153476715,3.55,-3.52,0.04,0,4.999449969746672,"                                  0
time     2023-12-15 16:43:52.602237
type                            UAV
lat                       35.727682
lon                      -78.696603
alt                          30.074
pitch                     -0.042862
yaw                        0.112871
roll                      -0.045909
vel_x                          3.55
vel_y                         -3.52
vel_z                          0.04
heading                           0
speed                       4.99945",69.06322902193929,69.30354151467759
0,69.0,3686,70.6468,68.299126,18.061,ZC,True,[2.44807528 2.50266814 2.53679479 0.52745775],2.003749,[-6.25516767 -6.04238202 -6.01342855 -5.28533608],-5.899078581954949,-57.3852,[68.18023733 68.12564446 68.09151781 70.10085485],68.62456361160282,315.85276824999994,[ 301  702 1103 1504],"[  601  1002  1403  1804  4292  5027  5651  6665  7098  7827  8641  9887
 11645 12215 13065 13634 14760 15402 16510 17226 17740 18817 19578 20001
 21509 22526 23059 23724 24236 25179 25603 26594 27672 28285 33638 34373
 35525 37449 39052 40408 40927 42143 42574 44168 44758 45283 46627 47505
 48941 50324 51456 52815 53272 53807 55760 56190]",601,1.935513530659189,-0.4059265383674587,-1.2060863106154045,0.4059265383674587,Landing,"[ 1.6608205e-06+2.4912308e-06j -1.3840172e-06+3.5984447e-06j
 -5.5360688e-06-2.2144275e-06j ...  1.1849269e+00-1.0535946e+00j
  4.4884589e-01+2.6408264e-01j -4.8680201e-01+2.5348774e-01j]",True,0,0,0,0,0,UAV,35.7277,-78.696625,30.061,-0.037135861814022,0.1110353842377662,-0.0460861437022686,3.52,-3.52,0.02,0,4.978071915912826,"                                  0
time     2023-12-15 16:43:53.004528
type                            UAV
lat                       35.727698
lon                      -78.696623
alt                          30.061
pitch                     -0.037136
yaw                        0.111035
roll                      -0.046086
vel_x                          3.52
vel_y                         -3.52
vel_z                          0.02
heading                           0
speed                      4.978072",69.06260187038485,69.16774593406187
0,69.4,3686,71.74618,69.43751,18.054,ZC,True,[ 1.41597704  1.32743703  1.38314377 -0.54987249],0.89417136,[-6.74789496 -7.07586907 -7.1271635  -6.32884774],-6.819943815128928,-398.48917,[69.21233556 69.30087557 69.24516884 71.1781851 ],69.7341412680043,321.20620499999995,[ 302  703 1104 1505],"[  602  1003  1404  1805  5562  6575  7631  8434 10316 11180 13461 14713
 15678 16711 17203 18027 18742 19356 20097 21397 22569 24176 25345 25819
 26913 27326 27847 28791 32165 32595 34760 35461 37564 38406 39816 42351
 43412 44523 48212 49427 49943 51514 53232 53687 54625]",602,1.9429481165264395,-0.4088061208104641,-1.19865182360679,0.4088061208104641,Takeoff,"[ 1.9376241e-06-6.0896755e-06j -1.1072137e-06+1.6608205e-06j
 -8.3041027e-07-1.6608205e-06j ...  7.1513623e-01-1.8393978e+00j
  1.4641294e+00+1.1405522e+00j -9.4820899e-01-1.6342197e-01j]",True,0,0,0,0,0,UAV,35.727707,-78.69663,30.054,-0.0408860817551612,0.11235111951828,-0.048010628670454,3.51,-3.54,0.04,0,4.98530841573518,"                                  0
time     2023-12-15 16:43:53.406653
type                            UAV
lat                       35.727706
lon                      -78.696633
alt                          30.054
pitch                     -0.040886
yaw                        0.112351
roll                      -0.048011
vel_x                          3.51
vel_y                         -3.54
vel_z                          0.04
heading                           0
speed                      4.985308",69.12753218751104,69.28102500085087
0,69.8,3686,73.957504,71.721054,18.05,ZC,True,[ 1.17069102  0.99758207  1.11410509 -1.30237218],0.4950015,[-7.52451397 -6.60171714 -6.73377517 -5.90326649],-6.690818191325109,476.8198,[69.45762158 69.63073054 69.51420752 71.93068478],70.13331110618442,321.20620499999995,[ 302  703 1104 1505],"[  602  1003  1404  1805  6034  7202  9347 10055 10692 11841 13744 14701
 15479 16077 16901 17887 20382 20859 21886 22513 23143 24177 25111 25819
 27531 28651 29071 29928 32387 33063 34398 35060 35700 36706 37388 37886
 38362 38807 39645 40758 41502 42086 42673 43603 44129 44555 44998 45757
 46213 47211 47821 48744 49496 50740 51205 52021 52577 53257 53992 55218
 56267]",602,1.9569640776106607,-0.4141895060331166,-1.184636060239888,0.4141895060331166,Takeoff,"[-2.7680344e-06-4.4288549e-06j  1.6608205e-06+1.1072137e-06j
 -2.2144275e-06+1.1072137e-06j ...  5.5474067e-01+2.1589715e+00j
 -1.7642504e+00+4.4468692e-01j  7.7050006e-01-7.9851145e-01j]",True,0,0,0,0,0,UAV,35.727722,-78.696655,30.05,-0.0429641529917717,0.1136625260114669,-0.0461227037012577,3.52,-3.52,0.04,0,4.97819244304597,"                                  0
time     2023-12-15 16:43:53.810529
type                            UAV
lat                       35.727722
lon                      -78.696652
alt                           30.05
pitch                     -0.042964
yaw                        0.113663
roll                      -0.046123
vel_x                          3.52
vel_y                         -3.52
vel_z                          0.04
heading                           0
speed                      4.978192",69.27974941567307,69.45148222191821
0,70.2,3686,75.07221,72.86999,18.05,ZC,True,[ 0.55254731  0.53073113  0.76990582 -1.42652097],0.10666582,[-7.13192178 -7.14746862 -7.23199612 -6.11331511],-6.90617540927824,-339.19205,[70.0757653  70.09758148 69.85840678 72.05483357],70.52164678203937,321.20620499999995,[ 302  703 1104 1505],[ 602 1003 1404 1805],602,1.963712313976955,-0.4167717403183591,-1.177887922732287,0.4167717403183591,Landing,"[-8.3041027e-07+1.9376241e-06j -8.3041027e-07-1.3840172e-07j
  1.1418142e-06-1.6608205e-06j ...  5.8247745e-02-2.6041944e-02j
 -4.8095152e-02-6.0870182e-02j -3.3784274e-02+6.5858319e-02j]",True,0,0,0,0,0,UAV,35.72773,-78.69666,30.05,-0.0441867932677269,0.1136878728866577,-0.0402716137468814,3.53,-3.53,0.02,0,4.992213937723422,"                                  0
time     2023-12-15 16:43:54.212563
type                            UAV
lat                        35.72773
lon                      -78.696662
alt                           30.05
pitch                     -0.044187
yaw                        0.113688
roll                      -0.040272
vel_x                          3.53
vel_y                         -3.53
vel_z                          0.02
heading                           0
speed                      4.992214",69.40507825862817,69.66551513394307
0,70.6,3686,77.3086,75.16904,18.062,ZC,True,[ 0.74552967  0.74123252  1.01812917 -1.2239137 ],0.3202444,[-7.05545049 -6.50724982 -6.79495637 -5.78295191],-6.535152147709855,-358.2916,[69.88278294 69.88708009 69.61018344 71.8522263 ],70.30806819026773,326.55964175,[ 303  704 1105 1506],[ 603 1004 1405 1806],603,1.9766360578820807,-0.4217378634060153,-1.1649643755254504,0.4217378634060153,Landing,"[ 2.7680343e-07+8.9961117e-07j  8.9961117e-07-1.0380129e-06j
  1.9376241e-06+5.5360687e-07j ...  3.8804242e-01-3.6559519e-01j
  2.5628558e-01+6.5789759e-01j -1.4935774e-01-2.9157174e-01j]",True,0,0,0,0,0,UAV,35.727745,-78.69668,30.062,-0.047492615878582,0.1138493791222572,-0.0453720986843109,3.53,-3.49,-0.02,0,4.9640104754119925,"                                  0
time     2023-12-15 16:43:54.615497
type                            UAV
lat                       35.727746
lon                      -78.696681
alt                          30.062
pitch                     -0.047493
yaw                        0.113849
roll                      -0.045372
vel_x                          3.53
vel_y                         -3.49
vel_z                         -0.02
heading                           0
speed                       4.96401",69.58968121248618,69.7940257452083
0,71.0,3686,79.56899,77.4844,18.094,ZC,True,[1.84633006 1.69441783 1.79233019 0.03327719],1.3415889,[-7.04167507 -7.22404603 -7.18087248 -6.51865296],-6.991311632586562,-670.8341,[68.78198254 68.93389477 68.83598242 70.59503542],69.28672378729445,331.9130785,[ 304  705 1106 1507],[ 604 1005 1406 1807],604,1.988921699213073,-0.4265061674856408,-1.1526789308928334,0.4265061674856408,Takeoff,"[-2.7680343e-07-1.1072137e-06j -5.5360687e-07+1.1072137e-06j
 -1.1072137e-06+6.9200860e-07j ...  4.0972166e-02-5.0051045e-01j
  5.4046910e-02+1.0224565e-01j -2.6488498e-02+8.1757769e-02j]",True,0,0,0,0,0,UAV,35.727764,-78.6967,30.094,-0.0462634600698947,0.1132597550749778,-0.0437357053160667,3.53,-3.5,0.04,0,4.971166865032796,"                                  0
time     2023-12-15 16:43:55.017306
type                            UAV
lat                       35.727762
lon                        -78.6967
alt                          30.094
pitch                     -0.046263
yaw                         0.11326
roll                      -0.043736
vel_x                          3.53
vel_y                          -3.5
vel_z                          0.04
heading                           0
speed                      4.971167",69.60564779525194,69.69256535362534
0,71.4,3686,80.69529,78.63986,18.097,ZC,True,[ 0.16875647  0.12605646  0.08531619 -1.47633698],-0.27405196,[-5.37682395 -5.42707407 -5.30886756 -4.71889741],-5.207915747040616,-57.422695,[70.45955614 70.50225615 70.54299641 72.10464958],70.90236457059252,331.9130785,[ 304  705 1106 1507],[  604  1005  1406  1807  7253  8742 13276 14512 17610 18766 28911],604,1.9947521783593316,-0.4286769628321971,-1.1468485495862089,0.4286769628321971,Takeoff,"[-5.5360687e-07-2.2144275e-06j  1.6608205e-06-5.0516628e-06j
 -1.9376241e-06+1.5224189e-06j ...  1.4084645e-01+6.5468721e-02j
 -4.6883304e-02+1.3757130e-04j -2.9145187e-02+5.2202358e-03j]",True,0,0,0,0,0,UAV,35.72777,-78.69671,30.097,-0.0483819022774696,0.1136650517582893,-0.0428796671330928,3.55,-3.49,0.03,0,4.978302923687951,"                                  0
time     2023-12-15 16:43:55.422986
type                            UAV
lat                        35.72777
lon                       -78.69671
alt                          30.097
pitch                     -0.048382
yaw                        0.113665
roll                       -0.04288
vel_x                          3.55
vel_y                         -3.49
vel_z                          0.03
heading                           0
speed                      4.978303",69.9134348155518,69.93452519701913
0,71.8,3686,82.95582,80.95847,18.094,ZC,True,[-0.11068628 -0.38178215 -0.16275926 -2.45440471],-0.7774081,[-8.16721577 -7.89788118 -7.85181418 -6.71611663],-7.658256940114834,-986.2305,[70.73899889 71.01009475 70.79107187 73.08271732],71.40572070617685,337.26651524999994,[ 305  706 1107 1508],"[  605  1006  1407  1808  7641 11667 14591 19962 21356 23025 25468 36715
 41850 43599 48550 50787 54885]",605,2.005912917255326,-0.4327407922862842,-1.1356880063695396,0.4327407922862842,Takeoff,"[ 2.2144275e-06-8.3041027e-07j -8.3041027e-07+0.0000000e+00j
 -4.4288549e-06+0.0000000e+00j ... -3.2757197e-02+6.0768706e-01j
  4.3682765e-02-2.7127185e-01j -7.3404118e-02+4.5044553e-02j]",True,0,0,0,0,0,UAV,35.727787,-78.69673,30.094,-0.0476024523377418,0.1130601018667221,-0.0479875765740871,3.55,-3.48,0.07,0,4.971699910493392,"                                  0
time     2023-12-15 16:43:55.828706
type                            UAV
lat                       35.727786
lon                      -78.696729
alt                          30.094
pitch                     -0.047602
yaw                         0.11306
roll                      -0.047988
vel_x                          3.55
vel_y                         -3.48
vel_z                          0.07
heading                           0
speed                        4.9717",70.03085667101361,70.22876429885102
0,72.2,3686,85.23951,83.29477,18.104,ZC,True,[2.42196133 2.64315002 2.70861446 0.66344232],2.109292,[-6.79702248 -6.91876197 -6.95972632 -6.25851755],-6.733507082100414,-24.381292,[68.20635128 67.98516258 67.91969815 69.96487028],68.51902057339723,342.619952,[ 306  707 1108 1509],[  606  1007  1408  1809  6039 11049 12069 15032 21333 24863 29226],606,2.016404138906736,-0.4365437771276237,-1.1251969814166856,0.4365437771276237,Takeoff,"[-6.9200860e-07+4.1520514e-07j  1.1072137e-06-3.1832394e-06j
  6.9200860e-07-1.1072137e-06j ...  2.5831020e-02-6.5802269e-02j
  2.7812669e-01-2.0803134e-01j -1.1969396e-01+1.3422005e-01j]",True,0,0,0,0,0,UAV,35.727802,-78.69675,30.104,-0.0480134896934032,0.1132198348641395,-0.04285554215312,3.55,-3.47,0.06,0,4.9645745034192,"                                  0
time     2023-12-15 16:43:56.234561
type                            UAV
lat                       35.727802
lon                      -78.696748
alt                          30.104
pitch                     -0.048013
yaw                         0.11322
roll                      -0.042856
vel_x                          3.55
vel_y                         -3.47
vel_z                          0.06
heading                           0
speed                      4.964575",69.98969800498293,69.88681555375993
0,72.6,3686,86.383446,84.46698,18.095,ZC,True,[-1.3778948  -1.02748293 -0.93656068 -3.28212723],-1.6560165,[-7.72219288 -7.31788647 -7.31434216 -6.51609285],-7.217628589092329,-349.32178,[72.0062074  71.65579554 71.56487329 73.91043984],72.28432901682635,337.26651524999994,[ 305  706 1107 1508],[ 605 1006 1407 1808],605,2.021573409710645,-0.4383636584724831,-1.120027808452516,0.4383636584724831,Takeoff,"[ 1.3840172e-07+1.03801284e-07j -1.3840172e-07-6.92008584e-08j
  0.0000000e+00-6.92008584e-08j ... -3.6027834e-02-1.32127881e-01j
  1.6430968e-01+3.70040536e-02j -9.9459350e-02+3.89416590e-02j]",True,0,0,0,0,0,UAV,35.72781,-78.696754,30.095,-0.0473245158791542,0.1144876554608345,-0.0411616042256355,3.56,-3.46,0.05,0,4.964645002414573,"                                  0
time     2023-12-15 16:43:56.640256
type                            UAV
lat                        35.72781
lon                      -78.696758
alt                          30.095
pitch                     -0.047325
yaw                        0.114488
roll                      -0.041162
vel_x                          3.56
vel_y                         -3.46
vel_z                          0.05
heading                           0
speed                      4.964645",70.17198896123861,70.36631824637358
0,73.0,3686,88.67268,86.80802,18.089,ZC,True,[ 0.92249573  1.20372707  1.27598349 -0.88973683],0.6281174,[-6.51130467 -6.75275394 -6.67492365 -5.89431744],-6.458324923303989,-482.911,[69.70581687 69.42458553 69.35232912 71.51804943],70.00019523897782,342.619952,[ 306  707 1108 1509],[ 606 1007 1408 1809],606,2.031263551899948,-0.4417461115134918,-1.110337861942729,0.4417461115134918,Takeoff,"[-1.6608205e-06-1.38401720e-06j -2.2144275e-06-6.92008584e-08j
 -3.3216411e-06-8.30410272e-07j ... -5.7827283e-02-1.40696689e-01j
  1.3164467e-01-7.69442990e-02j -1.1819797e-01+1.18075795e-01j]",True,0,0,0,0,0,UAV,35.727825,-78.69678,30.089,-0.0500964224338531,0.11383917927742,-0.0459927581250667,3.57,-3.46,0.06,0,4.971931214327085,"                                  0
time     2023-12-15 16:43:57.044148
type                            UAV
lat                       35.727826
lon                      -78.696777
alt                          30.089
pitch                     -0.050096
yaw                        0.113839
roll                      -0.045993
vel_x                          3.57
vel_y                         -3.46
vel_z                          0.06
heading                           0
speed                      4.971931",70.3095521239761,70.29309364489438
0,73.4,3686,89.82299,87.981476,18.095,ZC,True,[-0.8552335  -3.54455699],-2.1998951,[-10.65481922  -9.68864223],-10.171730724061128,-50.77104,[71.4835461  74.17286959],72.82820784657005,353.3268255,[ 308 1509],[ 608 1809 7926],608,2.0359150289626804,-0.4433919645689553,-1.105686482719783,0.4433919645689553,Takeoff,"[ 2.7680344e-06+2.7680344e-06j -1.3840172e-06-1.1072137e-06j
 -1.6608205e-06-1.1072137e-06j ...  6.0804081e-01-7.2500783e-01j
 -1.4297603e-01+3.6036235e-01j -7.8738118e-03-7.0563145e-02j]",True,0,0,0,0,0,UAV,35.727833,-78.696785,30.095,-0.0501780062913894,0.1137634068727493,-0.0459461994469165,3.57,-3.47,0.07,0,4.979026009170871,"                                  0
time     2023-12-15 16:43:57.446224
type                            UAV
lat                       35.727835
lon                      -78.696787
alt                          30.095
pitch                     -0.050178
yaw                        0.113763
roll                      -0.045946
vel_x                          3.57
vel_y                         -3.47
vel_z                          0.07
heading                           0
speed                      4.979026",70.61895878183267,70.80011648522976
0,73.8,3686,92.1122,90.31777,18.093,ZC,True,[ 0.27460135  0.39205247  0.35583496 -2.29619583],-0.31842676,[-7.63834203 -7.54685916 -7.19253981 -6.24778838],-7.15638234586667,-424.68567,[70.35371126 70.23626013 70.27247764 72.92450843],70.94673936607425,347.97338875,[ 307  708 1109 1510],[  607  1008  1409  1810 30377 31399],607,2.044946423011667,-0.4465289330576763,-1.0966552823121145,0.4465289330576763,Landing,"[-1.8684232e-06+6.9200860e-07j  6.9200860e-07+3.4600430e-07j
 -1.5224189e-06+7.2660902e-07j ...  1.0848245e-01+3.3288382e-02j
 -1.5949414e-03+1.0577462e-01j -2.3163188e-02-9.2564732e-02j]",True,0,0,0,0,0,UAV,35.72785,-78.69681,30.093,-0.0511762872338295,0.1143491640686988,-0.0492794960737228,3.57,-3.45,0.02,0,4.964655073617904,"                                  0
time     2023-12-15 16:43:57.848361
type                            UAV
lat                       35.727851
lon                      -78.696806
alt                          30.093
pitch                     -0.051176
yaw                        0.114349
roll                      -0.049279
vel_x                          3.57
vel_y                         -3.45
vel_z                          0.02
heading                           0
speed                      4.964655",70.70030160782167,70.82944106139867
0,74.2,3686,94.437004,92.6874,18.094,ZC,True,[-1.72555378 -1.72794488 -1.55271802 -3.68161204],-2.1719573,[-7.5628577  -7.8905706  -8.01388914 -6.98841431],-7.613932937325208,-408.3151,[72.35386639 72.35625749 72.18103062 74.30992464],72.8002697846989,347.97338875,[ 307  708 1109 1510],[  607  1008  1409  1810 30288 31118 31616],607,2.053643146677018,-0.4495273571472646,-1.08795875432649,0.4495273571472646,Takeoff,"[-9.6881206e-07+2.7680343e-07j -4.1520514e-07-4.8440603e-07j
 -6.9200860e-07+4.8440603e-07j ... -8.9748256e-02-3.7762749e-01j
  2.4640238e-01-2.0957986e-01j -5.6583744e-02+1.9101380e-01j]",True,0,0,0,0,0,UAV,35.727867,-78.69682,30.094,-0.0498230569064617,0.1138446256518364,-0.048732291907072,3.58,-3.46,0.05,0,4.9790059248809895,"                                  0
time     2023-12-15 16:43:58.252306
type                            UAV
lat                       35.727867
lon                      -78.696825
alt                          30.094
pitch                     -0.049823
yaw                        0.113845
roll                      -0.048732
vel_x                          3.58
vel_y                         -3.46
vel_z                          0.05
heading                           0
speed                      4.979006",70.92816390808761,71.22360680605883
0,74.6,3686,95.60952,93.88274,18.089,ZC,True,[ 0.19284575  0.374116    0.33209892 -2.41403016],-0.37874237,[-7.99562414 -7.40161045 -7.40037614 -6.4849079 ],-7.32062965719164,-390.8648,[70.43546685 70.25419661 70.29621368 73.04234277],71.00705497770073,353.3268255,[ 308  709 1110 1511],[  608  1009  1410  1811 36122 39291 42978 53518 55003],608,2.0577816092246835,-0.4509000336978405,-1.0838203906378738,0.4509000336978405,Takeoff,"[ 5.5360687e-07+0.0000000e+00j  1.1072137e-06+1.9376241e-06j
 -1.1072137e-06+5.5360687e-07j ...  1.5438567e+00-9.6537465e-01j
  5.1401913e-01+1.7990748e+00j -6.5788800e-01-8.0425888e-01j]",True,0,0,0,0,0,UAV,35.727875,-78.69684,30.089,-0.0499097481369972,0.1138318926095962,-0.045080617070198,3.61,-3.49,0.06,0,5.021533630276711,"                                  0
time     2023-12-15 16:43:58.654425
type                            UAV
lat                       35.727875
lon                      -78.696835
alt                          30.089
pitch                      -0.04991
yaw                        0.113832
roll                      -0.045081
vel_x                          3.61
vel_y                         -3.49
vel_z                          0.06
heading                           0
speed                      5.021534",70.99806258683091,71.18029644038721
0,75.0,3686,97.94291,96.26212,18.067,ZC,True,[ 0.44344198  0.5437872   0.64332403 -1.68392116],-0.0133419875,[-6.13432473 -6.4574683  -6.41142446 -5.63169266],-6.1587275367912895,-286.66394,[70.18487063 70.0845254  69.98498858 72.31223376],70.64165459213054,358.68026225,[ 309  710 1111 1512],"[  609  1010  1411  1812  5051  6599  8195  8803  9519 10444 13111 17248
 18145 18764 20466 21701 22457 22902 24665 25148 25868 27071 28265 29058]",609,2.0658391991766982,-0.4535304923443881,-1.0757629963657025,0.4535304923443881,Takeoff,"[ 5.5360687e-07-5.5360687e-07j  3.3216411e-06+1.6608205e-06j
  5.5360687e-07-8.3041027e-07j ...  1.4618571e-01+2.3489429e-01j
 -2.0945716e-01-1.5390216e-01j  9.3968123e-02+9.0334797e-03j]",True,0,0,0,0,0,UAV,35.72789,-78.69685,30.067,-0.0496404357254505,0.114603191614151,-0.0426800101995468,3.61,-3.47,0.03,0,5.007384546846787,"                                  0
time     2023-12-15 16:43:59.056377
type                            UAV
lat                       35.727891
lon                      -78.696854
alt                          30.067
pitch                      -0.04964
yaw                        0.114603
roll                       -0.04268
vel_x                          3.61
vel_y                         -3.47
vel_z                          0.03
heading                           0
speed                      5.007385",71.13355566731452,71.07256807073585
0,75.4,3686,99.104836,97.44614,18.056,ZC,True,[ 0.72575016  0.78189348  0.76298002 -1.24564927],0.2562436,[-7.29461857 -6.78214898 -6.96587616 -6.22751587],-6.817539896027379,48.1099,[69.90256244 69.84641912 69.86533259 71.87396188],70.37206900738562,364.033699,[ 310  711 1112 1513],[ 610 1011 1412 1813],610,2.069764746348236,-0.4548157751529291,-1.0718375460149587,0.4548157751529291,Takeoff,"[-4.8440603e-07-4.1520514e-07j -2.7680343e-07-2.0760257e-07j
  8.3041027e-07-1.3840172e-07j ... -7.5141668e-01-2.1512982e-01j
  4.7393006e-01-8.8619041e-01j -1.0650801e-01+5.2824587e-01j]",True,0,0,0,0,0,UAV,35.727898,-78.69686,30.056,-0.0493318252265453,0.1144452542066574,-0.0474769994616508,3.6,-3.48,0.04,0,5.00719482345155,"                                  0
time     2023-12-15 16:43:59.460335
type                            UAV
lat                       35.727899
lon                      -78.696863
alt                          30.056
pitch                     -0.049332
yaw                        0.114445
roll                      -0.047477
vel_x                           3.6
vel_y                         -3.48
vel_z                          0.04
heading                           0
speed                      5.007195",71.08052611099384,70.93246825806578
0,75.8,3686,101.44037,99.82103,18.053,ZC,True,[-0.82504261 -1.16221165 -1.01687087 -3.5578076 ],-1.6404831,[-8.50810987 -7.30036789 -7.06708707 -6.23124262],-7.276701864045093,-688.72144,[71.45335521 71.79052426 71.64518347 74.18612021],72.26879578815026,364.033699,[ 310  711 1112 1513],[ 610 1011 1412 1813],610,2.0771950095822933,-0.4572642680636902,-1.0644074774416907,0.4572642680636902,Flight,"[-5.0170621e-07-3.4600430e-07j  1.2110151e-07-7.6120944e-07j
  3.4600430e-07+0.0000000e+00j ... -1.0115408e-01+9.9768363e-02j
  1.6459770e-03-2.9757615e-02j  7.6000621e-03-7.5375480e-03j]",True,0,0,0,0,0,UAV,35.727917,-78.696884,30.053,-0.0496333949267864,0.1130841895937919,-0.0493369661271572,3.58,-3.46,0.01,0,4.97876490708288,"                                  0
time     2023-12-15 16:43:59.862570
type                            UAV
lat                       35.727915
lon                      -78.696882
alt                          30.053
pitch                     -0.049633
yaw                        0.113084
roll                      -0.049337
vel_x                          3.58
vel_y                         -3.46
vel_z                          0.01
heading                           0
speed                      4.978765",71.16683361919118,71.19973376408272
0,76.2,3686,103.798775,102.21451,18.066,ZC,True,[ 0.21314102  0.38711577  0.38213443 -1.90475637],-0.23059128,[-8.25870083 -8.60895778 -8.33118538 -7.87158664],-8.267607658094127,-31.580706,[70.41517158 70.24119683 70.24617818 72.53306898],70.85890389153141,364.033699,[ 310  711 1112 1513],[ 610 1011 1412 1813],610,2.0843306448068053,-0.4596514181282758,-1.0572720378972136,0.4596514181282758,Landing,"[ 3.11403852e-07+2.0760257e-07j  2.07602568e-07-8.9961117e-07j
